<?xml version='1.0' encoding='UTF-8' standalone='yes' ?>
<gpx version="1.1" creator="Binnette" xmlns="http://www.topografix.com/GPX/1/1" xmlns:osmand="https://osmand.net" xmlns:xsi="http://www.w3.org/2001/XMLSchema-instance" xsi:schemaLocation="http://www.topografix.com/GPX/1/1 http://www.topografix.com/GPX/1/1/gpx.xsd">
  <wpt lat="44.111095" lon="6.012644">
    <name>Place de l'Enfance</name>
    <desc></desc>
    <type>Delivrez giveboxes</type>
    <extensions>
      <osmand:color>#0000ff</osmand:color>
      <osmand:background>square</osmand:background>
      <osmand:icon>outpost</osmand:icon>
    </extensions>
  </wpt>
  <wpt lat="44.174929" lon="5.648917">
    <name>Route de Sisteron</name>
    <desc>a côté d'un abri bus</desc>
    <type>Delivrez giveboxes</type>
    <extensions>
      <osmand:color>#0000ff</osmand:color>
      <osmand:background>square</osmand:background>
      <osmand:icon>outpost</osmand:icon>
    </extensions>
  </wpt>
  <wpt lat="44.111034" lon="6.014199">
    <name>Place de la petite enfance ( face à l'entrée de la</name>
    <desc>la gratuiterie est un espace où vous pouvez déposer des objets et/ou prendre des objets. Le tout sans échange d'argent. Tout est gratuit. C'est ouvert du mardi au vendredi matin de 9h à midi. Le mardi</desc>
    <type>Delivrez giveboxes</type>
    <extensions>
      <osmand:color>#0000ff</osmand:color>
      <osmand:background>square</osmand:background>
      <osmand:icon>outpost</osmand:icon>
    </extensions>
  </wpt>
  <wpt lat="44.442085" lon="6.353002">
    <name>1 Les Garreaux</name>
    <desc>dans l'agence postale Communale 8h15 11h45 du lundi au vendredi</desc>
    <type>Delivrez giveboxes</type>
    <extensions>
      <osmand:color>#0000ff</osmand:color>
      <osmand:background>square</osmand:background>
      <osmand:icon>outpost</osmand:icon>
    </extensions>
  </wpt>
  <wpt lat="44.504328" lon="6.110454">
    <name>Montée du Fraissy</name>
    <desc></desc>
    <type>Delivrez giveboxes</type>
    <extensions>
      <osmand:color>#0000ff</osmand:color>
      <osmand:background>square</osmand:background>
      <osmand:icon>outpost</osmand:icon>
    </extensions>
  </wpt>
  <wpt lat="43.956123" lon="5.77615">
    <name>Avenue du Général Charles de Gaulle</name>
    <desc>_</desc>
    <type>Delivrez giveboxes</type>
    <extensions>
      <osmand:color>#0000ff</osmand:color>
      <osmand:background>square</osmand:background>
      <osmand:icon>outpost</osmand:icon>
    </extensions>
  </wpt>
  <wpt lat="44.134222" lon="6.342268">
    <name>Boite à dons</name>
    <desc>_</desc>
    <type>Delivrez giveboxes</type>
    <extensions>
      <osmand:color>#0000ff</osmand:color>
      <osmand:background>square</osmand:background>
      <osmand:icon>outpost</osmand:icon>
    </extensions>
  </wpt>
  <wpt lat="44.82065" lon="6.165885">
    <name>Rue de Pétarel</name>
    <desc>au dessus de la fontaine sur une fenêtre</desc>
    <type>Delivrez giveboxes</type>
    <extensions>
      <osmand:color>#0000ff</osmand:color>
      <osmand:background>square</osmand:background>
      <osmand:icon>outpost</osmand:icon>
    </extensions>
  </wpt>
  <extensions>
    <osmand:points_groups>
      <group name="Delivrez giveboxes" color="#0000ff" icon="outpost" background="square" />
    </osmand:points_groups>
  </extensions>
</gpx>