<?xml version='1.0' encoding='UTF-8' standalone='yes' ?>
<gpx version="1.1" creator="Binnette" xmlns="http://www.topografix.com/GPX/1/1" xmlns:osmand="https://osmand.net" xmlns:xsi="http://www.w3.org/2001/XMLSchema-instance" xsi:schemaLocation="http://www.topografix.com/GPX/1/1 http://www.topografix.com/GPX/1/1/gpx.xsd">
  <wpt lat="46.17158" lon="4.802851">
    <name>Rue de la Grande Mademoiselle</name>
    <desc>mjc</desc>
    <type>Delivrez bookcases</type>
    <extensions>
      <osmand:color>#ff5020</osmand:color>
      <osmand:background>square</osmand:background>
      <osmand:icon>public_bookcase</osmand:icon>
    </extensions>
  </wpt>
  <wpt lat="46.177863" lon="4.816717">
    <name>Place de l'Église</name>
    <desc>mairie</desc>
    <type>Delivrez bookcases</type>
    <extensions>
      <osmand:color>#ff5020</osmand:color>
      <osmand:background>square</osmand:background>
      <osmand:icon>public_bookcase</osmand:icon>
    </extensions>
  </wpt>
  <wpt lat="45.872837" lon="3.885435">
    <name>Le Bourg</name>
    <desc>au local de la balance</desc>
    <type>Delivrez bookcases</type>
    <extensions>
      <osmand:color>#ff5020</osmand:color>
      <osmand:background>square</osmand:background>
      <osmand:icon>public_bookcase</osmand:icon>
    </extensions>
  </wpt>
  <wpt lat="46.152774" lon="3.065268">
    <name>Le Bourg</name>
    <desc>cabine téléphonique</desc>
    <type>Delivrez bookcases</type>
    <extensions>
      <osmand:color>#ff5020</osmand:color>
      <osmand:background>square</osmand:background>
      <osmand:icon>public_bookcase</osmand:icon>
    </extensions>
  </wpt>
  <wpt lat="46.126081" lon="3.159218">
    <name>Route de Gannat</name>
    <desc></desc>
    <type>Delivrez bookcases</type>
    <extensions>
      <osmand:color>#ff5020</osmand:color>
      <osmand:background>square</osmand:background>
      <osmand:icon>public_bookcase</osmand:icon>
    </extensions>
  </wpt>
  <wpt lat="45.931882" lon="5.153961">
    <name>Route de la Dombes</name>
    <desc></desc>
    <type>Delivrez bookcases</type>
    <extensions>
      <osmand:color>#ff5020</osmand:color>
      <osmand:background>square</osmand:background>
      <osmand:icon>public_bookcase</osmand:icon>
    </extensions>
  </wpt>
  <wpt lat="46.104127" lon="3.895837">
    <name>Impasse Saint-Charles</name>
    <desc>devant office du tourisme</desc>
    <type>Delivrez bookcases</type>
    <extensions>
      <osmand:color>#ff5020</osmand:color>
      <osmand:background>square</osmand:background>
      <osmand:icon>public_bookcase</osmand:icon>
    </extensions>
  </wpt>
  <wpt lat="46.135422" lon="4.012597">
    <name>Place Verdun</name>
    <desc>devant l'epicerie</desc>
    <type>Delivrez bookcases</type>
    <extensions>
      <osmand:color>#ff5020</osmand:color>
      <osmand:background>square</osmand:background>
      <osmand:icon>public_bookcase</osmand:icon>
    </extensions>
  </wpt>
  <wpt lat="46.104033" lon="3.896439">
    <name>Grande Rue</name>
    <desc>magasin Vival</desc>
    <type>Delivrez bookcases</type>
    <extensions>
      <osmand:color>#ff5020</osmand:color>
      <osmand:background>square</osmand:background>
      <osmand:icon>public_bookcase</osmand:icon>
    </extensions>
  </wpt>
  <wpt lat="45.911894" lon="3.977883">
    <name>Rue de la Mairie</name>
    <desc>derrière le bar</desc>
    <type>Delivrez bookcases</type>
    <extensions>
      <osmand:color>#ff5020</osmand:color>
      <osmand:background>square</osmand:background>
      <osmand:icon>public_bookcase</osmand:icon>
    </extensions>
  </wpt>
  <wpt lat="46.031155" lon="3.17424">
    <name>Route du Château</name>
    <desc></desc>
    <type>Delivrez bookcases</type>
    <extensions>
      <osmand:color>#ff5020</osmand:color>
      <osmand:background>square</osmand:background>
      <osmand:icon>public_bookcase</osmand:icon>
    </extensions>
  </wpt>
  <wpt lat="45.878396" lon="3.696387">
    <name>Route de la Durolle</name>
    <desc></desc>
    <type>Delivrez bookcases</type>
    <extensions>
      <osmand:color>#ff5020</osmand:color>
      <osmand:background>square</osmand:background>
      <osmand:icon>public_bookcase</osmand:icon>
    </extensions>
  </wpt>
  <wpt lat="45.868565" lon="3.634469">
    <name>Route de Thiers</name>
    <desc>la maison.du pont</desc>
    <type>Delivrez bookcases</type>
    <extensions>
      <osmand:color>#ff5020</osmand:color>
      <osmand:background>square</osmand:background>
      <osmand:icon>public_bookcase</osmand:icon>
    </extensions>
  </wpt>
  <wpt lat="46.288208" lon="2.658205">
    <name>jardin du Casino</name>
    <desc></desc>
    <type>Delivrez bookcases</type>
    <extensions>
      <osmand:color>#ff5020</osmand:color>
      <osmand:background>square</osmand:background>
      <osmand:icon>public_bookcase</osmand:icon>
    </extensions>
  </wpt>
  <wpt lat="45.432867" lon="4.743829">
    <name>Route Nationale 86</name>
    <desc></desc>
    <type>Delivrez bookcases</type>
    <extensions>
      <osmand:color>#ff5020</osmand:color>
      <osmand:background>square</osmand:background>
      <osmand:icon>public_bookcase</osmand:icon>
    </extensions>
  </wpt>
  <wpt lat="45.396764" lon="4.774718">
    <name>Rue de la Commune 1871</name>
    <desc></desc>
    <type>Delivrez bookcases</type>
    <extensions>
      <osmand:color>#ff5020</osmand:color>
      <osmand:background>square</osmand:background>
      <osmand:icon>public_bookcase</osmand:icon>
    </extensions>
  </wpt>
  <wpt lat="45.385468" lon="4.778813">
    <name>Rue Anne Franck</name>
    <desc></desc>
    <type>Delivrez bookcases</type>
    <extensions>
      <osmand:color>#ff5020</osmand:color>
      <osmand:background>square</osmand:background>
      <osmand:icon>public_bookcase</osmand:icon>
    </extensions>
  </wpt>
  <wpt lat="45.645184" lon="4.046607">
    <name>Rue de la Mairie</name>
    <desc>sur une place</desc>
    <type>Delivrez bookcases</type>
    <extensions>
      <osmand:color>#ff5020</osmand:color>
      <osmand:background>square</osmand:background>
      <osmand:icon>public_bookcase</osmand:icon>
    </extensions>
  </wpt>
  <wpt lat="44.500347" lon="4.575662">
    <name>Rue Nouvelle Entrée</name>
    <desc></desc>
    <type>Delivrez bookcases</type>
    <extensions>
      <osmand:color>#ff5020</osmand:color>
      <osmand:background>square</osmand:background>
      <osmand:icon>public_bookcase</osmand:icon>
    </extensions>
  </wpt>
  <wpt lat="45.592962" lon="3.994589">
    <name>D113</name>
    <desc>sur aire de repos</desc>
    <type>Delivrez bookcases</type>
    <extensions>
      <osmand:color>#ff5020</osmand:color>
      <osmand:background>square</osmand:background>
      <osmand:icon>public_bookcase</osmand:icon>
    </extensions>
  </wpt>
  <wpt lat="44.753663" lon="5.370634">
    <name>Rue du Salin</name>
    <desc></desc>
    <type>Delivrez bookcases</type>
    <extensions>
      <osmand:color>#ff5020</osmand:color>
      <osmand:background>square</osmand:background>
      <osmand:icon>public_bookcase</osmand:icon>
    </extensions>
  </wpt>
  <wpt lat="45.928057" lon="4.006164">
    <name>Rue du Fournil</name>
    <desc>carrefour de l'église cabine téléphonique</desc>
    <type>Delivrez bookcases</type>
    <extensions>
      <osmand:color>#ff5020</osmand:color>
      <osmand:background>square</osmand:background>
      <osmand:icon>public_bookcase</osmand:icon>
    </extensions>
  </wpt>
  <wpt lat="46.137818" lon="3.435953">
    <name>Avenue Gilbert Roux</name>
    <desc>station service Carrefour, frigo kiosque à pizza</desc>
    <type>Delivrez bookcases</type>
    <extensions>
      <osmand:color>#ff5020</osmand:color>
      <osmand:background>square</osmand:background>
      <osmand:icon>public_bookcase</osmand:icon>
    </extensions>
  </wpt>
  <wpt lat="45.88503" lon="4.084808">
    <name>Rue de l'Artisanat</name>
    <desc>cabine téléphonique  face l'église</desc>
    <type>Delivrez bookcases</type>
    <extensions>
      <osmand:color>#ff5020</osmand:color>
      <osmand:background>square</osmand:background>
      <osmand:icon>public_bookcase</osmand:icon>
    </extensions>
  </wpt>
  <wpt lat="45.979026" lon="3.518694">
    <name>Rue de la Tannerie</name>
    <desc>Dans le parc des Gravières</desc>
    <type>Delivrez bookcases</type>
    <extensions>
      <osmand:color>#ff5020</osmand:color>
      <osmand:background>square</osmand:background>
      <osmand:icon>public_bookcase</osmand:icon>
    </extensions>
  </wpt>
  <wpt lat="45.241488" lon="6.459978">
    <name>Montée de Pré Chevalier</name>
    <desc></desc>
    <type>Delivrez bookcases</type>
    <extensions>
      <osmand:color>#ff5020</osmand:color>
      <osmand:background>square</osmand:background>
      <osmand:icon>public_bookcase</osmand:icon>
    </extensions>
  </wpt>
  <wpt lat="45.751057" lon="3.24572">
    <name>Boîte à livres</name>
    <desc></desc>
    <type>Delivrez bookcases</type>
    <extensions>
      <osmand:color>#ff5020</osmand:color>
      <osmand:background>square</osmand:background>
      <osmand:icon>public_bookcase</osmand:icon>
    </extensions>
  </wpt>
  <wpt lat="45.224429" lon="4.139335">
    <name>Rue nationale</name>
    <desc>côté hôtel de ville</desc>
    <type>Delivrez bookcases</type>
    <extensions>
      <osmand:color>#ff5020</osmand:color>
      <osmand:background>square</osmand:background>
      <osmand:icon>public_bookcase</osmand:icon>
    </extensions>
  </wpt>
  <wpt lat="45.223081" lon="4.13765">
    <name>Place Eugène Chapon</name>
    <desc></desc>
    <type>Delivrez bookcases</type>
    <extensions>
      <osmand:color>#ff5020</osmand:color>
      <osmand:background>square</osmand:background>
      <osmand:icon>public_bookcase</osmand:icon>
    </extensions>
  </wpt>
  <wpt lat="45.673807" lon="6.386579">
    <name>Avenue Victor Hugo</name>
    <desc></desc>
    <type>Delivrez bookcases</type>
    <extensions>
      <osmand:color>#ff5020</osmand:color>
      <osmand:background>square</osmand:background>
      <osmand:icon>public_bookcase</osmand:icon>
    </extensions>
  </wpt>
  <wpt lat="44.723186" lon="4.941084">
    <name>Chemin de Peygranet</name>
    <desc></desc>
    <type>Delivrez bookcases</type>
    <extensions>
      <osmand:color>#ff5020</osmand:color>
      <osmand:background>square</osmand:background>
      <osmand:icon>public_bookcase</osmand:icon>
    </extensions>
  </wpt>
  <wpt lat="44.704977" lon="5.00506">
    <name>Rue de L’Eglise</name>
    <desc></desc>
    <type>Delivrez bookcases</type>
    <extensions>
      <osmand:color>#ff5020</osmand:color>
      <osmand:background>square</osmand:background>
      <osmand:icon>public_bookcase</osmand:icon>
    </extensions>
  </wpt>
  <wpt lat="45.973497" lon="6.454233">
    <name>Route du Chinaillon</name>
    <desc></desc>
    <type>Delivrez bookcases</type>
    <extensions>
      <osmand:color>#ff5020</osmand:color>
      <osmand:background>square</osmand:background>
      <osmand:icon>public_bookcase</osmand:icon>
    </extensions>
  </wpt>
  <wpt lat="45.675231" lon="6.380315">
    <name>Chemin de la Combaz</name>
    <desc></desc>
    <type>Delivrez bookcases</type>
    <extensions>
      <osmand:color>#ff5020</osmand:color>
      <osmand:background>square</osmand:background>
      <osmand:icon>public_bookcase</osmand:icon>
    </extensions>
  </wpt>
  <wpt lat="45.61933" lon="4.15152">
    <name>Route de l'École</name>
    <desc></desc>
    <type>Delivrez bookcases</type>
    <extensions>
      <osmand:color>#ff5020</osmand:color>
      <osmand:background>square</osmand:background>
      <osmand:icon>public_bookcase</osmand:icon>
    </extensions>
  </wpt>
  <wpt lat="45.461054" lon="4.115724">
    <name>Combe le Grand</name>
    <desc></desc>
    <type>Delivrez bookcases</type>
    <extensions>
      <osmand:color>#ff5020</osmand:color>
      <osmand:background>square</osmand:background>
      <osmand:icon>public_bookcase</osmand:icon>
    </extensions>
  </wpt>
  <wpt lat="45.462486" lon="3.989476">
    <name>Route de Saint-Anthème</name>
    <desc></desc>
    <type>Delivrez bookcases</type>
    <extensions>
      <osmand:color>#ff5020</osmand:color>
      <osmand:background>square</osmand:background>
      <osmand:icon>public_bookcase</osmand:icon>
    </extensions>
  </wpt>
  <wpt lat="45.478579" lon="4.046432">
    <name>Rue de la Tour</name>
    <desc>p3</desc>
    <type>Delivrez bookcases</type>
    <extensions>
      <osmand:color>#ff5020</osmand:color>
      <osmand:background>square</osmand:background>
      <osmand:icon>public_bookcase</osmand:icon>
    </extensions>
  </wpt>
  <wpt lat="45.540146" lon="4.000715">
    <name>Place de la Mairie</name>
    <desc></desc>
    <type>Delivrez bookcases</type>
    <extensions>
      <osmand:color>#ff5020</osmand:color>
      <osmand:background>square</osmand:background>
      <osmand:icon>public_bookcase</osmand:icon>
    </extensions>
  </wpt>
  <wpt lat="45.570782" lon="3.996956">
    <name>allée des pommiers</name>
    <desc></desc>
    <type>Delivrez bookcases</type>
    <extensions>
      <osmand:color>#ff5020</osmand:color>
      <osmand:background>square</osmand:background>
      <osmand:icon>public_bookcase</osmand:icon>
    </extensions>
  </wpt>
  <wpt lat="45.598642" lon="4.036767">
    <name>Vinols</name>
    <desc>cabanon en bord de rout</desc>
    <type>Delivrez bookcases</type>
    <extensions>
      <osmand:color>#ff5020</osmand:color>
      <osmand:background>square</osmand:background>
      <osmand:icon>public_bookcase</osmand:icon>
    </extensions>
  </wpt>
  <wpt lat="45.591018" lon="4.050963">
    <name>Place de la Mairie</name>
    <desc></desc>
    <type>Delivrez bookcases</type>
    <extensions>
      <osmand:color>#ff5020</osmand:color>
      <osmand:background>square</osmand:background>
      <osmand:icon>public_bookcase</osmand:icon>
    </extensions>
  </wpt>
  <wpt lat="44.944886" lon="4.845471">
    <name>Rue République</name>
    <desc>face médiathèque</desc>
    <type>Delivrez bookcases</type>
    <extensions>
      <osmand:color>#ff5020</osmand:color>
      <osmand:background>square</osmand:background>
      <osmand:icon>public_bookcase</osmand:icon>
    </extensions>
  </wpt>
  <wpt lat="45.524522" lon="4.257053">
    <name>Place du Forez</name>
    <desc>a coter du vival</desc>
    <type>Delivrez bookcases</type>
    <extensions>
      <osmand:color>#ff5020</osmand:color>
      <osmand:background>square</osmand:background>
      <osmand:icon>public_bookcase</osmand:icon>
    </extensions>
  </wpt>
  <wpt lat="45.587486" lon="4.011311">
    <name>Route de Baracuchet-Rd113</name>
    <desc></desc>
    <type>Delivrez bookcases</type>
    <extensions>
      <osmand:color>#ff5020</osmand:color>
      <osmand:background>square</osmand:background>
      <osmand:icon>public_bookcase</osmand:icon>
    </extensions>
  </wpt>
  <wpt lat="44.939663" lon="4.839784">
    <name>allée James Rey</name>
    <desc></desc>
    <type>Delivrez bookcases</type>
    <extensions>
      <osmand:color>#ff5020</osmand:color>
      <osmand:background>square</osmand:background>
      <osmand:icon>public_bookcase</osmand:icon>
    </extensions>
  </wpt>
  <wpt lat="44.665139" lon="4.36473">
    <name>Mairie</name>
    <desc></desc>
    <type>Delivrez bookcases</type>
    <extensions>
      <osmand:color>#ff5020</osmand:color>
      <osmand:background>square</osmand:background>
      <osmand:icon>public_bookcase</osmand:icon>
    </extensions>
  </wpt>
  <wpt lat="45.369477" lon="5.587292">
    <name>32 Rue Sermorens</name>
    <desc>boite rouge au mur</desc>
    <type>Delivrez bookcases</type>
    <extensions>
      <osmand:color>#ff5020</osmand:color>
      <osmand:background>square</osmand:background>
      <osmand:icon>public_bookcase</osmand:icon>
    </extensions>
  </wpt>
  <wpt lat="46.206293" lon="5.224842">
    <name>Cours de Verdun</name>
    <desc>salle des fêtes/cinéma</desc>
    <type>Delivrez bookcases</type>
    <extensions>
      <osmand:color>#ff5020</osmand:color>
      <osmand:background>square</osmand:background>
      <osmand:icon>public_bookcase</osmand:icon>
    </extensions>
  </wpt>
  <wpt lat="44.92966" lon="4.833064">
    <name>Allée Hippolyte Bernera</name>
    <desc></desc>
    <type>Delivrez bookcases</type>
    <extensions>
      <osmand:color>#ff5020</osmand:color>
      <osmand:background>square</osmand:background>
      <osmand:icon>public_bookcase</osmand:icon>
    </extensions>
  </wpt>
  <wpt lat="45.955403" lon="5.362315">
    <name>Rue des Échelles</name>
    <desc>à l'entrée du parc</desc>
    <type>Delivrez bookcases</type>
    <extensions>
      <osmand:color>#ff5020</osmand:color>
      <osmand:background>square</osmand:background>
      <osmand:icon>public_bookcase</osmand:icon>
    </extensions>
  </wpt>
  <wpt lat="45.902383" lon="5.346651">
    <name>Rue des Tanneries</name>
    <desc>institut TENANE</desc>
    <type>Delivrez bookcases</type>
    <extensions>
      <osmand:color>#ff5020</osmand:color>
      <osmand:background>square</osmand:background>
      <osmand:icon>public_bookcase</osmand:icon>
    </extensions>
  </wpt>
  <wpt lat="45.821208" lon="5.419585">
    <name>Rue du Rhône</name>
    <desc></desc>
    <type>Delivrez bookcases</type>
    <extensions>
      <osmand:color>#ff5020</osmand:color>
      <osmand:background>square</osmand:background>
      <osmand:icon>public_bookcase</osmand:icon>
    </extensions>
  </wpt>
  <wpt lat="45.349627" lon="5.596032">
    <name>Route de Saint-Jean</name>
    <desc>à l'entrée du Carrefour market de St Jean de Moirans</desc>
    <type>Delivrez bookcases</type>
    <extensions>
      <osmand:color>#ff5020</osmand:color>
      <osmand:background>square</osmand:background>
      <osmand:icon>public_bookcase</osmand:icon>
    </extensions>
  </wpt>
  <wpt lat="46.345915" lon="3.251646">
    <name>Place de la Fontaine</name>
    <desc>maison du tourisme</desc>
    <type>Delivrez bookcases</type>
    <extensions>
      <osmand:color>#ff5020</osmand:color>
      <osmand:background>square</osmand:background>
      <osmand:icon>public_bookcase</osmand:icon>
    </extensions>
  </wpt>
  <wpt lat="45.32069" lon="6.344811">
    <name>Rue de la Mairie</name>
    <desc></desc>
    <type>Delivrez bookcases</type>
    <extensions>
      <osmand:color>#ff5020</osmand:color>
      <osmand:background>square</osmand:background>
      <osmand:icon>public_bookcase</osmand:icon>
    </extensions>
  </wpt>
  <wpt lat="45.063155" lon="4.159711">
    <name>Passage des Ecoliers</name>
    <desc></desc>
    <type>Delivrez bookcases</type>
    <extensions>
      <osmand:color>#ff5020</osmand:color>
      <osmand:background>square</osmand:background>
      <osmand:icon>public_bookcase</osmand:icon>
    </extensions>
  </wpt>
  <wpt lat="45.52478" lon="4.066065">
    <name>Route de Saint-Jean Soleymieux</name>
    <desc></desc>
    <type>Delivrez bookcases</type>
    <extensions>
      <osmand:color>#ff5020</osmand:color>
      <osmand:background>square</osmand:background>
      <osmand:icon>public_bookcase</osmand:icon>
    </extensions>
  </wpt>
  <wpt lat="45.958664" lon="5.834312">
    <name>Grande Rue</name>
    <desc>Entre assureur et herboriste sous le porche</desc>
    <type>Delivrez bookcases</type>
    <extensions>
      <osmand:color>#ff5020</osmand:color>
      <osmand:background>square</osmand:background>
      <osmand:icon>public_bookcase</osmand:icon>
    </extensions>
  </wpt>
  <wpt lat="44.443658" lon="4.707423">
    <name>Boulevard des Barrys</name>
    <desc>dans le parc</desc>
    <type>Delivrez bookcases</type>
    <extensions>
      <osmand:color>#ff5020</osmand:color>
      <osmand:background>square</osmand:background>
      <osmand:icon>public_bookcase</osmand:icon>
    </extensions>
  </wpt>
  <wpt lat="46.474466" lon="2.831954">
    <name>Place du Marché</name>
    <desc></desc>
    <type>Delivrez bookcases</type>
    <extensions>
      <osmand:color>#ff5020</osmand:color>
      <osmand:background>square</osmand:background>
      <osmand:icon>public_bookcase</osmand:icon>
    </extensions>
  </wpt>
  <wpt lat="45.587338" lon="5.320152">
    <name>Rue de la Salière</name>
    <desc>devant l'école</desc>
    <type>Delivrez bookcases</type>
    <extensions>
      <osmand:color>#ff5020</osmand:color>
      <osmand:background>square</osmand:background>
      <osmand:icon>public_bookcase</osmand:icon>
    </extensions>
  </wpt>
  <wpt lat="45.587536" lon="5.37587">
    <name>Rue Centrale</name>
    <desc></desc>
    <type>Delivrez bookcases</type>
    <extensions>
      <osmand:color>#ff5020</osmand:color>
      <osmand:background>square</osmand:background>
      <osmand:icon>public_bookcase</osmand:icon>
    </extensions>
  </wpt>
  <wpt lat="45.449594" lon="4.736215">
    <name>29 RN 86 école de verlieu</name>
    <desc></desc>
    <type>Delivrez bookcases</type>
    <extensions>
      <osmand:color>#ff5020</osmand:color>
      <osmand:background>square</osmand:background>
      <osmand:icon>public_bookcase</osmand:icon>
    </extensions>
  </wpt>
  <wpt lat="46.117214" lon="3.088226">
    <name>Route de Vicq</name>
    <desc>en face ancienne balance</desc>
    <type>Delivrez bookcases</type>
    <extensions>
      <osmand:color>#ff5020</osmand:color>
      <osmand:background>square</osmand:background>
      <osmand:icon>public_bookcase</osmand:icon>
    </extensions>
  </wpt>
  <wpt lat="44.727581" lon="5.024918">
    <name>Rue Général Bovet</name>
    <desc>en bas des toilettes</desc>
    <type>Delivrez bookcases</type>
    <extensions>
      <osmand:color>#ff5020</osmand:color>
      <osmand:background>square</osmand:background>
      <osmand:icon>public_bookcase</osmand:icon>
    </extensions>
  </wpt>
  <wpt lat="44.727308" lon="5.024435">
    <name>Rue Aristide Dumont</name>
    <desc></desc>
    <type>Delivrez bookcases</type>
    <extensions>
      <osmand:color>#ff5020</osmand:color>
      <osmand:background>square</osmand:background>
      <osmand:icon>public_bookcase</osmand:icon>
    </extensions>
  </wpt>
  <wpt lat="45.939912" lon="2.842489">
    <name>La Poste</name>
    <desc></desc>
    <type>Delivrez bookcases</type>
    <extensions>
      <osmand:color>#ff5020</osmand:color>
      <osmand:background>square</osmand:background>
      <osmand:icon>public_bookcase</osmand:icon>
    </extensions>
  </wpt>
  <wpt lat="45.9196" lon="3.072515">
    <name>Avenue de l'Europe</name>
    <desc>office de tourisme</desc>
    <type>Delivrez bookcases</type>
    <extensions>
      <osmand:color>#ff5020</osmand:color>
      <osmand:background>square</osmand:background>
      <osmand:icon>public_bookcase</osmand:icon>
    </extensions>
  </wpt>
  <wpt lat="44.824967" lon="4.769465">
    <name>Larzalier</name>
    <desc>jeux d'enfants</desc>
    <type>Delivrez bookcases</type>
    <extensions>
      <osmand:color>#ff5020</osmand:color>
      <osmand:background>square</osmand:background>
      <osmand:icon>public_bookcase</osmand:icon>
    </extensions>
  </wpt>
  <wpt lat="46.53445" lon="3.743882">
    <name>place, Salle de Spectacle</name>
    <desc>sur la face de la salle de spectacle</desc>
    <type>Delivrez bookcases</type>
    <extensions>
      <osmand:color>#ff5020</osmand:color>
      <osmand:background>square</osmand:background>
      <osmand:icon>public_bookcase</osmand:icon>
    </extensions>
  </wpt>
  <wpt lat="46.601789" lon="3.673021">
    <name>Rue de la Cure</name>
    <desc></desc>
    <type>Delivrez bookcases</type>
    <extensions>
      <osmand:color>#ff5020</osmand:color>
      <osmand:background>square</osmand:background>
      <osmand:icon>public_bookcase</osmand:icon>
    </extensions>
  </wpt>
  <wpt lat="46.221825" lon="2.882537">
    <name>Lapeyrouse</name>
    <desc>place mairie à l'intérieur porche</desc>
    <type>Delivrez bookcases</type>
    <extensions>
      <osmand:color>#ff5020</osmand:color>
      <osmand:background>square</osmand:background>
      <osmand:icon>public_bookcase</osmand:icon>
    </extensions>
  </wpt>
  <wpt lat="46.225426" lon="2.8713">
    <name>Rue de la Liberte</name>
    <desc>salle des fêtes</desc>
    <type>Delivrez bookcases</type>
    <extensions>
      <osmand:color>#ff5020</osmand:color>
      <osmand:background>square</osmand:background>
      <osmand:icon>public_bookcase</osmand:icon>
    </extensions>
  </wpt>
  <wpt lat="46.167054" lon="2.631728">
    <name>Place du Donjon</name>
    <desc></desc>
    <type>Delivrez bookcases</type>
    <extensions>
      <osmand:color>#ff5020</osmand:color>
      <osmand:background>square</osmand:background>
      <osmand:icon>public_bookcase</osmand:icon>
    </extensions>
  </wpt>
  <wpt lat="46.100448" lon="3.070843">
    <name>Rue Alain Chanselme</name>
    <desc>place mairie</desc>
    <type>Delivrez bookcases</type>
    <extensions>
      <osmand:color>#ff5020</osmand:color>
      <osmand:background>square</osmand:background>
      <osmand:icon>public_bookcase</osmand:icon>
    </extensions>
  </wpt>
  <wpt lat="44.642611" lon="4.751199">
    <name>D86</name>
    <desc></desc>
    <type>Delivrez bookcases</type>
    <extensions>
      <osmand:color>#ff5020</osmand:color>
      <osmand:background>square</osmand:background>
      <osmand:icon>public_bookcase</osmand:icon>
    </extensions>
  </wpt>
  <wpt lat="45.630894" lon="3.1836">
    <name>Rue Guyot Dessaigne</name>
    <desc>boite à livres et jeux</desc>
    <type>Delivrez bookcases</type>
    <extensions>
      <osmand:color>#ff5020</osmand:color>
      <osmand:background>square</osmand:background>
      <osmand:icon>public_bookcase</osmand:icon>
    </extensions>
  </wpt>
  <wpt lat="46.1546" lon="4.150152">
    <name>Route du Mont</name>
    <desc></desc>
    <type>Delivrez bookcases</type>
    <extensions>
      <osmand:color>#ff5020</osmand:color>
      <osmand:background>square</osmand:background>
      <osmand:icon>public_bookcase</osmand:icon>
    </extensions>
  </wpt>
  <wpt lat="46.156873" lon="4.142032">
    <name>Montée de la Girouette</name>
    <desc></desc>
    <type>Delivrez bookcases</type>
    <extensions>
      <osmand:color>#ff5020</osmand:color>
      <osmand:background>square</osmand:background>
      <osmand:icon>public_bookcase</osmand:icon>
    </extensions>
  </wpt>
  <wpt lat="45.331166" lon="6.311672">
    <name>Place des Champagnes</name>
    <desc></desc>
    <type>Delivrez bookcases</type>
    <extensions>
      <osmand:color>#ff5020</osmand:color>
      <osmand:background>square</osmand:background>
      <osmand:icon>public_bookcase</osmand:icon>
    </extensions>
  </wpt>
  <wpt lat="45.120793" lon="4.087244">
    <name>Chemin des Allards</name>
    <desc></desc>
    <type>Delivrez bookcases</type>
    <extensions>
      <osmand:color>#ff5020</osmand:color>
      <osmand:background>square</osmand:background>
      <osmand:icon>public_bookcase</osmand:icon>
    </extensions>
  </wpt>
  <wpt lat="45.259323" lon="6.80486">
    <name>Refuge à livres</name>
    <desc>situé en façade du Musée d'Archéologie de Sollières-Envers</desc>
    <type>Delivrez bookcases</type>
    <extensions>
      <osmand:color>#ff5020</osmand:color>
      <osmand:background>square</osmand:background>
      <osmand:icon>public_bookcase</osmand:icon>
    </extensions>
  </wpt>
  <wpt lat="46.032721" lon="6.932868">
    <name>Chemin Rural de la Gare au Pont Claret</name>
    <desc></desc>
    <type>Delivrez bookcases</type>
    <extensions>
      <osmand:color>#ff5020</osmand:color>
      <osmand:background>square</osmand:background>
      <osmand:icon>public_bookcase</osmand:icon>
    </extensions>
  </wpt>
  <wpt lat="44.489712" lon="4.720161">
    <name>Rue de la Source</name>
    <desc>Dans le magasin super U à droite en rentrant</desc>
    <type>Delivrez bookcases</type>
    <extensions>
      <osmand:color>#ff5020</osmand:color>
      <osmand:background>square</osmand:background>
      <osmand:icon>public_bookcase</osmand:icon>
    </extensions>
  </wpt>
  <wpt lat="44.477275" lon="4.853271">
    <name>Place Saint Paulin</name>
    <desc></desc>
    <type>Delivrez bookcases</type>
    <extensions>
      <osmand:color>#ff5020</osmand:color>
      <osmand:background>square</osmand:background>
      <osmand:icon>public_bookcase</osmand:icon>
    </extensions>
  </wpt>
  <wpt lat="44.486314" lon="4.752385">
    <name>Place des Cedres</name>
    <desc></desc>
    <type>Delivrez bookcases</type>
    <extensions>
      <osmand:color>#ff5020</osmand:color>
      <osmand:background>square</osmand:background>
      <osmand:icon>public_bookcase</osmand:icon>
    </extensions>
  </wpt>
  <wpt lat="44.575551" lon="4.696506">
    <name>Rochemaure. La Blache</name>
    <desc></desc>
    <type>Delivrez bookcases</type>
    <extensions>
      <osmand:color>#ff5020</osmand:color>
      <osmand:background>square</osmand:background>
      <osmand:icon>public_bookcase</osmand:icon>
    </extensions>
  </wpt>
  <wpt lat="46.406093" lon="3.311718">
    <name>D33</name>
    <desc>place à côté des pompiers</desc>
    <type>Delivrez bookcases</type>
    <extensions>
      <osmand:color>#ff5020</osmand:color>
      <osmand:background>square</osmand:background>
      <osmand:icon>public_bookcase</osmand:icon>
    </extensions>
  </wpt>
  <wpt lat="46.658247" lon="3.118006">
    <name>Route de Limoise</name>
    <desc>devant l'école</desc>
    <type>Delivrez bookcases</type>
    <extensions>
      <osmand:color>#ff5020</osmand:color>
      <osmand:background>square</osmand:background>
      <osmand:icon>public_bookcase</osmand:icon>
    </extensions>
  </wpt>
  <wpt lat="45.30562" lon="4.948013">
    <name>Chemin du Rafour</name>
    <desc></desc>
    <type>Delivrez bookcases</type>
    <extensions>
      <osmand:color>#ff5020</osmand:color>
      <osmand:background>square</osmand:background>
      <osmand:icon>public_bookcase</osmand:icon>
    </extensions>
  </wpt>
  <wpt lat="44.559411" lon="4.750725">
    <name>Place du Marche</name>
    <desc>à côté restaurant  Le Ksar</desc>
    <type>Delivrez bookcases</type>
    <extensions>
      <osmand:color>#ff5020</osmand:color>
      <osmand:background>square</osmand:background>
      <osmand:icon>public_bookcase</osmand:icon>
    </extensions>
  </wpt>
  <wpt lat="46.248933" lon="6.471561">
    <name>Habère-Poche</name>
    <desc>_</desc>
    <type>Delivrez bookcases</type>
    <extensions>
      <osmand:color>#ff5020</osmand:color>
      <osmand:background>square</osmand:background>
      <osmand:icon>public_bookcase</osmand:icon>
    </extensions>
  </wpt>
  <wpt lat="45.939234" lon="6.122194">
    <name>Route d'Annecy</name>
    <desc>Située à l entrée du parking de la pharmacie.</desc>
    <type>Delivrez bookcases</type>
    <extensions>
      <osmand:color>#ff5020</osmand:color>
      <osmand:background>square</osmand:background>
      <osmand:icon>public_bookcase</osmand:icon>
    </extensions>
  </wpt>
  <wpt lat="44.554672" lon="4.597728">
    <name>Place de la Mairie</name>
    <desc>sous un petit préau</desc>
    <type>Delivrez bookcases</type>
    <extensions>
      <osmand:color>#ff5020</osmand:color>
      <osmand:background>square</osmand:background>
      <osmand:icon>public_bookcase</osmand:icon>
    </extensions>
  </wpt>
  <wpt lat="46.35004" lon="3.7935">
    <name>Place de la République</name>
    <desc>en face de l'Eglise</desc>
    <type>Delivrez bookcases</type>
    <extensions>
      <osmand:color>#ff5020</osmand:color>
      <osmand:background>square</osmand:background>
      <osmand:icon>public_bookcase</osmand:icon>
    </extensions>
  </wpt>
  <wpt lat="46.251413" lon="6.033481">
    <name>square jean jacques Rousseau</name>
    <desc></desc>
    <type>Delivrez bookcases</type>
    <extensions>
      <osmand:color>#ff5020</osmand:color>
      <osmand:background>square</osmand:background>
      <osmand:icon>public_bookcase</osmand:icon>
    </extensions>
  </wpt>
  <wpt lat="45.746461" lon="6.29419">
    <name>place Marcel piquand</name>
    <desc></desc>
    <type>Delivrez bookcases</type>
    <extensions>
      <osmand:color>#ff5020</osmand:color>
      <osmand:background>square</osmand:background>
      <osmand:icon>public_bookcase</osmand:icon>
    </extensions>
  </wpt>
  <wpt lat="45.428238" lon="6.123839">
    <name>Route de la Croix du Rafour</name>
    <desc></desc>
    <type>Delivrez bookcases</type>
    <extensions>
      <osmand:color>#ff5020</osmand:color>
      <osmand:background>square</osmand:background>
      <osmand:icon>public_bookcase</osmand:icon>
    </extensions>
  </wpt>
  <wpt lat="45.60121" lon="5.21917">
    <name>Rue du Sermet</name>
    <desc></desc>
    <type>Delivrez bookcases</type>
    <extensions>
      <osmand:color>#ff5020</osmand:color>
      <osmand:background>square</osmand:background>
      <osmand:icon>public_bookcase</osmand:icon>
    </extensions>
  </wpt>
  <wpt lat="45.939959" lon="6.141561">
    <name>Boite à livres</name>
    <desc>Devant le gymnase</desc>
    <type>Delivrez bookcases</type>
    <extensions>
      <osmand:color>#ff5020</osmand:color>
      <osmand:background>square</osmand:background>
      <osmand:icon>public_bookcase</osmand:icon>
    </extensions>
  </wpt>
  <wpt lat="45.257173" lon="6.402985">
    <name>Route Neuve</name>
    <desc></desc>
    <type>Delivrez bookcases</type>
    <extensions>
      <osmand:color>#ff5020</osmand:color>
      <osmand:background>square</osmand:background>
      <osmand:icon>public_bookcase</osmand:icon>
    </extensions>
  </wpt>
  <wpt lat="46.110917" lon="6.079907">
    <name>Route de Présilly</name>
    <desc></desc>
    <type>Delivrez bookcases</type>
    <extensions>
      <osmand:color>#ff5020</osmand:color>
      <osmand:background>square</osmand:background>
      <osmand:icon>public_bookcase</osmand:icon>
    </extensions>
  </wpt>
  <wpt lat="45.785841" lon="4.832584">
    <name>Place Jules Ferry Cuire</name>
    <desc></desc>
    <type>Delivrez bookcases</type>
    <extensions>
      <osmand:color>#ff5020</osmand:color>
      <osmand:background>square</osmand:background>
      <osmand:icon>public_bookcase</osmand:icon>
    </extensions>
  </wpt>
  <wpt lat="46.321841" lon="3.008525">
    <name>Place de la Mairie</name>
    <desc>Cette boîte à lire est bien à l abri sous un petit préau aux abords de la mairie et d'un parking, et à deux pas du bar-restaurant.</desc>
    <type>Delivrez bookcases</type>
    <extensions>
      <osmand:color>#ff5020</osmand:color>
      <osmand:background>square</osmand:background>
      <osmand:icon>public_bookcase</osmand:icon>
    </extensions>
  </wpt>
  <wpt lat="45.648263" lon="5.184067">
    <name>Place du Village</name>
    <desc></desc>
    <type>Delivrez bookcases</type>
    <extensions>
      <osmand:color>#ff5020</osmand:color>
      <osmand:background>square</osmand:background>
      <osmand:icon>public_bookcase</osmand:icon>
    </extensions>
  </wpt>
  <wpt lat="44.419948" lon="4.90901">
    <name>Rue Saint-Louis</name>
    <desc></desc>
    <type>Delivrez bookcases</type>
    <extensions>
      <osmand:color>#ff5020</osmand:color>
      <osmand:background>square</osmand:background>
      <osmand:icon>public_bookcase</osmand:icon>
    </extensions>
  </wpt>
  <wpt lat="45.481492" lon="6.063857">
    <name>Place de la Mairie</name>
    <desc></desc>
    <type>Delivrez bookcases</type>
    <extensions>
      <osmand:color>#ff5020</osmand:color>
      <osmand:background>square</osmand:background>
      <osmand:icon>public_bookcase</osmand:icon>
    </extensions>
  </wpt>
  <wpt lat="46.606246" lon="2.607644">
    <name>Route de Paris</name>
    <desc>place de la mairie</desc>
    <type>Delivrez bookcases</type>
    <extensions>
      <osmand:color>#ff5020</osmand:color>
      <osmand:background>square</osmand:background>
      <osmand:icon>public_bookcase</osmand:icon>
    </extensions>
  </wpt>
  <wpt lat="46.518516" lon="2.700971">
    <name>Lieu dit Chateloy</name>
    <desc></desc>
    <type>Delivrez bookcases</type>
    <extensions>
      <osmand:color>#ff5020</osmand:color>
      <osmand:background>square</osmand:background>
      <osmand:icon>public_bookcase</osmand:icon>
    </extensions>
  </wpt>
  <wpt lat="46.51203" lon="2.705592">
    <name>Rue des Cueils</name>
    <desc></desc>
    <type>Delivrez bookcases</type>
    <extensions>
      <osmand:color>#ff5020</osmand:color>
      <osmand:background>square</osmand:background>
      <osmand:icon>public_bookcase</osmand:icon>
    </extensions>
  </wpt>
  <wpt lat="46.31769" lon="2.954523">
    <name>Rue Marx Dormoy</name>
    <desc>à côté de la mairie</desc>
    <type>Delivrez bookcases</type>
    <extensions>
      <osmand:color>#ff5020</osmand:color>
      <osmand:background>square</osmand:background>
      <osmand:icon>public_bookcase</osmand:icon>
    </extensions>
  </wpt>
  <wpt lat="45.959053" lon="5.275513">
    <name>Rue de la Libération</name>
    <desc></desc>
    <type>Delivrez bookcases</type>
    <extensions>
      <osmand:color>#ff5020</osmand:color>
      <osmand:background>square</osmand:background>
      <osmand:icon>public_bookcase</osmand:icon>
    </extensions>
  </wpt>
  <wpt lat="45.996461" lon="5.172184">
    <name>Rue du Bugey</name>
    <desc></desc>
    <type>Delivrez bookcases</type>
    <extensions>
      <osmand:color>#ff5020</osmand:color>
      <osmand:background>square</osmand:background>
      <osmand:icon>public_bookcase</osmand:icon>
    </extensions>
  </wpt>
  <wpt lat="46.022358" lon="5.087689">
    <name>Lotissement le Moulin</name>
    <desc></desc>
    <type>Delivrez bookcases</type>
    <extensions>
      <osmand:color>#ff5020</osmand:color>
      <osmand:background>square</osmand:background>
      <osmand:icon>public_bookcase</osmand:icon>
    </extensions>
  </wpt>
  <wpt lat="46.320273" lon="2.821734">
    <name>Rue du Fournil</name>
    <desc>place de la mairie</desc>
    <type>Delivrez bookcases</type>
    <extensions>
      <osmand:color>#ff5020</osmand:color>
      <osmand:background>square</osmand:background>
      <osmand:icon>public_bookcase</osmand:icon>
    </extensions>
  </wpt>
  <wpt lat="46.395742" lon="2.607162">
    <name>Rue Frédéric Mistral</name>
    <desc>parc derrière l'église</desc>
    <type>Delivrez bookcases</type>
    <extensions>
      <osmand:color>#ff5020</osmand:color>
      <osmand:background>square</osmand:background>
      <osmand:icon>public_bookcase</osmand:icon>
    </extensions>
  </wpt>
  <wpt lat="45.79361" lon="4.845873">
    <name>Rue Pasteur</name>
    <desc>à côté de l'école Montessuy</desc>
    <type>Delivrez bookcases</type>
    <extensions>
      <osmand:color>#ff5020</osmand:color>
      <osmand:background>square</osmand:background>
      <osmand:icon>public_bookcase</osmand:icon>
    </extensions>
  </wpt>
  <wpt lat="45.768855" lon="4.880868">
    <name>Cours Émile-Zola Square Léon Meiss</name>
    <desc></desc>
    <type>Delivrez bookcases</type>
    <extensions>
      <osmand:color>#ff5020</osmand:color>
      <osmand:background>square</osmand:background>
      <osmand:icon>public_bookcase</osmand:icon>
    </extensions>
  </wpt>
  <wpt lat="45.931532" lon="5.153403">
    <name>boîte à livres Saint-éloi</name>
    <desc>sous la halle en face de la mairie</desc>
    <type>Delivrez bookcases</type>
    <extensions>
      <osmand:color>#ff5020</osmand:color>
      <osmand:background>square</osmand:background>
      <osmand:icon>public_bookcase</osmand:icon>
    </extensions>
  </wpt>
  <wpt lat="46.271481" lon="2.793607">
    <name>Rue du Forgeron</name>
    <desc>mairie</desc>
    <type>Delivrez bookcases</type>
    <extensions>
      <osmand:color>#ff5020</osmand:color>
      <osmand:background>square</osmand:background>
      <osmand:icon>public_bookcase</osmand:icon>
    </extensions>
  </wpt>
  <wpt lat="46.419057" lon="2.413157">
    <name>Place Saint-Joseph</name>
    <desc></desc>
    <type>Delivrez bookcases</type>
    <extensions>
      <osmand:color>#ff5020</osmand:color>
      <osmand:background>square</osmand:background>
      <osmand:icon>public_bookcase</osmand:icon>
    </extensions>
  </wpt>
  <wpt lat="46.275392" lon="2.811005">
    <name>Route de Colombier</name>
    <desc>passage à niveau</desc>
    <type>Delivrez bookcases</type>
    <extensions>
      <osmand:color>#ff5020</osmand:color>
      <osmand:background>square</osmand:background>
      <osmand:icon>public_bookcase</osmand:icon>
    </extensions>
  </wpt>
  <wpt lat="46.184362" lon="3.391728">
    <name>D6</name>
    <desc>Derrière la mairie à côté bibliothèque</desc>
    <type>Delivrez bookcases</type>
    <extensions>
      <osmand:color>#ff5020</osmand:color>
      <osmand:background>square</osmand:background>
      <osmand:icon>public_bookcase</osmand:icon>
    </extensions>
  </wpt>
  <wpt lat="45.870511" lon="5.223637">
    <name>Rue de l'Ancienne Cure</name>
    <desc></desc>
    <type>Delivrez bookcases</type>
    <extensions>
      <osmand:color>#ff5020</osmand:color>
      <osmand:background>square</osmand:background>
      <osmand:icon>public_bookcase</osmand:icon>
    </extensions>
  </wpt>
  <wpt lat="45.821652" lon="5.195817">
    <name>Place de l'Église</name>
    <desc></desc>
    <type>Delivrez bookcases</type>
    <extensions>
      <osmand:color>#ff5020</osmand:color>
      <osmand:background>square</osmand:background>
      <osmand:icon>public_bookcase</osmand:icon>
    </extensions>
  </wpt>
  <wpt lat="46.039138" lon="5.701738">
    <name>Les Plans</name>
    <desc>a. ote office tourisme</desc>
    <type>Delivrez bookcases</type>
    <extensions>
      <osmand:color>#ff5020</osmand:color>
      <osmand:background>square</osmand:background>
      <osmand:icon>public_bookcase</osmand:icon>
    </extensions>
  </wpt>
  <wpt lat="45.212765" lon="6.467333">
    <name>Route de la Censé</name>
    <desc></desc>
    <type>Delivrez bookcases</type>
    <extensions>
      <osmand:color>#ff5020</osmand:color>
      <osmand:background>square</osmand:background>
      <osmand:icon>public_bookcase</osmand:icon>
    </extensions>
  </wpt>
  <wpt lat="45.764059" lon="4.929518">
    <name>vaulx</name>
    <desc></desc>
    <type>Delivrez bookcases</type>
    <extensions>
      <osmand:color>#ff5020</osmand:color>
      <osmand:background>square</osmand:background>
      <osmand:icon>public_bookcase</osmand:icon>
    </extensions>
  </wpt>
  <wpt lat="46.290587" lon="3.365243">
    <name>Rue des Écoles</name>
    <desc></desc>
    <type>Delivrez bookcases</type>
    <extensions>
      <osmand:color>#ff5020</osmand:color>
      <osmand:background>square</osmand:background>
      <osmand:icon>public_bookcase</osmand:icon>
    </extensions>
  </wpt>
  <wpt lat="45.836141" lon="6.567115">
    <name>Route du Val d'Arly</name>
    <desc>à l'atelier Louis Chabaud</desc>
    <type>Delivrez bookcases</type>
    <extensions>
      <osmand:color>#ff5020</osmand:color>
      <osmand:background>square</osmand:background>
      <osmand:icon>public_bookcase</osmand:icon>
    </extensions>
  </wpt>
  <wpt lat="45.972891" lon="5.352144">
    <name>biocoop Ambérieu-en-Bugey</name>
    <desc>Sur le parking de Biocoop.</desc>
    <type>Delivrez bookcases</type>
    <extensions>
      <osmand:color>#ff5020</osmand:color>
      <osmand:background>square</osmand:background>
      <osmand:icon>public_bookcase</osmand:icon>
    </extensions>
  </wpt>
  <wpt lat="46.617984" lon="2.81736">
    <name>Rue du Square</name>
    <desc></desc>
    <type>Delivrez bookcases</type>
    <extensions>
      <osmand:color>#ff5020</osmand:color>
      <osmand:background>square</osmand:background>
      <osmand:icon>public_bookcase</osmand:icon>
    </extensions>
  </wpt>
  <wpt lat="45.607519" lon="4.082292">
    <name>Place de Rosenau</name>
    <desc></desc>
    <type>Delivrez bookcases</type>
    <extensions>
      <osmand:color>#ff5020</osmand:color>
      <osmand:background>square</osmand:background>
      <osmand:icon>public_bookcase</osmand:icon>
    </extensions>
  </wpt>
  <wpt lat="46.408738" lon="3.054774">
    <name>Grande Rue</name>
    <desc></desc>
    <type>Delivrez bookcases</type>
    <extensions>
      <osmand:color>#ff5020</osmand:color>
      <osmand:background>square</osmand:background>
      <osmand:icon>public_bookcase</osmand:icon>
    </extensions>
  </wpt>
  <wpt lat="46.066591" lon="6.290591">
    <name>Route du Chef Lieu</name>
    <desc>salle multifonctions</desc>
    <type>Delivrez bookcases</type>
    <extensions>
      <osmand:color>#ff5020</osmand:color>
      <osmand:background>square</osmand:background>
      <osmand:icon>public_bookcase</osmand:icon>
    </extensions>
  </wpt>
  <wpt lat="45.977969" lon="3.69704">
    <name>Place de la Mairie</name>
    <desc></desc>
    <type>Delivrez bookcases</type>
    <extensions>
      <osmand:color>#ff5020</osmand:color>
      <osmand:background>square</osmand:background>
      <osmand:icon>public_bookcase</osmand:icon>
    </extensions>
  </wpt>
  <wpt lat="45.994672" lon="3.592596">
    <name>Rue Albert Cognet</name>
    <desc></desc>
    <type>Delivrez bookcases</type>
    <extensions>
      <osmand:color>#ff5020</osmand:color>
      <osmand:background>square</osmand:background>
      <osmand:icon>public_bookcase</osmand:icon>
    </extensions>
  </wpt>
  <wpt lat="45.200728" lon="4.815113">
    <name>La Croix des Mailles</name>
    <desc>En face de l'école tout De suite Direction lavéyron</desc>
    <type>Delivrez bookcases</type>
    <extensions>
      <osmand:color>#ff5020</osmand:color>
      <osmand:background>square</osmand:background>
      <osmand:icon>public_bookcase</osmand:icon>
    </extensions>
  </wpt>
  <wpt lat="44.394218" lon="4.929303">
    <name>Rue du Presbytère</name>
    <desc>devant le fablab</desc>
    <type>Delivrez bookcases</type>
    <extensions>
      <osmand:color>#ff5020</osmand:color>
      <osmand:background>square</osmand:background>
      <osmand:icon>public_bookcase</osmand:icon>
    </extensions>
  </wpt>
  <wpt lat="46.37386" lon="2.422578">
    <name>Rue du Stade</name>
    <desc></desc>
    <type>Delivrez bookcases</type>
    <extensions>
      <osmand:color>#ff5020</osmand:color>
      <osmand:background>square</osmand:background>
      <osmand:icon>public_bookcase</osmand:icon>
    </extensions>
  </wpt>
  <wpt lat="46.033727" lon="5.674558">
    <name>Le Village</name>
    <desc></desc>
    <type>Delivrez bookcases</type>
    <extensions>
      <osmand:color>#ff5020</osmand:color>
      <osmand:background>square</osmand:background>
      <osmand:icon>public_bookcase</osmand:icon>
    </extensions>
  </wpt>
  <wpt lat="45.997375" lon="5.692727">
    <name>Rue de la Croix</name>
    <desc></desc>
    <type>Delivrez bookcases</type>
    <extensions>
      <osmand:color>#ff5020</osmand:color>
      <osmand:background>square</osmand:background>
      <osmand:icon>public_bookcase</osmand:icon>
    </extensions>
  </wpt>
  <wpt lat="46.230894" lon="6.318228">
    <name>Rue des Allobroges</name>
    <desc></desc>
    <type>Delivrez bookcases</type>
    <extensions>
      <osmand:color>#ff5020</osmand:color>
      <osmand:background>square</osmand:background>
      <osmand:icon>public_bookcase</osmand:icon>
    </extensions>
  </wpt>
  <wpt lat="45.200657" lon="5.751075">
    <name>Arbre  livres</name>
    <desc>la boite est en forme de pot à fleurs rouge renversé et suspendue à un mètre au-dessus du sol. Des étagères sont disposées à l intérieur. Il faut de baisser pour entrer.</desc>
    <type>Delivrez bookcases</type>
    <extensions>
      <osmand:color>#ff5020</osmand:color>
      <osmand:background>square</osmand:background>
      <osmand:icon>public_bookcase</osmand:icon>
    </extensions>
  </wpt>
  <wpt lat="45.479342" lon="6.170923">
    <name>Route de la Table</name>
    <desc></desc>
    <type>Delivrez bookcases</type>
    <extensions>
      <osmand:color>#ff5020</osmand:color>
      <osmand:background>square</osmand:background>
      <osmand:icon>public_bookcase</osmand:icon>
    </extensions>
  </wpt>
  <wpt lat="46.101974" lon="4.119021">
    <name>Rue de Verdun</name>
    <desc></desc>
    <type>Delivrez bookcases</type>
    <extensions>
      <osmand:color>#ff5020</osmand:color>
      <osmand:background>square</osmand:background>
      <osmand:icon>public_bookcase</osmand:icon>
    </extensions>
  </wpt>
  <wpt lat="46.158226" lon="4.173171">
    <name>Rue Chanteloup</name>
    <desc></desc>
    <type>Delivrez bookcases</type>
    <extensions>
      <osmand:color>#ff5020</osmand:color>
      <osmand:background>square</osmand:background>
      <osmand:icon>public_bookcase</osmand:icon>
    </extensions>
  </wpt>
  <wpt lat="45.757165" lon="4.833151">
    <name>Station Métro D</name>
    <desc></desc>
    <type>Delivrez bookcases</type>
    <extensions>
      <osmand:color>#ff5020</osmand:color>
      <osmand:background>square</osmand:background>
      <osmand:icon>public_bookcase</osmand:icon>
    </extensions>
  </wpt>
  <wpt lat="45.557878" lon="5.343747">
    <name>35 ou 75  Route de Nivolas</name>
    <desc>bord de route ancien poids public</desc>
    <type>Delivrez bookcases</type>
    <extensions>
      <osmand:color>#ff5020</osmand:color>
      <osmand:background>square</osmand:background>
      <osmand:icon>public_bookcase</osmand:icon>
    </extensions>
  </wpt>
  <wpt lat="45.430153" lon="5.231169">
    <name>123 Chemin de Villarnoud</name>
    <desc>sous le porche</desc>
    <type>Delivrez bookcases</type>
    <extensions>
      <osmand:color>#ff5020</osmand:color>
      <osmand:background>square</osmand:background>
      <osmand:icon>public_bookcase</osmand:icon>
    </extensions>
  </wpt>
  <wpt lat="45.054554" lon="3.912585">
    <name>hotel Deltour</name>
    <desc>4 rue de genebret 43700 BRIVES CHARENSAC</desc>
    <type>Delivrez bookcases</type>
    <extensions>
      <osmand:color>#ff5020</osmand:color>
      <osmand:background>square</osmand:background>
      <osmand:icon>public_bookcase</osmand:icon>
    </extensions>
  </wpt>
  <wpt lat="45.92013" lon="5.012615">
    <name>Chemin du Casard</name>
    <desc></desc>
    <type>Delivrez bookcases</type>
    <extensions>
      <osmand:color>#ff5020</osmand:color>
      <osmand:background>square</osmand:background>
      <osmand:icon>public_bookcase</osmand:icon>
    </extensions>
  </wpt>
  <wpt lat="46.000252" lon="4.324401">
    <name>Avenue Victor Hugo</name>
    <desc></desc>
    <type>Delivrez bookcases</type>
    <extensions>
      <osmand:color>#ff5020</osmand:color>
      <osmand:background>square</osmand:background>
      <osmand:icon>public_bookcase</osmand:icon>
    </extensions>
  </wpt>
  <wpt lat="46.225647" lon="3.343582">
    <name>Route de Vichy</name>
    <desc>aire de jeux</desc>
    <type>Delivrez bookcases</type>
    <extensions>
      <osmand:color>#ff5020</osmand:color>
      <osmand:background>square</osmand:background>
      <osmand:icon>public_bookcase</osmand:icon>
    </extensions>
  </wpt>
  <wpt lat="45.897725" lon="5.349724">
    <name>Allée Guy de la Verpillière</name>
    <desc></desc>
    <type>Delivrez bookcases</type>
    <extensions>
      <osmand:color>#ff5020</osmand:color>
      <osmand:background>square</osmand:background>
      <osmand:icon>public_bookcase</osmand:icon>
    </extensions>
  </wpt>
  <wpt lat="45.202456" lon="5.74183">
    <name>Quai Yermoloff</name>
    <desc>en face du relais H du HCE</desc>
    <type>Delivrez bookcases</type>
    <extensions>
      <osmand:color>#ff5020</osmand:color>
      <osmand:background>square</osmand:background>
      <osmand:icon>public_bookcase</osmand:icon>
    </extensions>
  </wpt>
  <wpt lat="46.332859" lon="2.814892">
    <name>Montvicq</name>
    <desc></desc>
    <type>Delivrez bookcases</type>
    <extensions>
      <osmand:color>#ff5020</osmand:color>
      <osmand:background>square</osmand:background>
      <osmand:icon>public_bookcase</osmand:icon>
    </extensions>
  </wpt>
  <wpt lat="45.773227" lon="4.881198">
    <name>16 rue Raspail 69100 Villeurbanne</name>
    <desc></desc>
    <type>Delivrez bookcases</type>
    <extensions>
      <osmand:color>#ff5020</osmand:color>
      <osmand:background>square</osmand:background>
      <osmand:icon>public_bookcase</osmand:icon>
    </extensions>
  </wpt>
  <wpt lat="46.136857" lon="3.21758">
    <name>Place de la Mairie</name>
    <desc>sous l'arrêt bus, en face l'école</desc>
    <type>Delivrez bookcases</type>
    <extensions>
      <osmand:color>#ff5020</osmand:color>
      <osmand:background>square</osmand:background>
      <osmand:icon>public_bookcase</osmand:icon>
    </extensions>
  </wpt>
  <wpt lat="45.396108" lon="4.237702">
    <name>Ruelle des Vignes</name>
    <desc>boîte verte avec des yeux</desc>
    <type>Delivrez bookcases</type>
    <extensions>
      <osmand:color>#ff5020</osmand:color>
      <osmand:background>square</osmand:background>
      <osmand:icon>public_bookcase</osmand:icon>
    </extensions>
  </wpt>
  <wpt lat="45.586079" lon="5.240398">
    <name>route de combe</name>
    <desc>sous le lavoir qui fait l'angle</desc>
    <type>Delivrez bookcases</type>
    <extensions>
      <osmand:color>#ff5020</osmand:color>
      <osmand:background>square</osmand:background>
      <osmand:icon>public_bookcase</osmand:icon>
    </extensions>
  </wpt>
  <wpt lat="45.564588" lon="5.229906">
    <name>Route de Maubec</name>
    <desc>arrêt de bus le bournay</desc>
    <type>Delivrez bookcases</type>
    <extensions>
      <osmand:color>#ff5020</osmand:color>
      <osmand:background>square</osmand:background>
      <osmand:icon>public_bookcase</osmand:icon>
    </extensions>
  </wpt>
  <wpt lat="45.555037" lon="5.214053">
    <name>chezeneuve</name>
    <desc>arrêt de bus chezeneuve place</desc>
    <type>Delivrez bookcases</type>
    <extensions>
      <osmand:color>#ff5020</osmand:color>
      <osmand:background>square</osmand:background>
      <osmand:icon>public_bookcase</osmand:icon>
    </extensions>
  </wpt>
  <wpt lat="45.536267" lon="5.166122">
    <name>chezeneuve</name>
    <desc>arrêt de bus malassin</desc>
    <type>Delivrez bookcases</type>
    <extensions>
      <osmand:color>#ff5020</osmand:color>
      <osmand:background>square</osmand:background>
      <osmand:icon>public_bookcase</osmand:icon>
    </extensions>
  </wpt>
  <wpt lat="45.535793" lon="5.167016">
    <name>35 rue de la manchette</name>
    <desc></desc>
    <type>Delivrez bookcases</type>
    <extensions>
      <osmand:color>#ff5020</osmand:color>
      <osmand:background>square</osmand:background>
      <osmand:icon>public_bookcase</osmand:icon>
    </extensions>
  </wpt>
  <wpt lat="46.074587" lon="6.328395">
    <name>Route de Cornier</name>
    <desc></desc>
    <type>Delivrez bookcases</type>
    <extensions>
      <osmand:color>#ff5020</osmand:color>
      <osmand:background>square</osmand:background>
      <osmand:icon>public_bookcase</osmand:icon>
    </extensions>
  </wpt>
  <wpt lat="46.052959" lon="6.209985">
    <name>Route de Cruseilles</name>
    <desc></desc>
    <type>Delivrez bookcases</type>
    <extensions>
      <osmand:color>#ff5020</osmand:color>
      <osmand:background>square</osmand:background>
      <osmand:icon>public_bookcase</osmand:icon>
    </extensions>
  </wpt>
  <wpt lat="46.104816" lon="5.994019">
    <name>D239</name>
    <desc></desc>
    <type>Delivrez bookcases</type>
    <extensions>
      <osmand:color>#ff5020</osmand:color>
      <osmand:background>square</osmand:background>
      <osmand:icon>public_bookcase</osmand:icon>
    </extensions>
  </wpt>
  <wpt lat="46.001052" lon="4.645501">
    <name>Grand Rue</name>
    <desc></desc>
    <type>Delivrez bookcases</type>
    <extensions>
      <osmand:color>#ff5020</osmand:color>
      <osmand:background>square</osmand:background>
      <osmand:icon>public_bookcase</osmand:icon>
    </extensions>
  </wpt>
  <wpt lat="45.626711" lon="5.134189">
    <name>boite a livre écoles les moines</name>
    <desc></desc>
    <type>Delivrez bookcases</type>
    <extensions>
      <osmand:color>#ff5020</osmand:color>
      <osmand:background>square</osmand:background>
      <osmand:icon>public_bookcase</osmand:icon>
    </extensions>
  </wpt>
  <wpt lat="45.734106" lon="4.827117">
    <name>Rue de Chantegrillet 69440 Francheville</name>
    <desc></desc>
    <type>Delivrez bookcases</type>
    <extensions>
      <osmand:color>#ff5020</osmand:color>
      <osmand:background>square</osmand:background>
      <osmand:icon>public_bookcase</osmand:icon>
    </extensions>
  </wpt>
  <wpt lat="46.280688" lon="2.567985">
    <name>Rue des Perches</name>
    <desc></desc>
    <type>Delivrez bookcases</type>
    <extensions>
      <osmand:color>#ff5020</osmand:color>
      <osmand:background>square</osmand:background>
      <osmand:icon>public_bookcase</osmand:icon>
    </extensions>
  </wpt>
  <wpt lat="46.309589" lon="2.599383">
    <name>Rue du Cher Lavault Sainte Anne</name>
    <desc></desc>
    <type>Delivrez bookcases</type>
    <extensions>
      <osmand:color>#ff5020</osmand:color>
      <osmand:background>square</osmand:background>
      <osmand:icon>public_bookcase</osmand:icon>
    </extensions>
  </wpt>
  <wpt lat="45.395503" lon="4.29585">
    <name>Rue des 3 Ponts</name>
    <desc>petite boîte à livres situé rue des 3 ponts (rue a cheval sur les communes de Firminy et du Chambon Feugerolles)</desc>
    <type>Delivrez bookcases</type>
    <extensions>
      <osmand:color>#ff5020</osmand:color>
      <osmand:background>square</osmand:background>
      <osmand:icon>public_bookcase</osmand:icon>
    </extensions>
  </wpt>
  <wpt lat="45.433292" lon="4.322929">
    <name>Rue Gambetta</name>
    <desc>roche la Molière en face de l'hôtel de ville</desc>
    <type>Delivrez bookcases</type>
    <extensions>
      <osmand:color>#ff5020</osmand:color>
      <osmand:background>square</osmand:background>
      <osmand:icon>public_bookcase</osmand:icon>
    </extensions>
  </wpt>
  <wpt lat="45.440851" lon="4.386859">
    <name>place jean Jaurès</name>
    <desc>dans une boîte a livre Vival , sous les arcades place jean Jaurès</desc>
    <type>Delivrez bookcases</type>
    <extensions>
      <osmand:color>#ff5020</osmand:color>
      <osmand:background>square</osmand:background>
      <osmand:icon>public_bookcase</osmand:icon>
    </extensions>
  </wpt>
  <wpt lat="45.120533" lon="4.412555">
    <name>Place de la Mairie</name>
    <desc></desc>
    <type>Delivrez bookcases</type>
    <extensions>
      <osmand:color>#ff5020</osmand:color>
      <osmand:background>square</osmand:background>
      <osmand:icon>public_bookcase</osmand:icon>
    </extensions>
  </wpt>
  <wpt lat="45.901811" lon="5.182469">
    <name>Route de Trévoux</name>
    <desc>chocolaterie de Pérouges</desc>
    <type>Delivrez bookcases</type>
    <extensions>
      <osmand:color>#ff5020</osmand:color>
      <osmand:background>square</osmand:background>
      <osmand:icon>public_bookcase</osmand:icon>
    </extensions>
  </wpt>
  <wpt lat="46.132503" lon="3.456408">
    <name>Place Victor Hugo</name>
    <desc></desc>
    <type>Delivrez bookcases</type>
    <extensions>
      <osmand:color>#ff5020</osmand:color>
      <osmand:background>square</osmand:background>
      <osmand:icon>public_bookcase</osmand:icon>
    </extensions>
  </wpt>
  <wpt lat="44.699304" lon="5.097754">
    <name>1 côté de l eglise</name>
    <desc></desc>
    <type>Delivrez bookcases</type>
    <extensions>
      <osmand:color>#ff5020</osmand:color>
      <osmand:background>square</osmand:background>
      <osmand:icon>public_bookcase</osmand:icon>
    </extensions>
  </wpt>
  <wpt lat="45.179678" lon="4.815602">
    <name>Rue de la Franchise</name>
    <desc></desc>
    <type>Delivrez bookcases</type>
    <extensions>
      <osmand:color>#ff5020</osmand:color>
      <osmand:background>square</osmand:background>
      <osmand:icon>public_bookcase</osmand:icon>
    </extensions>
  </wpt>
  <wpt lat="45.4911" lon="6.470856">
    <name>Route de Saint-Joseph</name>
    <desc></desc>
    <type>Delivrez bookcases</type>
    <extensions>
      <osmand:color>#ff5020</osmand:color>
      <osmand:background>square</osmand:background>
      <osmand:icon>public_bookcase</osmand:icon>
    </extensions>
  </wpt>
  <wpt lat="45.47782" lon="6.446629">
    <name>Route de la Rupéry</name>
    <desc></desc>
    <type>Delivrez bookcases</type>
    <extensions>
      <osmand:color>#ff5020</osmand:color>
      <osmand:background>square</osmand:background>
      <osmand:icon>public_bookcase</osmand:icon>
    </extensions>
  </wpt>
  <wpt lat="46.098507" lon="4.321272">
    <name>Rue Georges Clemenceau</name>
    <desc></desc>
    <type>Delivrez bookcases</type>
    <extensions>
      <osmand:color>#ff5020</osmand:color>
      <osmand:background>square</osmand:background>
      <osmand:icon>public_bookcase</osmand:icon>
    </extensions>
  </wpt>
  <wpt lat="46.349255" lon="2.339879">
    <name>Place de l'Eglise Treignat</name>
    <desc></desc>
    <type>Delivrez bookcases</type>
    <extensions>
      <osmand:color>#ff5020</osmand:color>
      <osmand:background>square</osmand:background>
      <osmand:icon>public_bookcase</osmand:icon>
    </extensions>
  </wpt>
  <wpt lat="46.38736" lon="2.330575">
    <name>Place de l'Eglise</name>
    <desc></desc>
    <type>Delivrez bookcases</type>
    <extensions>
      <osmand:color>#ff5020</osmand:color>
      <osmand:background>square</osmand:background>
      <osmand:icon>public_bookcase</osmand:icon>
    </extensions>
  </wpt>
  <wpt lat="46.417558" lon="2.412468">
    <name>place salle des fetes Chamberat</name>
    <desc></desc>
    <type>Delivrez bookcases</type>
    <extensions>
      <osmand:color>#ff5020</osmand:color>
      <osmand:background>square</osmand:background>
      <osmand:icon>public_bookcase</osmand:icon>
    </extensions>
  </wpt>
  <wpt lat="46.356011" lon="2.48885">
    <name>place du Prenat rue du Ruisseau</name>
    <desc></desc>
    <type>Delivrez bookcases</type>
    <extensions>
      <osmand:color>#ff5020</osmand:color>
      <osmand:background>square</osmand:background>
      <osmand:icon>public_bookcase</osmand:icon>
    </extensions>
  </wpt>
  <wpt lat="45.342483" lon="5.813822">
    <name>Plan de ville</name>
    <desc></desc>
    <type>Delivrez bookcases</type>
    <extensions>
      <osmand:color>#ff5020</osmand:color>
      <osmand:background>square</osmand:background>
      <osmand:icon>public_bookcase</osmand:icon>
    </extensions>
  </wpt>
  <wpt lat="44.337112" lon="4.865555">
    <name>Impasse de la Garenne</name>
    <desc></desc>
    <type>Delivrez bookcases</type>
    <extensions>
      <osmand:color>#ff5020</osmand:color>
      <osmand:background>square</osmand:background>
      <osmand:icon>public_bookcase</osmand:icon>
    </extensions>
  </wpt>
  <wpt lat="46.237455" lon="3.151418">
    <name>place de la poste</name>
    <desc></desc>
    <type>Delivrez bookcases</type>
    <extensions>
      <osmand:color>#ff5020</osmand:color>
      <osmand:background>square</osmand:background>
      <osmand:icon>public_bookcase</osmand:icon>
    </extensions>
  </wpt>
  <wpt lat="46.006638" lon="5.361042">
    <name>Rue des Yvrollets</name>
    <desc></desc>
    <type>Delivrez bookcases</type>
    <extensions>
      <osmand:color>#ff5020</osmand:color>
      <osmand:background>square</osmand:background>
      <osmand:icon>public_bookcase</osmand:icon>
    </extensions>
  </wpt>
  <wpt lat="45.070395" lon="5.553149">
    <name>Rue de la République</name>
    <desc></desc>
    <type>Delivrez bookcases</type>
    <extensions>
      <osmand:color>#ff5020</osmand:color>
      <osmand:background>square</osmand:background>
      <osmand:icon>public_bookcase</osmand:icon>
    </extensions>
  </wpt>
  <wpt lat="46.157319" lon="4.174999">
    <name>Rue André Farinet</name>
    <desc></desc>
    <type>Delivrez bookcases</type>
    <extensions>
      <osmand:color>#ff5020</osmand:color>
      <osmand:background>square</osmand:background>
      <osmand:icon>public_bookcase</osmand:icon>
    </extensions>
  </wpt>
  <wpt lat="45.75205" lon="4.881366">
    <name>Parc Bazin</name>
    <desc></desc>
    <type>Delivrez bookcases</type>
    <extensions>
      <osmand:color>#ff5020</osmand:color>
      <osmand:background>square</osmand:background>
      <osmand:icon>public_bookcase</osmand:icon>
    </extensions>
  </wpt>
  <wpt lat="46.073899" lon="4.21043">
    <name>Grande Rue bourg</name>
    <desc></desc>
    <type>Delivrez bookcases</type>
    <extensions>
      <osmand:color>#ff5020</osmand:color>
      <osmand:background>square</osmand:background>
      <osmand:icon>public_bookcase</osmand:icon>
    </extensions>
  </wpt>
  <wpt lat="46.12279" lon="4.183295">
    <name>Le Bourg</name>
    <desc></desc>
    <type>Delivrez bookcases</type>
    <extensions>
      <osmand:color>#ff5020</osmand:color>
      <osmand:background>square</osmand:background>
      <osmand:icon>public_bookcase</osmand:icon>
    </extensions>
  </wpt>
  <wpt lat="45.144958" lon="5.12198">
    <name>Rue de la Patache</name>
    <desc>ancienne cabine téléphonique sur la place</desc>
    <type>Delivrez bookcases</type>
    <extensions>
      <osmand:color>#ff5020</osmand:color>
      <osmand:background>square</osmand:background>
      <osmand:icon>public_bookcase</osmand:icon>
    </extensions>
  </wpt>
  <wpt lat="46.430282" lon="5.008545">
    <name>mairie</name>
    <desc>sous le préau au fond de la cour</desc>
    <type>Delivrez bookcases</type>
    <extensions>
      <osmand:color>#ff5020</osmand:color>
      <osmand:background>square</osmand:background>
      <osmand:icon>public_bookcase</osmand:icon>
    </extensions>
  </wpt>
  <wpt lat="46.250144" lon="3.64074">
    <name>Avenue Pasteur</name>
    <desc>parking du château de Lapalisse (salle Grenette)</desc>
    <type>Delivrez bookcases</type>
    <extensions>
      <osmand:color>#ff5020</osmand:color>
      <osmand:background>square</osmand:background>
      <osmand:icon>public_bookcase</osmand:icon>
    </extensions>
  </wpt>
  <wpt lat="46.1856" lon="3.488447">
    <name>D190 Route des Guittons</name>
    <desc>abris bus place du restaurant</desc>
    <type>Delivrez bookcases</type>
    <extensions>
      <osmand:color>#ff5020</osmand:color>
      <osmand:background>square</osmand:background>
      <osmand:icon>public_bookcase</osmand:icon>
    </extensions>
  </wpt>
  <wpt lat="46.118934" lon="4.956811">
    <name>Place des Halles</name>
    <desc>grande cabane à livres juste devant la crèche, en face des halles</desc>
    <type>Delivrez bookcases</type>
    <extensions>
      <osmand:color>#ff5020</osmand:color>
      <osmand:background>square</osmand:background>
      <osmand:icon>public_bookcase</osmand:icon>
    </extensions>
  </wpt>
  <wpt lat="46.119537" lon="4.956902">
    <name>Rue Président Carnot</name>
    <desc>devant magasin Melusine</desc>
    <type>Delivrez bookcases</type>
    <extensions>
      <osmand:color>#ff5020</osmand:color>
      <osmand:background>square</osmand:background>
      <osmand:icon>public_bookcase</osmand:icon>
    </extensions>
  </wpt>
  <wpt lat="46.059441" lon="6.581154">
    <name>Rue Joseph Nicollet</name>
    <desc></desc>
    <type>Delivrez bookcases</type>
    <extensions>
      <osmand:color>#ff5020</osmand:color>
      <osmand:background>square</osmand:background>
      <osmand:icon>public_bookcase</osmand:icon>
    </extensions>
  </wpt>
  <wpt lat="44.58889" lon="4.705034">
    <name>Place de la Mairie</name>
    <desc></desc>
    <type>Delivrez bookcases</type>
    <extensions>
      <osmand:color>#ff5020</osmand:color>
      <osmand:background>square</osmand:background>
      <osmand:icon>public_bookcase</osmand:icon>
    </extensions>
  </wpt>
  <wpt lat="45.115785" lon="4.289466">
    <name>Place du Chatiague</name>
    <desc>sous France connecte</desc>
    <type>Delivrez bookcases</type>
    <extensions>
      <osmand:color>#ff5020</osmand:color>
      <osmand:background>square</osmand:background>
      <osmand:icon>public_bookcase</osmand:icon>
    </extensions>
  </wpt>
  <wpt lat="46.159908" lon="6.671263">
    <name>Rue du Vieux Village</name>
    <desc></desc>
    <type>Delivrez bookcases</type>
    <extensions>
      <osmand:color>#ff5020</osmand:color>
      <osmand:background>square</osmand:background>
      <osmand:icon>public_bookcase</osmand:icon>
    </extensions>
  </wpt>
  <wpt lat="44.713826" lon="5.056203">
    <name>Avenue Amédée Terrail</name>
    <desc></desc>
    <type>Delivrez bookcases</type>
    <extensions>
      <osmand:color>#ff5020</osmand:color>
      <osmand:background>square</osmand:background>
      <osmand:icon>public_bookcase</osmand:icon>
    </extensions>
  </wpt>
  <wpt lat="44.751501" lon="5.369306">
    <name>Rue des Casernes</name>
    <desc></desc>
    <type>Delivrez bookcases</type>
    <extensions>
      <osmand:color>#ff5020</osmand:color>
      <osmand:background>square</osmand:background>
      <osmand:icon>public_bookcase</osmand:icon>
    </extensions>
  </wpt>
  <wpt lat="45.582335" lon="4.794518">
    <name>Rue de la Gare</name>
    <desc>devant la gare</desc>
    <type>Delivrez bookcases</type>
    <extensions>
      <osmand:color>#ff5020</osmand:color>
      <osmand:background>square</osmand:background>
      <osmand:icon>public_bookcase</osmand:icon>
    </extensions>
  </wpt>
  <wpt lat="45.758138" lon="4.824806">
    <name>rue saint georges</name>
    <desc></desc>
    <type>Delivrez bookcases</type>
    <extensions>
      <osmand:color>#ff5020</osmand:color>
      <osmand:background>square</osmand:background>
      <osmand:icon>public_bookcase</osmand:icon>
    </extensions>
  </wpt>
  <wpt lat="44.709783" lon="5.401763">
    <name>Rue Paul Bres</name>
    <desc></desc>
    <type>Delivrez bookcases</type>
    <extensions>
      <osmand:color>#ff5020</osmand:color>
      <osmand:background>square</osmand:background>
      <osmand:icon>public_bookcase</osmand:icon>
    </extensions>
  </wpt>
  <wpt lat="44.888676" lon="4.87057">
    <name>Rue Benoît Frachon</name>
    <desc>école élémentaire</desc>
    <type>Delivrez bookcases</type>
    <extensions>
      <osmand:color>#ff5020</osmand:color>
      <osmand:background>square</osmand:background>
      <osmand:icon>public_bookcase</osmand:icon>
    </extensions>
  </wpt>
  <wpt lat="44.932124" lon="4.886728">
    <name>Rue Barthélémy Roux</name>
    <desc>à côté de maison pour tous</desc>
    <type>Delivrez bookcases</type>
    <extensions>
      <osmand:color>#ff5020</osmand:color>
      <osmand:background>square</osmand:background>
      <osmand:icon>public_bookcase</osmand:icon>
    </extensions>
  </wpt>
  <wpt lat="44.479511" lon="4.238957">
    <name>Passage du Square André</name>
    <desc></desc>
    <type>Delivrez bookcases</type>
    <extensions>
      <osmand:color>#ff5020</osmand:color>
      <osmand:background>square</osmand:background>
      <osmand:icon>public_bookcase</osmand:icon>
    </extensions>
  </wpt>
  <wpt lat="45.525456" lon="4.867414">
    <name>Route Départementale 386</name>
    <desc>à  côté de la police municipale</desc>
    <type>Delivrez bookcases</type>
    <extensions>
      <osmand:color>#ff5020</osmand:color>
      <osmand:background>square</osmand:background>
      <osmand:icon>public_bookcase</osmand:icon>
    </extensions>
  </wpt>
  <wpt lat="46.324933" lon="3.262819">
    <name>Parc de la Mairie</name>
    <desc></desc>
    <type>Delivrez bookcases</type>
    <extensions>
      <osmand:color>#ff5020</osmand:color>
      <osmand:background>square</osmand:background>
      <osmand:icon>public_bookcase</osmand:icon>
    </extensions>
  </wpt>
  <wpt lat="45.034739" lon="5.074563">
    <name>Rue Félix Tournigand</name>
    <desc>Une cabane en bois située face à l'espace polyvalent et à l'école Marc-Antoine et Rosalie Jullien.</desc>
    <type>Delivrez bookcases</type>
    <extensions>
      <osmand:color>#ff5020</osmand:color>
      <osmand:background>square</osmand:background>
      <osmand:icon>public_bookcase</osmand:icon>
    </extensions>
  </wpt>
  <wpt lat="46.264255" lon="2.593681">
    <name>a côté de l eglise</name>
    <desc></desc>
    <type>Delivrez bookcases</type>
    <extensions>
      <osmand:color>#ff5020</osmand:color>
      <osmand:background>square</osmand:background>
      <osmand:icon>public_bookcase</osmand:icon>
    </extensions>
  </wpt>
  <wpt lat="45.770467" lon="6.123713">
    <name>D110col des leschaut</name>
    <desc>a côté de la bibliothèque dans une cabine téléphonique</desc>
    <type>Delivrez bookcases</type>
    <extensions>
      <osmand:color>#ff5020</osmand:color>
      <osmand:background>square</osmand:background>
      <osmand:icon>public_bookcase</osmand:icon>
    </extensions>
  </wpt>
  <wpt lat="45.788551" lon="3.071883">
    <name>Parc de Montjuzet</name>
    <desc></desc>
    <type>Delivrez bookcases</type>
    <extensions>
      <osmand:color>#ff5020</osmand:color>
      <osmand:background>square</osmand:background>
      <osmand:icon>public_bookcase</osmand:icon>
    </extensions>
  </wpt>
  <wpt lat="45.634127" lon="3.637518">
    <name>Rue des Postiers</name>
    <desc></desc>
    <type>Delivrez bookcases</type>
    <extensions>
      <osmand:color>#ff5020</osmand:color>
      <osmand:background>square</osmand:background>
      <osmand:icon>public_bookcase</osmand:icon>
    </extensions>
  </wpt>
  <wpt lat="45.741181" lon="4.817879">
    <name>Centre commercial Confluence</name>
    <desc>En sortie de parking souterrain, face aux jeux pour enfants.</desc>
    <type>Delivrez bookcases</type>
    <extensions>
      <osmand:color>#ff5020</osmand:color>
      <osmand:background>square</osmand:background>
      <osmand:icon>public_bookcase</osmand:icon>
    </extensions>
  </wpt>
  <wpt lat="46.287791" lon="2.658407">
    <name>parc du casino</name>
    <desc></desc>
    <type>Delivrez bookcases</type>
    <extensions>
      <osmand:color>#ff5020</osmand:color>
      <osmand:background>square</osmand:background>
      <osmand:icon>public_bookcase</osmand:icon>
    </extensions>
  </wpt>
  <wpt lat="44.833688" lon="4.973973">
    <name>Gr Grande Rue</name>
    <desc>proche de la pharmacie</desc>
    <type>Delivrez bookcases</type>
    <extensions>
      <osmand:color>#ff5020</osmand:color>
      <osmand:background>square</osmand:background>
      <osmand:icon>public_bookcase</osmand:icon>
    </extensions>
  </wpt>
  <wpt lat="44.804022" lon="4.959279">
    <name>Route de Montoison</name>
    <desc>école élémentaire</desc>
    <type>Delivrez bookcases</type>
    <extensions>
      <osmand:color>#ff5020</osmand:color>
      <osmand:background>square</osmand:background>
      <osmand:icon>public_bookcase</osmand:icon>
    </extensions>
  </wpt>
  <wpt lat="46.283321" lon="6.084753">
    <name>Rue de Villard</name>
    <desc></desc>
    <type>Delivrez bookcases</type>
    <extensions>
      <osmand:color>#ff5020</osmand:color>
      <osmand:background>square</osmand:background>
      <osmand:icon>public_bookcase</osmand:icon>
    </extensions>
  </wpt>
  <wpt lat="44.482031" lon="4.688829">
    <name>Place de l'Esplanade</name>
    <desc></desc>
    <type>Delivrez bookcases</type>
    <extensions>
      <osmand:color>#ff5020</osmand:color>
      <osmand:background>square</osmand:background>
      <osmand:icon>public_bookcase</osmand:icon>
    </extensions>
  </wpt>
  <wpt lat="44.827253" lon="5.622808">
    <name>Place de la Mairie</name>
    <desc>près de la fontaine.</desc>
    <type>Delivrez bookcases</type>
    <extensions>
      <osmand:color>#ff5020</osmand:color>
      <osmand:background>square</osmand:background>
      <osmand:icon>public_bookcase</osmand:icon>
    </extensions>
  </wpt>
  <wpt lat="45.757937" lon="5.067655">
    <name>Place de la Bascule</name>
    <desc></desc>
    <type>Delivrez bookcases</type>
    <extensions>
      <osmand:color>#ff5020</osmand:color>
      <osmand:background>square</osmand:background>
      <osmand:icon>public_bookcase</osmand:icon>
    </extensions>
  </wpt>
  <wpt lat="46.654837" lon="3.612834">
    <name>boite à livres</name>
    <desc>parking camping car</desc>
    <type>Delivrez bookcases</type>
    <extensions>
      <osmand:color>#ff5020</osmand:color>
      <osmand:background>square</osmand:background>
      <osmand:icon>public_bookcase</osmand:icon>
    </extensions>
  </wpt>
  <wpt lat="46.208009" lon="6.255593">
    <name>Rue Fernand David</name>
    <desc>à côté du moulin de Cara</desc>
    <type>Delivrez bookcases</type>
    <extensions>
      <osmand:color>#ff5020</osmand:color>
      <osmand:background>square</osmand:background>
      <osmand:icon>public_bookcase</osmand:icon>
    </extensions>
  </wpt>
  <wpt lat="46.287884" lon="2.651133">
    <name>A l aire de jeux. camping de la vallee</name>
    <desc></desc>
    <type>Delivrez bookcases</type>
    <extensions>
      <osmand:color>#ff5020</osmand:color>
      <osmand:background>square</osmand:background>
      <osmand:icon>public_bookcase</osmand:icon>
    </extensions>
  </wpt>
  <wpt lat="44.694001" lon="5.483723">
    <name>Chemin du Bez</name>
    <desc></desc>
    <type>Delivrez bookcases</type>
    <extensions>
      <osmand:color>#ff5020</osmand:color>
      <osmand:background>square</osmand:background>
      <osmand:icon>public_bookcase</osmand:icon>
    </extensions>
  </wpt>
  <wpt lat="45.75935" lon="6.297658">
    <name>savoie</name>
    <desc></desc>
    <type>Delivrez bookcases</type>
    <extensions>
      <osmand:color>#ff5020</osmand:color>
      <osmand:background>square</osmand:background>
      <osmand:icon>public_bookcase</osmand:icon>
    </extensions>
  </wpt>
  <wpt lat="44.753432" lon="5.373216">
    <name>Rue des Oies</name>
    <desc></desc>
    <type>Delivrez bookcases</type>
    <extensions>
      <osmand:color>#ff5020</osmand:color>
      <osmand:background>square</osmand:background>
      <osmand:icon>public_bookcase</osmand:icon>
    </extensions>
  </wpt>
  <wpt lat="45.724961" lon="5.247857">
    <name>Place du Maréchal de Lattre de Tassigny</name>
    <desc>boite a livre devant la bibliothèque</desc>
    <type>Delivrez bookcases</type>
    <extensions>
      <osmand:color>#ff5020</osmand:color>
      <osmand:background>square</osmand:background>
      <osmand:icon>public_bookcase</osmand:icon>
    </extensions>
  </wpt>
  <wpt lat="45.795761" lon="5.119763">
    <name>ancienne gare</name>
    <desc></desc>
    <type>Delivrez bookcases</type>
    <extensions>
      <osmand:color>#ff5020</osmand:color>
      <osmand:background>square</osmand:background>
      <osmand:icon>public_bookcase</osmand:icon>
    </extensions>
  </wpt>
  <wpt lat="44.935583" lon="2.45349">
    <name>Boulevard Jean Jaurès</name>
    <desc></desc>
    <type>Delivrez bookcases</type>
    <extensions>
      <osmand:color>#ff5020</osmand:color>
      <osmand:background>square</osmand:background>
      <osmand:icon>public_bookcase</osmand:icon>
    </extensions>
  </wpt>
  <wpt lat="45.658788" lon="5.736352">
    <name>Place de L’Église</name>
    <desc></desc>
    <type>Delivrez bookcases</type>
    <extensions>
      <osmand:color>#ff5020</osmand:color>
      <osmand:background>square</osmand:background>
      <osmand:icon>public_bookcase</osmand:icon>
    </extensions>
  </wpt>
  <wpt lat="44.675167" lon="4.221063">
    <name>Place du Champ de Mars</name>
    <desc></desc>
    <type>Delivrez bookcases</type>
    <extensions>
      <osmand:color>#ff5020</osmand:color>
      <osmand:background>square</osmand:background>
      <osmand:icon>public_bookcase</osmand:icon>
    </extensions>
  </wpt>
  <wpt lat="44.921765" lon="2.838605">
    <name>Rue du Plomb du Cantal</name>
    <desc></desc>
    <type>Delivrez bookcases</type>
    <extensions>
      <osmand:color>#ff5020</osmand:color>
      <osmand:background>square</osmand:background>
      <osmand:icon>public_bookcase</osmand:icon>
    </extensions>
  </wpt>
  <wpt lat="44.850692" lon="4.905727">
    <name>Montée de Saint Fely</name>
    <desc>croisement du centre du village</desc>
    <type>Delivrez bookcases</type>
    <extensions>
      <osmand:color>#ff5020</osmand:color>
      <osmand:background>square</osmand:background>
      <osmand:icon>public_bookcase</osmand:icon>
    </extensions>
  </wpt>
  <wpt lat="44.758533" lon="4.98988">
    <name>Route des Pêchers</name>
    <desc></desc>
    <type>Delivrez bookcases</type>
    <extensions>
      <osmand:color>#ff5020</osmand:color>
      <osmand:background>square</osmand:background>
      <osmand:icon>public_bookcase</osmand:icon>
    </extensions>
  </wpt>
  <wpt lat="45.321522" lon="3.694994">
    <name>4 Rue Marchadiale</name>
    <desc></desc>
    <type>Delivrez bookcases</type>
    <extensions>
      <osmand:color>#ff5020</osmand:color>
      <osmand:background>square</osmand:background>
      <osmand:icon>public_bookcase</osmand:icon>
    </extensions>
  </wpt>
  <wpt lat="46.286169" lon="2.660102">
    <name>square jean desriot</name>
    <desc>en face de l entrée des thermes</desc>
    <type>Delivrez bookcases</type>
    <extensions>
      <osmand:color>#ff5020</osmand:color>
      <osmand:background>square</osmand:background>
      <osmand:icon>public_bookcase</osmand:icon>
    </extensions>
  </wpt>
  <wpt lat="44.990606" lon="3.679302">
    <name>Ruelle du Pradi</name>
    <desc>sur une placette point de vue</desc>
    <type>Delivrez bookcases</type>
    <extensions>
      <osmand:color>#ff5020</osmand:color>
      <osmand:background>square</osmand:background>
      <osmand:icon>public_bookcase</osmand:icon>
    </extensions>
  </wpt>
  <wpt lat="45.293953" lon="3.383569">
    <name>35 Rue du Quatre Septembre</name>
    <desc></desc>
    <type>Delivrez bookcases</type>
    <extensions>
      <osmand:color>#ff5020</osmand:color>
      <osmand:background>square</osmand:background>
      <osmand:icon>public_bookcase</osmand:icon>
    </extensions>
  </wpt>
  <wpt lat="44.448621" lon="4.306793">
    <name>labeaume</name>
    <desc>petite boite</desc>
    <type>Delivrez bookcases</type>
    <extensions>
      <osmand:color>#ff5020</osmand:color>
      <osmand:background>square</osmand:background>
      <osmand:icon>public_bookcase</osmand:icon>
    </extensions>
  </wpt>
  <wpt lat="45.354302" lon="4.906931">
    <name>Balafre</name>
    <desc></desc>
    <type>Delivrez bookcases</type>
    <extensions>
      <osmand:color>#ff5020</osmand:color>
      <osmand:background>square</osmand:background>
      <osmand:icon>public_bookcase</osmand:icon>
    </extensions>
  </wpt>
  <wpt lat="45.341555" lon="5.582578">
    <name>Place du Champ de Mars</name>
    <desc></desc>
    <type>Delivrez bookcases</type>
    <extensions>
      <osmand:color>#ff5020</osmand:color>
      <osmand:background>square</osmand:background>
      <osmand:icon>public_bookcase</osmand:icon>
    </extensions>
  </wpt>
  <wpt lat="44.853508" lon="5.761788">
    <name>St Jean d'Heran</name>
    <desc></desc>
    <type>Delivrez bookcases</type>
    <extensions>
      <osmand:color>#ff5020</osmand:color>
      <osmand:background>square</osmand:background>
      <osmand:icon>public_bookcase</osmand:icon>
    </extensions>
  </wpt>
  <wpt lat="44.86578" lon="5.770839">
    <name>Chemin des Paquiers</name>
    <desc>BAL en forme de ruche</desc>
    <type>Delivrez bookcases</type>
    <extensions>
      <osmand:color>#ff5020</osmand:color>
      <osmand:background>square</osmand:background>
      <osmand:icon>public_bookcase</osmand:icon>
    </extensions>
  </wpt>
  <wpt lat="44.871389" lon="5.770503">
    <name>Rue de L’Hydre</name>
    <desc></desc>
    <type>Delivrez bookcases</type>
    <extensions>
      <osmand:color>#ff5020</osmand:color>
      <osmand:background>square</osmand:background>
      <osmand:icon>public_bookcase</osmand:icon>
    </extensions>
  </wpt>
  <wpt lat="45.391721" lon="6.319142">
    <name>Place du Souvenir Français</name>
    <desc></desc>
    <type>Delivrez bookcases</type>
    <extensions>
      <osmand:color>#ff5020</osmand:color>
      <osmand:background>square</osmand:background>
      <osmand:icon>public_bookcase</osmand:icon>
    </extensions>
  </wpt>
  <wpt lat="44.516078" lon="4.822645">
    <name>Impasse du Tilleul</name>
    <desc></desc>
    <type>Delivrez bookcases</type>
    <extensions>
      <osmand:color>#ff5020</osmand:color>
      <osmand:background>square</osmand:background>
      <osmand:icon>public_bookcase</osmand:icon>
    </extensions>
  </wpt>
  <wpt lat="46.33199" lon="3.981296">
    <name>Le Bourg</name>
    <desc>mairie</desc>
    <type>Delivrez bookcases</type>
    <extensions>
      <osmand:color>#ff5020</osmand:color>
      <osmand:background>square</osmand:background>
      <osmand:icon>public_bookcase</osmand:icon>
    </extensions>
  </wpt>
  <wpt lat="45.186379" lon="4.314636">
    <name>Avenue de la Gare</name>
    <desc></desc>
    <type>Delivrez bookcases</type>
    <extensions>
      <osmand:color>#ff5020</osmand:color>
      <osmand:background>square</osmand:background>
      <osmand:icon>public_bookcase</osmand:icon>
    </extensions>
  </wpt>
  <wpt lat="45.784461" lon="5.765588">
    <name>Place de la Mairie</name>
    <desc></desc>
    <type>Delivrez bookcases</type>
    <extensions>
      <osmand:color>#ff5020</osmand:color>
      <osmand:background>square</osmand:background>
      <osmand:icon>public_bookcase</osmand:icon>
    </extensions>
  </wpt>
  <wpt lat="46.035018" lon="4.079311">
    <name>Quai Commandant Lherminier</name>
    <desc>canal</desc>
    <type>Delivrez bookcases</type>
    <extensions>
      <osmand:color>#ff5020</osmand:color>
      <osmand:background>square</osmand:background>
      <osmand:icon>public_bookcase</osmand:icon>
    </extensions>
  </wpt>
  <wpt lat="46.147294" lon="4.084652">
    <name>Rue de la Libération</name>
    <desc>au parc</desc>
    <type>Delivrez bookcases</type>
    <extensions>
      <osmand:color>#ff5020</osmand:color>
      <osmand:background>square</osmand:background>
      <osmand:icon>public_bookcase</osmand:icon>
    </extensions>
  </wpt>
  <wpt lat="44.923686" lon="4.910085">
    <name>Parc Benjamin DELESSERT</name>
    <desc></desc>
    <type>Delivrez bookcases</type>
    <extensions>
      <osmand:color>#ff5020</osmand:color>
      <osmand:background>square</osmand:background>
      <osmand:icon>public_bookcase</osmand:icon>
    </extensions>
  </wpt>
  <wpt lat="46.260622" lon="5.658197">
    <name>Rue Anatole France</name>
    <desc>devant le musée de la grande vapeur</desc>
    <type>Delivrez bookcases</type>
    <extensions>
      <osmand:color>#ff5020</osmand:color>
      <osmand:background>square</osmand:background>
      <osmand:icon>public_bookcase</osmand:icon>
    </extensions>
  </wpt>
  <wpt lat="46.25965" lon="5.653793">
    <name>gare SNCF</name>
    <desc></desc>
    <type>Delivrez bookcases</type>
    <extensions>
      <osmand:color>#ff5020</osmand:color>
      <osmand:background>square</osmand:background>
      <osmand:icon>public_bookcase</osmand:icon>
    </extensions>
  </wpt>
  <wpt lat="46.078404" lon="6.403449">
    <name>Rue d'Andey</name>
    <desc></desc>
    <type>Delivrez bookcases</type>
    <extensions>
      <osmand:color>#ff5020</osmand:color>
      <osmand:background>square</osmand:background>
      <osmand:icon>public_bookcase</osmand:icon>
    </extensions>
  </wpt>
  <wpt lat="45.587913" lon="5.15897">
    <name>Rue des Écoles</name>
    <desc></desc>
    <type>Delivrez bookcases</type>
    <extensions>
      <osmand:color>#ff5020</osmand:color>
      <osmand:background>square</osmand:background>
      <osmand:icon>public_bookcase</osmand:icon>
    </extensions>
  </wpt>
  <wpt lat="44.447417" lon="4.417451">
    <name>place du 14 juillet Lagorce</name>
    <desc></desc>
    <type>Delivrez bookcases</type>
    <extensions>
      <osmand:color>#ff5020</osmand:color>
      <osmand:background>square</osmand:background>
      <osmand:icon>public_bookcase</osmand:icon>
    </extensions>
  </wpt>
  <wpt lat="44.358952" lon="5.139786">
    <name>Promenade de la Digue</name>
    <desc></desc>
    <type>Delivrez bookcases</type>
    <extensions>
      <osmand:color>#ff5020</osmand:color>
      <osmand:background>square</osmand:background>
      <osmand:icon>public_bookcase</osmand:icon>
    </extensions>
  </wpt>
  <wpt lat="44.393431" lon="4.753686">
    <name>Rue de la Loge</name>
    <desc></desc>
    <type>Delivrez bookcases</type>
    <extensions>
      <osmand:color>#ff5020</osmand:color>
      <osmand:background>square</osmand:background>
      <osmand:icon>public_bookcase</osmand:icon>
    </extensions>
  </wpt>
  <wpt lat="45.373147" lon="5.572993">
    <name>Rue des Tallifardières</name>
    <desc></desc>
    <type>Delivrez bookcases</type>
    <extensions>
      <osmand:color>#ff5020</osmand:color>
      <osmand:background>square</osmand:background>
      <osmand:icon>public_bookcase</osmand:icon>
    </extensions>
  </wpt>
  <wpt lat="45.36325" lon="5.594687">
    <name>Boulevard Franklin Roosevelt</name>
    <desc>circul'livre</desc>
    <type>Delivrez bookcases</type>
    <extensions>
      <osmand:color>#ff5020</osmand:color>
      <osmand:background>square</osmand:background>
      <osmand:icon>public_bookcase</osmand:icon>
    </extensions>
  </wpt>
  <wpt lat="45.852952" lon="5.054964">
    <name>bibliothèque de montluel</name>
    <desc>dans le hall</desc>
    <type>Delivrez bookcases</type>
    <extensions>
      <osmand:color>#ff5020</osmand:color>
      <osmand:background>square</osmand:background>
      <osmand:icon>public_bookcase</osmand:icon>
    </extensions>
  </wpt>
  <wpt lat="45.849953" lon="5.056233">
    <name>école saint exupery</name>
    <desc></desc>
    <type>Delivrez bookcases</type>
    <extensions>
      <osmand:color>#ff5020</osmand:color>
      <osmand:background>square</osmand:background>
      <osmand:icon>public_bookcase</osmand:icon>
    </extensions>
  </wpt>
  <wpt lat="45.484334" lon="4.574733">
    <name>Rue a Combattants Afrique Nord</name>
    <desc></desc>
    <type>Delivrez bookcases</type>
    <extensions>
      <osmand:color>#ff5020</osmand:color>
      <osmand:background>square</osmand:background>
      <osmand:icon>public_bookcase</osmand:icon>
    </extensions>
  </wpt>
  <wpt lat="46.519238" lon="3.685167">
    <name>Gr Grande Rue</name>
    <desc>à côté gendarmerie</desc>
    <type>Delivrez bookcases</type>
    <extensions>
      <osmand:color>#ff5020</osmand:color>
      <osmand:background>square</osmand:background>
      <osmand:icon>public_bookcase</osmand:icon>
    </extensions>
  </wpt>
  <wpt lat="46.533225" lon="3.748031">
    <name>Route de Gilly</name>
    <desc></desc>
    <type>Delivrez bookcases</type>
    <extensions>
      <osmand:color>#ff5020</osmand:color>
      <osmand:background>square</osmand:background>
      <osmand:icon>public_bookcase</osmand:icon>
    </extensions>
  </wpt>
  <wpt lat="45.852956" lon="5.129609">
    <name>Route de Genève</name>
    <desc>un ancien frigo recycle</desc>
    <type>Delivrez bookcases</type>
    <extensions>
      <osmand:color>#ff5020</osmand:color>
      <osmand:background>square</osmand:background>
      <osmand:icon>public_bookcase</osmand:icon>
    </extensions>
  </wpt>
  <wpt lat="45.903698" lon="5.189644">
    <name>Avenue Docteur Berthier</name>
    <desc>dans la maison de la culture</desc>
    <type>Delivrez bookcases</type>
    <extensions>
      <osmand:color>#ff5020</osmand:color>
      <osmand:background>square</osmand:background>
      <osmand:icon>public_bookcase</osmand:icon>
    </extensions>
  </wpt>
  <wpt lat="45.36798" lon="4.663287">
    <name>Place de la Mairie veranne</name>
    <desc></desc>
    <type>Delivrez bookcases</type>
    <extensions>
      <osmand:color>#ff5020</osmand:color>
      <osmand:background>square</osmand:background>
      <osmand:icon>public_bookcase</osmand:icon>
    </extensions>
  </wpt>
  <wpt lat="45.851196" lon="5.057302">
    <name>salle des augustins</name>
    <desc></desc>
    <type>Delivrez bookcases</type>
    <extensions>
      <osmand:color>#ff5020</osmand:color>
      <osmand:background>square</osmand:background>
      <osmand:icon>public_bookcase</osmand:icon>
    </extensions>
  </wpt>
  <wpt lat="45.763296" lon="4.766455">
    <name>Avenue du 11 Novembre 1918</name>
    <desc>Parc de l'orangerie</desc>
    <type>Delivrez bookcases</type>
    <extensions>
      <osmand:color>#ff5020</osmand:color>
      <osmand:background>square</osmand:background>
      <osmand:icon>public_bookcase</osmand:icon>
    </extensions>
  </wpt>
  <wpt lat="45.296264" lon="2.315418">
    <name>La croisée d Arches</name>
    <desc>Boîte à livres installée dans un tiers lieu</desc>
    <type>Delivrez bookcases</type>
    <extensions>
      <osmand:color>#ff5020</osmand:color>
      <osmand:background>square</osmand:background>
      <osmand:icon>public_bookcase</osmand:icon>
    </extensions>
  </wpt>
  <wpt lat="45.523456" lon="6.339027">
    <name>Route du Grand Arc</name>
    <desc></desc>
    <type>Delivrez bookcases</type>
    <extensions>
      <osmand:color>#ff5020</osmand:color>
      <osmand:background>square</osmand:background>
      <osmand:icon>public_bookcase</osmand:icon>
    </extensions>
  </wpt>
  <wpt lat="45.633906" lon="6.351971">
    <name>Route Départementale No 925</name>
    <desc>sous l'abri bus.</desc>
    <type>Delivrez bookcases</type>
    <extensions>
      <osmand:color>#ff5020</osmand:color>
      <osmand:background>square</osmand:background>
      <osmand:icon>public_bookcase</osmand:icon>
    </extensions>
  </wpt>
  <wpt lat="45.321375" lon="6.087025">
    <name>Route de Montarmand</name>
    <desc></desc>
    <type>Delivrez bookcases</type>
    <extensions>
      <osmand:color>#ff5020</osmand:color>
      <osmand:background>square</osmand:background>
      <osmand:icon>public_bookcase</osmand:icon>
    </extensions>
  </wpt>
  <wpt lat="44.797738" lon="5.907031">
    <name>Rue du Grand Vent</name>
    <desc></desc>
    <type>Delivrez bookcases</type>
    <extensions>
      <osmand:color>#ff5020</osmand:color>
      <osmand:background>square</osmand:background>
      <osmand:icon>public_bookcase</osmand:icon>
    </extensions>
  </wpt>
  <wpt lat="46.151917" lon="5.607625">
    <name>Rue du Cloître</name>
    <desc></desc>
    <type>Delivrez bookcases</type>
    <extensions>
      <osmand:color>#ff5020</osmand:color>
      <osmand:background>square</osmand:background>
      <osmand:icon>public_bookcase</osmand:icon>
    </extensions>
  </wpt>
  <wpt lat="45.943117" lon="5.362631">
    <name>Rue du Plu</name>
    <desc>entre l'église et un grand parking, grande boîte à livres sous un abri avec chaises</desc>
    <type>Delivrez bookcases</type>
    <extensions>
      <osmand:color>#ff5020</osmand:color>
      <osmand:background>square</osmand:background>
      <osmand:icon>public_bookcase</osmand:icon>
    </extensions>
  </wpt>
  <wpt lat="44.889318" lon="4.850137">
    <name>Rue Pipet</name>
    <desc>devant l'école</desc>
    <type>Delivrez bookcases</type>
    <extensions>
      <osmand:color>#ff5020</osmand:color>
      <osmand:background>square</osmand:background>
      <osmand:icon>public_bookcase</osmand:icon>
    </extensions>
  </wpt>
  <wpt lat="45.429175" lon="5.824622">
    <name>Route de la Cluse</name>
    <desc></desc>
    <type>Delivrez bookcases</type>
    <extensions>
      <osmand:color>#ff5020</osmand:color>
      <osmand:background>square</osmand:background>
      <osmand:icon>public_bookcase</osmand:icon>
    </extensions>
  </wpt>
  <wpt lat="45.990301" lon="4.761671">
    <name>trades bord du lac</name>
    <desc></desc>
    <type>Delivrez bookcases</type>
    <extensions>
      <osmand:color>#ff5020</osmand:color>
      <osmand:background>square</osmand:background>
      <osmand:icon>public_bookcase</osmand:icon>
    </extensions>
  </wpt>
  <wpt lat="46.536856" lon="2.608312">
    <name>Rue Paul Constans</name>
    <desc></desc>
    <type>Delivrez bookcases</type>
    <extensions>
      <osmand:color>#ff5020</osmand:color>
      <osmand:background>square</osmand:background>
      <osmand:icon>public_bookcase</osmand:icon>
    </extensions>
  </wpt>
  <wpt lat="45.494919" lon="6.074654">
    <name>D204</name>
    <desc>devant l"entrée de la salle "Arclusaz"</desc>
    <type>Delivrez bookcases</type>
    <extensions>
      <osmand:color>#ff5020</osmand:color>
      <osmand:background>square</osmand:background>
      <osmand:icon>public_bookcase</osmand:icon>
    </extensions>
  </wpt>
  <wpt lat="45.508158" lon="6.066089">
    <name>Grande Rue</name>
    <desc>a côté de la mairie</desc>
    <type>Delivrez bookcases</type>
    <extensions>
      <osmand:color>#ff5020</osmand:color>
      <osmand:background>square</osmand:background>
      <osmand:icon>public_bookcase</osmand:icon>
    </extensions>
  </wpt>
  <wpt lat="45.761388" lon="4.827719">
    <name>Rue Mandelot</name>
    <desc>dans le parc</desc>
    <type>Delivrez bookcases</type>
    <extensions>
      <osmand:color>#ff5020</osmand:color>
      <osmand:background>square</osmand:background>
      <osmand:icon>public_bookcase</osmand:icon>
    </extensions>
  </wpt>
  <wpt lat="45.189378" lon="4.687721">
    <name>Place de l'Église</name>
    <desc>dans le square à côté du parc à jeux</desc>
    <type>Delivrez bookcases</type>
    <extensions>
      <osmand:color>#ff5020</osmand:color>
      <osmand:background>square</osmand:background>
      <osmand:icon>public_bookcase</osmand:icon>
    </extensions>
  </wpt>
  <wpt lat="45.601368" lon="6.25427">
    <name>Place Pierre Bonnet</name>
    <desc>sous l'abribus en face l'eglise</desc>
    <type>Delivrez bookcases</type>
    <extensions>
      <osmand:color>#ff5020</osmand:color>
      <osmand:background>square</osmand:background>
      <osmand:icon>public_bookcase</osmand:icon>
    </extensions>
  </wpt>
  <wpt lat="45.598115" lon="6.258682">
    <name>Avenue de la Combe de Savoie</name>
    <desc>sous l'abribus en bois</desc>
    <type>Delivrez bookcases</type>
    <extensions>
      <osmand:color>#ff5020</osmand:color>
      <osmand:background>square</osmand:background>
      <osmand:icon>public_bookcase</osmand:icon>
    </extensions>
  </wpt>
  <wpt lat="45.256554" lon="4.787018">
    <name>Route de la Syrah</name>
    <desc>devant le parc, ancienne cabine téléphonique</desc>
    <type>Delivrez bookcases</type>
    <extensions>
      <osmand:color>#ff5020</osmand:color>
      <osmand:background>square</osmand:background>
      <osmand:icon>public_bookcase</osmand:icon>
    </extensions>
  </wpt>
  <wpt lat="45.705101" lon="5.758819">
    <name>Esplanade du Rhône</name>
    <desc></desc>
    <type>Delivrez bookcases</type>
    <extensions>
      <osmand:color>#ff5020</osmand:color>
      <osmand:background>square</osmand:background>
      <osmand:icon>public_bookcase</osmand:icon>
    </extensions>
  </wpt>
  <wpt lat="46.004416" lon="5.028688">
    <name>gare de Villars les dombes</name>
    <desc>contre la gare</desc>
    <type>Delivrez bookcases</type>
    <extensions>
      <osmand:color>#ff5020</osmand:color>
      <osmand:background>square</osmand:background>
      <osmand:icon>public_bookcase</osmand:icon>
    </extensions>
  </wpt>
  <wpt lat="44.926296" lon="4.875405">
    <name>Quai du Rhône</name>
    <desc>entre le parc pour enfant et le Rhône</desc>
    <type>Delivrez bookcases</type>
    <extensions>
      <osmand:color>#ff5020</osmand:color>
      <osmand:background>square</osmand:background>
      <osmand:icon>public_bookcase</osmand:icon>
    </extensions>
  </wpt>