{
  "type": "FeatureCollection",
  "features": [
    {
      "type": "Feature",
      "geometry": {
        "type": "Point",
        "coordinates": [
          5.083129,
          46.903644
        ]
      },
      "properties": {
        "title": "Rue des Bords du Doubs",
        "lat": "46.903644",
        "lon": "5.0831293",
        "type": "BSB",
        "observation": "Sous le auvent de la mairie.",
        "picture": "https://delivrez.fr/public/posts/img.685fe9e63260d.png"
      }
    },
    {
      "type": "Feature",
      "geometry": {
        "type": "Point",
        "coordinates": [
          4.950512,
          47.138821
        ]
      },
      "properties": {
        "title": "musée nuits st george",
        "lat": "47.1388215",
        "lon": "4.9505118",
        "type": "BSB",
        "picture": "https://delivrez.fr/public/posts/img.685ed93723e8a.png"
      }
    },
    {
      "type": "Feature",
      "geometry": {
        "type": "Point",
        "coordinates": [
          3.226452,
          47.283761
        ]
      },
      "properties": {
        "title": "Grande Rue",
        "lat": "47.2837612",
        "lon": "3.2264524",
        "type": "BSB",
        "picture": "https://delivrez.fr/public/posts/img.686244f70b070.png"
      }
    },
    {
      "type": "Feature",
      "geometry": {
        "type": "Point",
        "coordinates": [
          4.981514,
          46.905478
        ]
      },
      "properties": {
        "title": "Route de Chalon",
        "lat": "46.9054781",
        "lon": "4.9815143",
        "type": "BSB",
        "picture": "https://delivrez.fr/public/posts/img.6860e189bff04.png"
      }
    },
    {
      "type": "Feature",
      "geometry": {
        "type": "Point",
        "coordinates": [
          5.784652,
          47.034985
        ]
      },
      "properties": {
        "title": "Rue de Rans",
        "lat": "47.0349852",
        "lon": "5.7846524",
        "type": "BSB",
        "observation": "dans l'entrée du supermarché",
        "picture": "https://delivrez.fr/public/posts/img.684806aa7eab9.png"
      }
    },
    {
      "type": "Feature",
      "geometry": {
        "type": "Point",
        "coordinates": [
          5.496788,
          46.671478
        ]
      },
      "properties": {
        "title": "Rue Robert Morland",
        "lat": "46.6714785",
        "lon": "5.4967878",
        "type": "BSB",
        "observation": "en bas de la mairie",
        "picture": "https://delivrez.fr/public/posts/img.6842c1168228c.png"
      }
    },
    {
      "type": "Feature",
      "geometry": {
        "type": "Point",
        "coordinates": [
          5.720895,
          47.021526
        ]
      },
      "properties": {
        "title": "Grande Rue",
        "lat": "47.0215261",
        "lon": "5.7208953",
        "type": "BSB",
        "observation": "Dans la cours de l'école",
        "picture": "https://delivrez.fr/public/posts/img.683ffce091240.png"
      }
    },
    {
      "type": "Feature",
      "geometry": {
        "type": "Point",
        "coordinates": [
          6.647315,
          47.691125
        ]
      },
      "properties": {
        "title": "Rue de la Belle Fontaine",
        "lat": "47.6911245",
        "lon": "6.6473152",
        "type": "BSB",
        "observation": "sur le parking",
        "picture": "https://delivrez.fr/public/posts/img.6835817a100aa.png"
      }
    },
    {
      "type": "Feature",
      "geometry": {
        "type": "Point",
        "coordinates": [
          4.33513,
          47.014843
        ]
      },
      "properties": {
        "title": "Rue despa e gil ert hrillote L’Eglise",
        "lat": "47.0148433",
        "lon": "4.3351296",
        "type": "BSB",
        "picture": "https://delivrez.fr/public/posts/img.683566d833021.png"
      }
    },
    {
      "type": "Feature",
      "geometry": {
        "type": "Point",
        "coordinates": [
          4.152945,
          47.171365
        ]
      },
      "properties": {
        "title": "salle des fêtes",
        "lat": "47.1713652",
        "lon": "4.1529446",
        "type": "BSB",
        "picture": "https://delivrez.fr/public/posts/img.683576b9c0fa4.png"
      }
    },
    {
      "type": "Feature",
      "geometry": {
        "type": "Point",
        "coordinates": [
          3.787897,
          47.177495
        ]
      },
      "properties": {
        "title": "Montreuillon",
        "lat": "47.177495",
        "lon": "3.7878967",
        "type": "BSB",
        "picture": "https://delivrez.fr/public/posts/img.6829a9a92f0a5.png"
      }
    },
    {
      "type": "Feature",
      "geometry": {
        "type": "Point",
        "coordinates": [
          6.923788,
          47.557287
        ]
      },
      "properties": {
        "title": "Rue de Delle",
        "lat": "47.5572867",
        "lon": "6.9237883",
        "type": "BSB",
        "observation": "bourogne"
      }
    },
    {
      "type": "Feature",
      "geometry": {
        "type": "Point",
        "coordinates": [
          4.590293,
          47.012858
        ]
      },
      "properties": {
        "title": "Rue du Chateau",
        "lat": "47.0128576",
        "lon": "4.5902932",
        "type": "BSB",
        "picture": "https://delivrez.fr/public/posts/img.6829ac9a83cf9.png"
      }
    },
    {
      "type": "Feature",
      "geometry": {
        "type": "Point",
        "coordinates": [
          4.011869,
          47.106304
        ]
      },
      "properties": {
        "title": "Lavault",
        "lat": "47.1063035",
        "lon": "4.0118685",
        "type": "BSB",
        "observation": "vers la mairie",
        "picture": "https://delivrez.fr/public/posts/img.68148f5f9b969.png"
      }
    },
    {
      "type": "Feature",
      "geometry": {
        "type": "Point",
        "coordinates": [
          6.029964,
          46.461492
        ]
      },
      "properties": {
        "title": "Rue de la Croix de la Teppe",
        "lat": "46.4614916",
        "lon": "6.0299637",
        "type": "BSB",
        "observation": "paupotte",
        "picture": "https://delivrez.fr/public/posts/img.681711b53c05c.png"
      }
    },
    {
      "type": "Feature",
      "geometry": {
        "type": "Point",
        "coordinates": [
          4.662873,
          46.43404
        ]
      },
      "properties": {
        "title": "Rue Porte de Paris",
        "lat": "46.4340402",
        "lon": "4.662873",
        "type": "BSB"
      }
    },
    {
      "type": "Feature",
      "geometry": {
        "type": "Point",
        "coordinates": [
          3.093316,
          46.980584
        ]
      },
      "properties": {
        "title": "Place de l'Église",
        "lat": "46.9805837",
        "lon": "3.0933156",
        "type": "BSB",
        "picture": "https://delivrez.fr/public/posts/img.68147431e1322.png"
      }
    },
    {
      "type": "Feature",
      "geometry": {
        "type": "Point",
        "coordinates": [
          5.343044,
          46.43599
        ]
      },
      "properties": {
        "title": "laverie place d'armes",
        "lat": "46.4359903",
        "lon": "5.343044",
        "type": "BSB"
      }
    },
    {
      "type": "Feature",
      "geometry": {
        "type": "Point",
        "coordinates": [
          5.667217,
          47.240846
        ]
      },
      "properties": {
        "title": "boîte à livre",
        "lat": "47.2408461",
        "lon": "5.6672174",
        "type": "BSB",
        "picture": "https://delivrez.fr/public/posts/img.67fe243058230.png"
      }
    },
    {
      "type": "Feature",
      "geometry": {
        "type": "Point",
        "coordinates": [
          3.615674,
          47.858679
        ]
      },
      "properties": {
        "title": "boîte à livres",
        "lat": "47.8586792",
        "lon": "3.6156738",
        "type": "BSB",
        "observation": "à côté de l'église",
        "picture": "https://delivrez.fr/public/posts/img.6804f1a5ee09b.png"
      }
    },
    {
      "type": "Feature",
      "geometry": {
        "type": "Point",
        "coordinates": [
          4.177011,
          47.199916
        ]
      },
      "properties": {
        "title": "Rue Joseph Bruley",
        "lat": "47.199916",
        "lon": "4.1770106",
        "type": "BSB",
        "picture": "https://delivrez.fr/public/posts/img.6801105a39a16.png"
      }
    },
    {
      "type": "Feature",
      "geometry": {
        "type": "Point",
        "coordinates": [
          5.476145,
          47.17577
        ]
      },
      "properties": {
        "title": "Rue de l'Église",
        "lat": "47.1757701",
        "lon": "5.4761448",
        "type": "BSB",
        "observation": "dans le tonneau",
        "picture": "https://delivrez.fr/public/posts/img.67ff6a4fada2a.png"
      }
    },
    {
      "type": "Feature",
      "geometry": {
        "type": "Point",
        "coordinates": [
          6.377496,
          47.820592
        ]
      },
      "properties": {
        "title": "Avenue des Thermes",
        "lat": "47.8205922",
        "lon": "6.3774963",
        "type": "BSB",
        "observation": "parc des thermes",
        "picture": "https://delivrez.fr/public/posts/img.67fbd6467f1f6.png"
      }
    },
    {
      "type": "Feature",
      "geometry": {
        "type": "Point",
        "coordinates": [
          6.385903,
          47.863208
        ]
      },
      "properties": {
        "title": "D57E. sous l'abri bus",
        "lat": "47.8632083",
        "lon": "6.3859033",
        "type": "BSB",
        "observation": "à côté du récupérateur de bio déchets",
        "picture": "https://delivrez.fr/public/posts/img.67fd0d6383d83.png"
      }
    },
    {
      "type": "Feature",
      "geometry": {
        "type": "Point",
        "coordinates": [
          5.641513,
          47.257915
        ]
      },
      "properties": {
        "title": "boîte à livre",
        "lat": "47.2579151",
        "lon": "5.6415134",
        "type": "BSB",
        "observation": "à côté de l'église",
        "picture": "https://delivrez.fr/public/posts/img.67fcd6cc1ee2e.png"
      }
    },
    {
      "type": "Feature",
      "geometry": {
        "type": "Point",
        "coordinates": [
          6.311248,
          47.788595
        ]
      },
      "properties": {
        "title": "Gr Grande Rue Ste Marie en Chaux",
        "lat": "47.7885955",
        "lon": "6.3112478",
        "type": "BSB",
        "observation": "à côté de la mairie - sous le toit",
        "picture": "https://delivrez.fr/public/posts/img.67fbba8346770.png"
      }
    },
    {
      "type": "Feature",
      "geometry": {
        "type": "Point",
        "coordinates": [
          6.287048,
          47.772074
        ]
      },
      "properties": {
        "title": "Rue du Faubourg",
        "lat": "47.7720738",
        "lon": "6.2870479",
        "type": "BSB",
        "observation": "fontaine à livres",
        "picture": "https://delivrez.fr/public/posts/img.67fbb59eac60f.png"
      }
    },
    {
      "type": "Feature",
      "geometry": {
        "type": "Point",
        "coordinates": [
          5.586027,
          47.449509
        ]
      },
      "properties": {
        "title": "Quai Mavia",
        "lat": "47.4495091",
        "lon": "5.5860267",
        "type": "BSB",
        "observation": "sur la Saône",
        "picture": "https://delivrez.fr/public/posts/img.67fb7c579eb3d.png"
      }
    },
    {
      "type": "Feature",
      "geometry": {
        "type": "Point",
        "coordinates": [
          6.261803,
          47.726195
        ]
      },
      "properties": {
        "title": "Rue de la Forge - Mailleroncourt",
        "lat": "47.7261953",
        "lon": "6.2618034",
        "type": "BSB",
        "observation": "entre le pont et l'abreuvoir",
        "picture": "https://delivrez.fr/public/posts/img.67fa8243678da.png"
      }
    },
    {
      "type": "Feature",
      "geometry": {
        "type": "Point",
        "coordinates": [
          5.389655,
          47.192913
        ]
      },
      "properties": {
        "title": "Boulevard Pasteur",
        "lat": "47.1929131",
        "lon": "5.3896553",
        "type": "BSB",
        "observation": "à côté du cinéma l'Empire",
        "picture": "https://delivrez.fr/public/posts/img.67f90334bc60b.png"
      }
    },
    {
      "type": "Feature",
      "geometry": {
        "type": "Point",
        "coordinates": [
          5.341671,
          47.112023
        ]
      },
      "properties": {
        "title": "Place de l'Europe La Perrière sur Saône",
        "lat": "47.1120231",
        "lon": "5.3416706",
        "type": "BSB",
        "observation": "dans. la guitoune à côté de l'église",
        "picture": "https://delivrez.fr/public/posts/img.67f8f570a60ab.png"
      }
    },
    {
      "type": "Feature",
      "geometry": {
        "type": "Point",
        "coordinates": [
          5.968732,
          47.66455
        ]
      },
      "properties": {
        "title": "Avenue des Patis",
        "lat": "47.6645503",
        "lon": "5.9687321",
        "type": "BSB",
        "observation": "près du carrefour du monument aux morts",
        "picture": "https://delivrez.fr/public/posts/img.67f8d8fe8486b.png"
      }
    },
    {
      "type": "Feature",
      "geometry": {
        "type": "Point",
        "coordinates": [
          5.224616,
          47.126463
        ]
      },
      "properties": {
        "title": "Brazey en Plaine",
        "lat": "47.1264632",
        "lon": "5.2246159",
        "type": "BSB",
        "observation": "sous l'abri bus",
        "picture": "https://delivrez.fr/public/posts/img.67f7c1b42b1be.png"
      }
    },
    {
      "type": "Feature",
      "geometry": {
        "type": "Point",
        "coordinates": [
          5.008142,
          47.270094
        ]
      },
      "properties": {
        "title": "boîte à livres",
        "lat": "47.2700941",
        "lon": "5.0081416",
        "type": "BSB",
        "observation": "à côté de l'arrêt de bus B 15",
        "picture": "https://delivrez.fr/public/posts/img.67f686ceb6d19.png"
      }
    },
    {
      "type": "Feature",
      "geometry": {
        "type": "Point",
        "coordinates": [
          4.970404,
          47.225975
        ]
      },
      "properties": {
        "title": "Rue Richebourg",
        "lat": "47.2259753",
        "lon": "4.9704042",
        "type": "BSB",
        "observation": "devant le jardin pour enfants",
        "picture": "https://delivrez.fr/public/posts/img.67f674ec82b47.png"
      }
    },
    {
      "type": "Feature",
      "geometry": {
        "type": "Point",
        "coordinates": [
          6.035325,
          47.926329
        ]
      },
      "properties": {
        "title": "Grande Rue",
        "lat": "47.9263287",
        "lon": "6.0353248",
        "type": "BSB",
        "observation": "au carrefour",
        "picture": "https://delivrez.fr/public/posts/img.67f6247201b81.png"
      }
    },
    {
      "type": "Feature",
      "geometry": {
        "type": "Point",
        "coordinates": [
          4.877765,
          47.141536
        ]
      },
      "properties": {
        "title": "Grande Rue  - Meuilley",
        "lat": "47.1415363",
        "lon": "4.877765",
        "type": "BSB",
        "observation": "devant le ProxiMarché",
        "picture": "https://delivrez.fr/public/posts/img.67f52b82134d9.png"
      }
    },
    {
      "type": "Feature",
      "geometry": {
        "type": "Point",
        "coordinates": [
          4.843915,
          47.139124
        ]
      },
      "properties": {
        "title": "Rue des Magniens Arcenant",
        "lat": "47.1391244",
        "lon": "4.8439155",
        "type": "BSB",
        "observation": "devant la mairie",
        "picture": "https://delivrez.fr/public/posts/img.67f52718ef30d.png"
      }
    },
    {
      "type": "Feature",
      "geometry": {
        "type": "Point",
        "coordinates": [
          4.695409,
          47.147875
        ]
      },
      "properties": {
        "title": "D33 Thorey sur Ouche",
        "lat": "47.1478746",
        "lon": "4.6954088",
        "type": "BSB",
        "observation": "sous l'abri bus",
        "picture": "https://delivrez.fr/public/posts/img.67f51dcd60c9c.png"
      }
    },
    {
      "type": "Feature",
      "geometry": {
        "type": "Point",
        "coordinates": [
          4.629449,
          46.951251
        ]
      },
      "properties": {
        "title": "Avenue de la Liberté",
        "lat": "46.9512507",
        "lon": "4.6294494",
        "type": "BSB",
        "observation": "à côté des toilettes dans le parc de l'hôtel de ville à Nolay",
        "picture": "https://delivrez.fr/public/posts/img.67efc97a890aa.png"
      }
    },
    {
      "type": "Feature",
      "geometry": {
        "type": "Point",
        "coordinates": [
          4.13946,
          46.69349
        ]
      },
      "properties": {
        "title": "VIVAL TOULON SUR ARROUX",
        "lat": "46.69349",
        "lon": "4.13946",
        "type": "BSB",
        "observation": "Little Free Library",
        "picture": "https://delivrez.fr/public/posts/img.67ee7c037ad83.png"
      }
    },
    {
      "type": "Feature",
      "geometry": {
        "type": "Point",
        "coordinates": [
          3.861785,
          47.490031
        ]
      },
      "properties": {
        "title": "Route de Vézelay",
        "lat": "47.4900311",
        "lon": "3.8617847",
        "type": "BSB",
        "observation": "dans le square derrière l'église",
        "picture": "https://delivrez.fr/public/posts/img.67eaa4036153c.png"
      }
    },
    {
      "type": "Feature",
      "geometry": {
        "type": "Point",
        "coordinates": [
          4.744171,
          46.98621
        ]
      },
      "properties": {
        "title": "Lavoir à livres",
        "lat": "46.9862099",
        "lon": "4.7441711",
        "type": "BSB",
        "observation": "deux grandes armoires, bien protégé de la pluie",
        "picture": "https://delivrez.fr/public/posts/img.67d6e44191b82.png"
      }
    },
    {
      "type": "Feature",
      "geometry": {
        "type": "Point",
        "coordinates": [
          3.740902,
          47.621595
        ]
      },
      "properties": {
        "title": "Place de la Mairie",
        "lat": "47.6215947",
        "lon": "3.7409023",
        "type": "BSB",
        "observation": "à côté de la croix",
        "picture": "https://delivrez.fr/public/posts/img.67acbaadc58f6.png"
      }
    },
    {
      "type": "Feature",
      "geometry": {
        "type": "Point",
        "coordinates": [
          3.911659,
          47.144372
        ]
      },
      "properties": {
        "title": "Chaumard",
        "lat": "47.1443716",
        "lon": "3.9116586",
        "type": "BSB",
        "picture": "https://delivrez.fr/public/posts/img.67a88a7b8234d.png"
      }
    },
    {
      "type": "Feature",
      "geometry": {
        "type": "Point",
        "coordinates": [
          3.332182,
          47.79968
        ]
      },
      "properties": {
        "title": "Rue de l'Église",
        "lat": "47.7996796",
        "lon": "3.3321817",
        "type": "BSB",
        "observation": "_",
        "picture": "https://delivrez.fr/public/posts/img.67965de3dd9fb.png"
      }
    },
    {
      "type": "Feature",
      "geometry": {
        "type": "Point",
        "coordinates": [
          6.541167,
          47.669501
        ]
      },
      "properties": {
        "title": "Place des Tilleuls",
        "lat": "47.6695008",
        "lon": "6.5411672",
        "type": "BSB",
        "picture": "https://delivrez.fr/public/posts/img.679f9db6f26b8.png"
      }
    },
    {
      "type": "Feature",
      "geometry": {
        "type": "Point",
        "coordinates": [
          3.452319,
          47.868827
        ]
      },
      "properties": {
        "title": "Gr Grande Rue",
        "lat": "47.8688273",
        "lon": "3.4523193",
        "type": "BSB",
        "observation": "vers la mairie",
        "picture": "https://delivrez.fr/public/posts/img.679658628ab4b.png"
      }
    },
    {
      "type": "Feature",
      "geometry": {
        "type": "Point",
        "coordinates": [
          3.600169,
          47.902742
        ]
      },
      "properties": {
        "title": "Place Colbert",
        "lat": "47.902742",
        "lon": "3.6001695",
        "type": "BSB",
        "picture": "https://delivrez.fr/public/posts/img.67964e35de6e9.png"
      }
    },
    {
      "type": "Feature",
      "geometry": {
        "type": "Point",
        "coordinates": [
          3.561266,
          47.89752
        ]
      },
      "properties": {
        "title": "Rue Colette",
        "lat": "47.8975205",
        "lon": "3.5612661",
        "type": "BSB",
        "picture": "https://delivrez.fr/public/posts/img.675efb70c6e14.png"
      }
    },
    {
      "type": "Feature",
      "geometry": {
        "type": "Point",
        "coordinates": [
          4.970347,
          46.96904
        ]
      },
      "properties": {
        "title": "Chemin du Bois chevigy valiere",
        "lat": "46.96904",
        "lon": "4.9703475",
        "type": "BSB",
        "picture": "https://delivrez.fr/public/posts/img.672e18cb3bd7d.png"
      }
    },
    {
      "type": "Feature",
      "geometry": {
        "type": "Point",
        "coordinates": [
          5.481642,
          46.527732
        ]
      },
      "properties": {
        "title": "Rue Principale",
        "lat": "46.5277317",
        "lon": "5.4816417",
        "type": "BSB",
        "picture": "https://delivrez.fr/public/posts/img.6724f11351daa.png"
      }
    },
    {
      "type": "Feature",
      "geometry": {
        "type": "Point",
        "coordinates": [
          5.049753,
          47.327086
        ]
      },
      "properties": {
        "title": "Boulevard Georges Clemenceau",
        "lat": "47.3270862",
        "lon": "5.0497525",
        "type": "BSB",
        "observation": "bien fourni",
        "picture": "https://delivrez.fr/public/posts/img.671e426aec8d6.png"
      }
    },
    {
      "type": "Feature",
      "geometry": {
        "type": "Point",
        "coordinates": [
          3.132235,
          47.499851
        ]
      },
      "properties": {
        "title": "boîte à livres",
        "lat": "47.4998507",
        "lon": "3.1322351",
        "type": "BSB",
        "picture": "https://delivrez.fr/public/posts/img.6713a432e986e.png"
      }
    },
    {
      "type": "Feature",
      "geometry": {
        "type": "Point",
        "coordinates": [
          3.937312,
          47.06047
        ]
      },
      "properties": {
        "title": "Bi1",
        "lat": "47.0604701",
        "lon": "3.9373119",
        "type": "BSB",
        "picture": "https://delivrez.fr/public/posts/img.670a95eeed731.png"
      }
    },
    {
      "type": "Feature",
      "geometry": {
        "type": "Point",
        "coordinates": [
          6.079428,
          46.976593
        ]
      },
      "properties": {
        "title": "Rue du Haut",
        "lat": "46.9765928",
        "lon": "6.0794279",
        "type": "BSB",
        "picture": "https://delivrez.fr/public/posts/img.67037dad07cd7.png"
      }
    },
    {
      "type": "Feature",
      "geometry": {
        "type": "Point",
        "coordinates": [
          6.079907,
          46.887954
        ]
      },
      "properties": {
        "title": "Place de la Mairie",
        "lat": "46.8879542",
        "lon": "6.0799072",
        "type": "BSB",
        "picture": "https://delivrez.fr/public/posts/img.6703a0926381a.png"
      }
    },
    {
      "type": "Feature",
      "geometry": {
        "type": "Point",
        "coordinates": [
          6.03241,
          46.939316
        ]
      },
      "properties": {
        "title": "Place de la Mairie",
        "lat": "46.9393162",
        "lon": "6.0324102",
        "type": "BSB",
        "picture": "https://delivrez.fr/public/posts/img.6703997846a06.png"
      }
    },
    {
      "type": "Feature",
      "geometry": {
        "type": "Point",
        "coordinates": [
          5.998964,
          46.976657
        ]
      },
      "properties": {
        "title": "abris bus",
        "lat": "46.9766567",
        "lon": "5.9989645",
        "type": "BSB",
        "picture": "https://delivrez.fr/public/posts/img.670393a32f4cd.png"
      }
    },
    {
      "type": "Feature",
      "geometry": {
        "type": "Point",
        "coordinates": [
          5.265523,
          47.101122
        ]
      },
      "properties": {
        "title": "Place Jean Bard",
        "lat": "47.1011223",
        "lon": "5.2655229",
        "type": "BSB",
        "picture": "https://delivrez.fr/public/posts/img.66ec3ccc7fe08.png"
      }
    },
    {
      "type": "Feature",
      "geometry": {
        "type": "Point",
        "coordinates": [
          6.180279,
          47.645111
        ]
      },
      "properties": {
        "title": "Place Jules Alexis Muenier",
        "lat": "47.645111",
        "lon": "6.1802787",
        "type": "BSB",
        "picture": "https://delivrez.fr/public/posts/img.66e0228699c29.png"
      }
    },
    {
      "type": "Feature",
      "geometry": {
        "type": "Point",
        "coordinates": [
          6.971802,
          47.73611
        ]
      },
      "properties": {
        "title": "Rue de Masevaux",
        "lat": "47.73611",
        "lon": "6.9718022",
        "type": "BSB",
        "picture": "https://delivrez.fr/public/posts/img.66dc51c5bbb67.png"
      }
    },
    {
      "type": "Feature",
      "geometry": {
        "type": "Point",
        "coordinates": [
          6.012903,
          47.231169
        ]
      },
      "properties": {
        "title": "Rue Gabriel Plançon",
        "lat": "47.2311686",
        "lon": "6.0129034",
        "type": "BSB",
        "observation": "Dans le square Copin",
        "picture": "https://delivrez.fr/public/posts/img.66d97439d2a8d.png"
      }
    },
    {
      "type": "Feature",
      "geometry": {
        "type": "Point",
        "coordinates": [
          5.980702,
          47.626336
        ]
      },
      "properties": {
        "title": "Rue de la Mairie",
        "lat": "47.626336",
        "lon": "5.9807016",
        "type": "BSB",
        "picture": "https://delivrez.fr/public/posts/img.66d84b6e8996b.png"
      }
    },
    {
      "type": "Feature",
      "geometry": {
        "type": "Point",
        "coordinates": [
          6.042041,
          47.260799
        ]
      },
      "properties": {
        "title": "Rue des Cras",
        "lat": "47.2607994",
        "lon": "6.0420414",
        "type": "BSB",
        "observation": "A côté de l'arrêt de tram Lilas",
        "picture": "https://delivrez.fr/public/posts/img.66d7fe1daeecf.png"
      }
    },
    {
      "type": "Feature",
      "geometry": {
        "type": "Point",
        "coordinates": [
          3.62353,
          47.723801
        ]
      },
      "properties": {
        "title": "Quai de l'Yonne À Bailly",
        "lat": "47.7238006",
        "lon": "3.6235303",
        "type": "BSB",
        "observation": "sous l'abri bus",
        "picture": "https://delivrez.fr/public/posts/img.66d476cd9f903.png"
      }
    },
    {
      "type": "Feature",
      "geometry": {
        "type": "Point",
        "coordinates": [
          6.033922,
          47.236608
        ]
      },
      "properties": {
        "title": "Avenue Arthur Gaulard",
        "lat": "47.2366084",
        "lon": "6.0339219",
        "type": "BSB",
        "observation": "Derrière le DRAC",
        "picture": "https://delivrez.fr/public/posts/img.66cd6c521b553.png"
      }
    },
    {
      "type": "Feature",
      "geometry": {
        "type": "Point",
        "coordinates": [
          6.025414,
          47.235183
        ]
      },
      "properties": {
        "title": "Granvelle",
        "lat": "47.2351827",
        "lon": "6.025414",
        "type": "BSB",
        "picture": "https://delivrez.fr/public/posts/img.66cad6cfece84.png"
      }
    },
    {
      "type": "Feature",
      "geometry": {
        "type": "Point",
        "coordinates": [
          6.027194,
          47.239509
        ]
      },
      "properties": {
        "title": "Rue Leonel de Moustier",
        "lat": "47.2395086",
        "lon": "6.0271944",
        "type": "BSB",
        "observation": "Dans le square Saint Amour",
        "picture": "https://delivrez.fr/public/posts/img.66cac99a5eea5.png"
      }
    },
    {
      "type": "Feature",
      "geometry": {
        "type": "Point",
        "coordinates": [
          6.027844,
          47.245415
        ]
      },
      "properties": {
        "title": "Place Flore",
        "lat": "47.2454147",
        "lon": "6.0278442",
        "type": "BSB",
        "picture": "https://delivrez.fr/public/posts/img.66cac3b908597.png"
      }
    },
    {
      "type": "Feature",
      "geometry": {
        "type": "Point",
        "coordinates": [
          6.079186,
          47.427652
        ]
      },
      "properties": {
        "title": "Centre culturel Roger Robinet",
        "lat": "47.4276521",
        "lon": "6.0791861",
        "type": "BSB",
        "picture": "https://delivrez.fr/public/posts/img.66c9aece6ab70.png"
      }
    },
    {
      "type": "Feature",
      "geometry": {
        "type": "Point",
        "coordinates": [
          6.069815,
          47.42577
        ]
      },
      "properties": {
        "title": "Rue du General Charles de Gaulle",
        "lat": "47.4257703",
        "lon": "6.0698155",
        "type": "BSB",
        "picture": "https://delivrez.fr/public/posts/img.66c9ac865731d.png"
      }
    },
    {
      "type": "Feature",
      "geometry": {
        "type": "Point",
        "coordinates": [
          6.031443,
          47.242577
        ]
      },
      "properties": {
        "title": "Rue de la Mouillère",
        "lat": "47.2425767",
        "lon": "6.0314428",
        "type": "BSB",
        "observation": "Devant l'entrée du théâtre",
        "picture": "https://delivrez.fr/public/posts/img.66cac5ae9a039.png"
      }
    },
    {
      "type": "Feature",
      "geometry": {
        "type": "Point",
        "coordinates": [
          3.204762,
          48.320174
        ]
      },
      "properties": {
        "title": "Rue du Mal Leclerc",
        "lat": "48.3201741",
        "lon": "3.2047621",
        "type": "BSB",
        "picture": "https://delivrez.fr/public/posts/img.66c89361c205b.png"
      }
    },
    {
      "type": "Feature",
      "geometry": {
        "type": "Point",
        "coordinates": [
          6.160457,
          47.608739
        ]
      },
      "properties": {
        "title": "Place de la Mairie",
        "lat": "47.6087389",
        "lon": "6.1604571",
        "type": "BSB",
        "picture": "https://delivrez.fr/public/posts/img.66ab22b16efeb.png"
      }
    },
    {
      "type": "Feature",
      "geometry": {
        "type": "Point",
        "coordinates": [
          4.76053,
          46.797734
        ]
      },
      "properties": {
        "title": "Place de la Mairie",
        "lat": "46.7977336",
        "lon": "4.7605305",
        "type": "BSB",
        "picture": "https://delivrez.fr/public/posts/img.66bb513cca31e.png"
      }
    },
    {
      "type": "Feature",
      "geometry": {
        "type": "Point",
        "coordinates": [
          4.694173,
          46.712676
        ]
      },
      "properties": {
        "title": "Place de la Tour",
        "lat": "46.7126756",
        "lon": "4.6941728",
        "type": "BSB",
        "observation": "arrêt de bus",
        "picture": "https://delivrez.fr/public/posts/img.66b72ae573199.png"
      }
    },
    {
      "type": "Feature",
      "geometry": {
        "type": "Point",
        "coordinates": [
          5.72577,
          46.4314
        ]
      },
      "properties": {
        "title": "Rue Roussin",
        "lat": "46.4314",
        "lon": "5.72577",
        "type": "BSB",
        "picture": "https://delivrez.fr/public/posts/img.66b612bbeb051.png"
      }
    },
    {
      "type": "Feature",
      "geometry": {
        "type": "Point",
        "coordinates": [
          6.825504,
          47.526018
        ]
      },
      "properties": {
        "title": "La poste",
        "lat": "47.5260184",
        "lon": "6.8255036",
        "type": "BSB",
        "observation": "ancienne cabine téléphonique"
      }
    },
    {
      "type": "Feature",
      "geometry": {
        "type": "Point",
        "coordinates": [
          5.573061,
          47.021996
        ]
      },
      "properties": {
        "title": "1 Rue de la plaine",
        "lat": "47.021996",
        "lon": "5.5730607",
        "type": "BSB"
      }
    },
    {
      "type": "Feature",
      "geometry": {
        "type": "Point",
        "coordinates": [
          6.186093,
          47.611688
        ]
      },
      "properties": {
        "title": "Place de la mairie",
        "lat": "47.6116881",
        "lon": "6.186093",
        "type": "BSB",
        "picture": "https://delivrez.fr/public/posts/img.66ab26b1e5d1d.png"
      }
    },
    {
      "type": "Feature",
      "geometry": {
        "type": "Point",
        "coordinates": [
          6.127576,
          47.65208
        ]
      },
      "properties": {
        "title": "Place Charles de Gaulle",
        "lat": "47.6520801",
        "lon": "6.1275759",
        "type": "BSB",
        "picture": "https://delivrez.fr/public/posts/img.66a9d3f03f4cd.png"
      }
    },
    {
      "type": "Feature",
      "geometry": {
        "type": "Point",
        "coordinates": [
          6.17081,
          47.624863
        ]
      },
      "properties": {
        "title": "Boulevard Kennedy",
        "lat": "47.624863",
        "lon": "6.1708097",
        "type": "BSB",
        "observation": "dans la galerie marchande",
        "picture": "https://delivrez.fr/public/posts/img.66a7a2ecad504.png"
      }
    },
    {
      "type": "Feature",
      "geometry": {
        "type": "Point",
        "coordinates": [
          5.038536,
          47.330198
        ]
      },
      "properties": {
        "title": "Rue de Jouvence",
        "lat": "47.3301982",
        "lon": "5.0385363",
        "type": "BSB",
        "observation": "dans la cour de l'église",
        "picture": "https://delivrez.fr/public/posts/img.66a7775f09210.png"
      }
    },
    {
      "type": "Feature",
      "geometry": {
        "type": "Point",
        "coordinates": [
          5.051795,
          47.335966
        ]
      },
      "properties": {
        "title": "square Général Giraud",
        "lat": "47.3359658",
        "lon": "5.0517949",
        "type": "BSB",
        "picture": "https://delivrez.fr/public/posts/img.66a773a6bb664.png"
      }
    },
    {
      "type": "Feature",
      "geometry": {
        "type": "Point",
        "coordinates": [
          3.484156,
          46.749193
        ]
      },
      "properties": {
        "title": "Route de Decize",
        "lat": "46.7491935",
        "lon": "3.4841561",
        "type": "BSB",
        "observation": "à côté de France services",
        "picture": "https://delivrez.fr/public/posts/img.669f58797286f.png"
      }
    },
    {
      "type": "Feature",
      "geometry": {
        "type": "Point",
        "coordinates": [
          4.118157,
          46.450988
        ]
      },
      "properties": {
        "title": "Rue de la poste",
        "lat": "46.4509881",
        "lon": "4.1181569",
        "type": "BSB",
        "observation": "à côté de la poste",
        "picture": "https://delivrez.fr/public/posts/img.66964422e0ad2.png"
      }
    },
    {
      "type": "Feature",
      "geometry": {
        "type": "Point",
        "coordinates": [
          4.661767,
          46.437958
        ]
      },
      "properties": {
        "title": "entre le parking du Prado et l hôtel Cluny Séjour",
        "lat": "46.4379581",
        "lon": "4.6617668",
        "type": "BSB",
        "picture": "https://delivrez.fr/public/posts/img.6692d18eb61f5.png"
      }
    },
    {
      "type": "Feature",
      "geometry": {
        "type": "Point",
        "coordinates": [
          4.162081,
          46.507703
        ]
      },
      "properties": {
        "title": "Aire de jeux du Monastir",
        "lat": "46.5077033",
        "lon": "4.1620805",
        "type": "BSB"
      }
    },
    {
      "type": "Feature",
      "geometry": {
        "type": "Point",
        "coordinates": [
          3.914059,
          47.47997
        ]
      },
      "properties": {
        "title": "Rue sous Roche",
        "lat": "47.4799704",
        "lon": "3.9140586",
        "type": "BSB",
        "observation": "à l'intérieur du camping",
        "picture": "https://delivrez.fr/public/posts/img.668fafe1cb6b4.png"
      }
    },
    {
      "type": "Feature",
      "geometry": {
        "type": "Point",
        "coordinates": [
          3.520827,
          47.459553
        ]
      },
      "properties": {
        "title": "boîte à livres",
        "lat": "47.4595529",
        "lon": "3.5208266",
        "type": "BSB",
        "observation": "vers l'arrêt de bus au rond -point",
        "picture": "https://delivrez.fr/public/posts/img.66827ac9cf5cd.png"
      }
    },
    {
      "type": "Feature",
      "geometry": {
        "type": "Point",
        "coordinates": [
          5.683382,
          46.859955
        ]
      },
      "properties": {
        "title": "tourmont",
        "lat": "46.859955",
        "lon": "5.6833817",
        "type": "BSB",
        "picture": "https://delivrez.fr/public/posts/img.663e024563bcf.png"
      }
    },
    {
      "type": "Feature",
      "geometry": {
        "type": "Point",
        "coordinates": [
          5.310096,
          46.60093
        ]
      },
      "properties": {
        "title": "Place du 8 Mai 1945",
        "lat": "46.6009302",
        "lon": "5.3100961",
        "type": "BSB",
        "observation": "sur la place devant la salle des fetes",
        "picture": "https://delivrez.fr/public/posts/img.665a089559473.png"
      }
    },
    {
      "type": "Feature",
      "geometry": {
        "type": "Point",
        "coordinates": [
          3.420252,
          47.5475
        ]
      },
      "properties": {
        "title": "Le Village",
        "lat": "47.5475002",
        "lon": "3.4202524",
        "type": "BSB",
        "picture": "https://delivrez.fr/public/posts/img.6671821744770.png"
      }
    },
    {
      "type": "Feature",
      "geometry": {
        "type": "Point",
        "coordinates": [
          3.42454,
          47.550506
        ]
      },
      "properties": {
        "title": "Rue des Granges",
        "lat": "47.5505062",
        "lon": "3.42454",
        "type": "BSB",
        "picture": "https://delivrez.fr/public/posts/img.66715c2d1607a.png"
      }
    },
    {
      "type": "Feature",
      "geometry": {
        "type": "Point",
        "coordinates": [
          6.772743,
          47.384785
        ]
      },
      "properties": {
        "title": "Rue du Général Herr",
        "lat": "47.3847846",
        "lon": "6.7727427",
        "type": "BSB",
        "picture": "https://delivrez.fr/public/posts/img.6669a711159ae.png"
      }
    },
    {
      "type": "Feature",
      "geometry": {
        "type": "Point",
        "coordinates": [
          5.554185,
          46.615918
        ]
      },
      "properties": {
        "title": "Rue Saint-Néron",
        "lat": "46.6159178",
        "lon": "5.5541847",
        "type": "BSB",
        "observation": "sous l'abri bus",
        "picture": "https://delivrez.fr/public/posts/img.66671bc9e1cfb.png"
      }
    },
    {
      "type": "Feature",
      "geometry": {
        "type": "Point",
        "coordinates": [
          5.642418,
          46.633148
        ]
      },
      "properties": {
        "title": "Rue des 3 Fontaines",
        "lat": "46.6331483",
        "lon": "5.6424183",
        "type": "BSB",
        "observation": "sous l'abri bus",
        "picture": "https://delivrez.fr/public/posts/img.6667265f5a6c9.png"
      }
    },
    {
      "type": "Feature",
      "geometry": {
        "type": "Point",
        "coordinates": [
          4.357401,
          46.836687
        ]
      },
      "properties": {
        "title": "Allée du Pommier",
        "lat": "46.8366869",
        "lon": "4.3574007",
        "type": "BSB",
        "observation": "a côté de la maison de santé",
        "picture": "https://delivrez.fr/public/posts/img.6665b5675fbe1.png"
      }
    },
    {
      "type": "Feature",
      "geometry": {
        "type": "Point",
        "coordinates": [
          6.497109,
          47.393384
        ]
      },
      "properties": {
        "title": "Rue Porte des Noyes",
        "lat": "47.3933843",
        "lon": "6.4971093",
        "type": "BSB",
        "picture": "https://delivrez.fr/public/posts/img.66646c2d725fa.png"
      }
    },
    {
      "type": "Feature",
      "geometry": {
        "type": "Point",
        "coordinates": [
          4.477499,
          46.630075
        ]
      },
      "properties": {
        "title": "Rue du Château Thesut",
        "lat": "46.6300754",
        "lon": "4.4774991",
        "type": "BSB",
        "observation": "petite cabane face parking de la maison de retraite"
      }
    },
    {
      "type": "Feature",
      "geometry": {
        "type": "Point",
        "coordinates": [
          6.354677,
          47.480177
        ]
      },
      "properties": {
        "title": "Place du Marché",
        "lat": "47.480177",
        "lon": "6.3546766",
        "type": "BSB",
        "picture": "https://delivrez.fr/public/posts/img.6661ae5a98cc8.png"
      }
    },
    {
      "type": "Feature",
      "geometry": {
        "type": "Point",
        "coordinates": [
          6.562474,
          47.841434
        ]
      },
      "properties": {
        "title": "Rue de Mollans",
        "lat": "47.8414336",
        "lon": "6.5624743",
        "type": "BSB",
        "picture": "https://delivrez.fr/public/posts/img.665dcb1f98aab.png"
      }
    },
    {
      "type": "Feature",
      "geometry": {
        "type": "Point",
        "coordinates": [
          5.47349,
          46.605934
        ]
      },
      "properties": {
        "title": "Quartier au Tilleul",
        "lat": "46.605934",
        "lon": "5.4734904",
        "type": "BSB"
      }
    },
    {
      "type": "Feature",
      "geometry": {
        "type": "Point",
        "coordinates": [
          5.79542,
          46.718659
        ]
      },
      "properties": {
        "title": "Rue du Bas du Village",
        "lat": "46.7186591",
        "lon": "5.7954199",
        "type": "BSB",
        "observation": "sur l'ancienne bascule",
        "picture": "https://delivrez.fr/public/posts/img.663e2da2b1ae8.png"
      }
    },
    {
      "type": "Feature",
      "geometry": {
        "type": "Point",
        "coordinates": [
          5.534134,
          46.268911
        ]
      },
      "properties": {
        "title": "Rue du 19 Mars 1962",
        "lat": "46.2689112",
        "lon": "5.5341341",
        "type": "BSB",
        "observation": "sur le parking de la maison de santé",
        "picture": "https://delivrez.fr/public/posts/img.663ccab195766.png"
      }
    },
    {
      "type": "Feature",
      "geometry": {
        "type": "Point",
        "coordinates": [
          3.690594,
          47.682791
        ]
      },
      "properties": {
        "title": "Rue d'Orléans",
        "lat": "47.6827909",
        "lon": "3.6905939",
        "type": "BSB",
        "observation": "vers la fontaine",
        "picture": "https://delivrez.fr/public/posts/img.66323d937a861.png"
      }
    },
    {
      "type": "Feature",
      "geometry": {
        "type": "Point",
        "coordinates": [
          5.046384,
          47.332215
        ]
      },
      "properties": {
        "title": "Parc Heudelet",
        "lat": "47.3322155",
        "lon": "5.0463837",
        "type": "BSB",
        "picture": "https://delivrez.fr/public/posts/img.662be6cd4b408.png"
      }
    },
    {
      "type": "Feature",
      "geometry": {
        "type": "Point",
        "coordinates": [
          6.881669,
          47.246112
        ]
      },
      "properties": {
        "title": "Rue du Général de Gaulle",
        "lat": "47.2461118",
        "lon": "6.881669",
        "type": "BSB",
        "observation": "sur la Façade ancienne poste",
        "picture": "https://delivrez.fr/public/posts/img.660c2f3778b3e.png"
      }
    },
    {
      "type": "Feature",
      "geometry": {
        "type": "Point",
        "coordinates": [
          3.582525,
          47.52496
        ]
      },
      "properties": {
        "title": "Rue basse",
        "lat": "47.5249599",
        "lon": "3.5825252",
        "type": "BSB",
        "observation": "vers le canal",
        "picture": "https://delivrez.fr/public/posts/img.65feea81d2e54.png"
      }
    },
    {
      "type": "Feature",
      "geometry": {
        "type": "Point",
        "coordinates": [
          5.437395,
          46.575772
        ]
      },
      "properties": {
        "title": "Route nationale",
        "lat": "46.5757722",
        "lon": "5.4373954",
        "type": "BSB",
        "observation": "en face le magasin oxygène aquarium",
        "picture": "https://delivrez.fr/public/posts/img.65e5c80161e32.png"
      }
    },
    {
      "type": "Feature",
      "geometry": {
        "type": "Point",
        "coordinates": [
          5.422336,
          46.566258
        ]
      },
      "properties": {
        "title": "maynal",
        "lat": "46.5662581",
        "lon": "5.4223356",
        "type": "BSB",
        "observation": "sur la place du village",
        "picture": "https://delivrez.fr/public/posts/img.65d22c82e8895.png"
      }
    },
    {
      "type": "Feature",
      "geometry": {
        "type": "Point",
        "coordinates": [
          4.437069,
          46.825264
        ]
      },
      "properties": {
        "title": "NATHOU iSSY ALVi",
        "lat": "46.8252641",
        "lon": "4.4370691",
        "type": "BSB",
        "picture": "https://delivrez.fr/public/posts/img.65d5f8af8b842.png"
      }
    },
    {
      "type": "Feature",
      "geometry": {
        "type": "Point",
        "coordinates": [
          4.742388,
          46.280323
        ]
      },
      "properties": {
        "title": "Rue du Bourg",
        "lat": "46.2803233",
        "lon": "4.7423885",
        "type": "BSB",
        "observation": "A côté de la mairie",
        "picture": "https://delivrez.fr/public/posts/img.65d35d2066881.png"
      }
    },
    {
      "type": "Feature",
      "geometry": {
        "type": "Point",
        "coordinates": [
          5.438221,
          46.574359
        ]
      },
      "properties": {
        "title": "Grande Rue",
        "lat": "46.5743591",
        "lon": "5.4382209",
        "type": "BSB",
        "picture": "https://delivrez.fr/public/posts/img.65d340aff17f6.png"
      }
    },
    {
      "type": "Feature",
      "geometry": {
        "type": "Point",
        "coordinates": [
          5.041923,
          47.32221
        ]
      },
      "properties": {
        "title": "Place des Ducs de Bourgogne",
        "lat": "47.3222097",
        "lon": "5.0419225",
        "type": "BSB",
        "picture": "https://delivrez.fr/public/posts/img.65bb7dba810cd.png"
      }
    },
    {
      "type": "Feature",
      "geometry": {
        "type": "Point",
        "coordinates": [
          5.449763,
          46.581066
        ]
      },
      "properties": {
        "title": "Route de Beaufort",
        "lat": "46.5810655",
        "lon": "5.4497632",
        "type": "BSB",
        "observation": "sous l'abri bus au croisement rue du faubourg / rue du lavoir",
        "picture": "https://delivrez.fr/public/posts/img.65882718114e8.png"
      }
    },
    {
      "type": "Feature",
      "geometry": {
        "type": "Point",
        "coordinates": [
          5.392734,
          46.516287
        ]
      },
      "properties": {
        "title": "Route de Chevreaux à Digna",
        "lat": "46.5162874",
        "lon": "5.3927337",
        "type": "BSB",
        "observation": "sous abri bus devant la mairie",
        "picture": "https://delivrez.fr/public/posts/img.65858a2f98be6.png"
      }
    },
    {
      "type": "Feature",
      "geometry": {
        "type": "Point",
        "coordinates": [
          5.837358,
          47.298644
        ]
      },
      "properties": {
        "title": "Grande Rue",
        "lat": "47.298644",
        "lon": "5.8373583",
        "type": "BSB",
        "observation": "mairie",
        "picture": "https://delivrez.fr/public/posts/img.6565a960a75d7.png"
      }
    },
    {
      "type": "Feature",
      "geometry": {
        "type": "Point",
        "coordinates": [
          5.717342,
          46.868233
        ]
      },
      "properties": {
        "title": "Rue Saint-Vernier",
        "lat": "46.868233",
        "lon": "5.7173418",
        "type": "BSB"
      }
    },
    {
      "type": "Feature",
      "geometry": {
        "type": "Point",
        "coordinates": [
          3.076342,
          46.755935
        ]
      },
      "properties": {
        "title": "Route de Riousse",
        "lat": "46.7559354",
        "lon": "3.0763417",
        "type": "BSB",
        "observation": "carrefour route de Saint pierre et Livry. A droite en arrivant",
        "picture": "https://delivrez.fr/public/posts/img.6555e31d228f0.png"
      }
    },
    {
      "type": "Feature",
      "geometry": {
        "type": "Point",
        "coordinates": [
          5.372253,
          46.958229
        ]
      },
      "properties": {
        "title": "Longwy-sur-le-Doubs",
        "lat": "46.9582291",
        "lon": "5.3722529",
        "type": "BSB",
        "observation": "étagère dans le loggia proche du parking"
      }
    },
    {
      "type": "Feature",
      "geometry": {
        "type": "Point",
        "coordinates": [
          3.229718,
          46.786357
        ]
      },
      "properties": {
        "title": "Le Bourg",
        "lat": "46.7863571",
        "lon": "3.229718",
        "type": "BSB",
        "observation": "place de l'église.  vers boite à lettres",
        "picture": "https://delivrez.fr/public/posts/img.6548c48e087f7.png"
      }
    },
    {
      "type": "Feature",
      "geometry": {
        "type": "Point",
        "coordinates": [
          3.183157,
          46.733596
        ]
      },
      "properties": {
        "title": "Place de l'Église",
        "lat": "46.7335964",
        "lon": "3.1831572",
        "type": "BSB",
        "picture": "https://delivrez.fr/public/posts/img.6548bc9119f45.png"
      }
    },
    {
      "type": "Feature",
      "geometry": {
        "type": "Point",
        "coordinates": [
          3.176051,
          46.733719
        ]
      },
      "properties": {
        "title": "Rue de l'Étang",
        "lat": "46.7337194",
        "lon": "3.1760511",
        "type": "BSB",
        "picture": "https://delivrez.fr/public/posts/img.6548b6f79454a.png"
      }
    },
    {
      "type": "Feature",
      "geometry": {
        "type": "Point",
        "coordinates": [
          5.60348,
          46.772694
        ]
      },
      "properties": {
        "title": "Chemin de Cuyart",
        "lat": "46.7726936",
        "lon": "5.6034799",
        "type": "BSB",
        "picture": "https://delivrez.fr/public/posts/img.65463c66dd3ed.png"
      }
    },
    {
      "type": "Feature",
      "geometry": {
        "type": "Point",
        "coordinates": [
          5.682229,
          46.653578
        ]
      },
      "properties": {
        "title": "Route des Marronniers",
        "lat": "46.6535779",
        "lon": "5.6822293",
        "type": "BSB",
        "observation": "devant la mairie"
      }
    },
    {
      "type": "Feature",
      "geometry": {
        "type": "Point",
        "coordinates": [
          3.588939,
          47.82584
        ]
      },
      "properties": {
        "title": "Rue des Écoles",
        "lat": "47.8258398",
        "lon": "3.5889394",
        "type": "BSB",
        "observation": "vers la mairie",
        "picture": "https://delivrez.fr/public/posts/img.652ff97408f9e.png"
      }
    },
    {
      "type": "Feature",
      "geometry": {
        "type": "Point",
        "coordinates": [
          4.447335,
          46.641665
        ]
      },
      "properties": {
        "title": "Boîte à livres",
        "lat": "46.641665",
        "lon": "4.4473349",
        "type": "BSB",
        "observation": "derrière l'église",
        "picture": "https://delivrez.fr/public/posts/img.652e6feca4df2.png"
      }
    },
    {
      "type": "Feature",
      "geometry": {
        "type": "Point",
        "coordinates": [
          4.234864,
          47.014399
        ]
      },
      "properties": {
        "title": "Bibliothèque de Rue",
        "lat": "47.0143987",
        "lon": "4.2348637",
        "type": "BSB",
        "observation": "Grand Frigo, assez plein mais un peu sale.",
        "picture": "https://delivrez.fr/public/posts/img.6526ce1d3f231.png"
      }
    },
    {
      "type": "Feature",
      "geometry": {
        "type": "Point",
        "coordinates": [
          6.933794,
          47.700413
        ]
      },
      "properties": {
        "title": "Impasse des Fleurs",
        "lat": "47.7004134",
        "lon": "6.9337938",
        "type": "BSB",
        "observation": "derrière l arrêt de bus",
        "picture": "https://delivrez.fr/public/posts/img.651d771d87f16.png"
      }
    },
    {
      "type": "Feature",
      "geometry": {
        "type": "Point",
        "coordinates": [
          4.313476,
          46.942027
        ]
      },
      "properties": {
        "title": "Chemin de la Cascade",
        "lat": "46.942027",
        "lon": "4.3134764",
        "type": "BSB",
        "picture": "https://delivrez.fr/public/posts/img.652174ebcd0bc.png"
      }
    },
    {
      "type": "Feature",
      "geometry": {
        "type": "Point",
        "coordinates": [
          6.958856,
          47.698991
        ]
      },
      "properties": {
        "title": "Rue Principale",
        "lat": "47.6989907",
        "lon": "6.9588565",
        "type": "BSB",
        "observation": "à  côté de la mairie",
        "picture": "https://delivrez.fr/public/posts/img.651d74f65ef61.png"
      }
    },
    {
      "type": "Feature",
      "geometry": {
        "type": "Point",
        "coordinates": [
          4.579697,
          46.865156
        ]
      },
      "properties": {
        "title": "Rue des Grands Bois",
        "lat": "46.8651556",
        "lon": "4.5796971",
        "type": "BSB",
        "picture": "https://delivrez.fr/public/posts/img.64f0b94930ade.png"
      }
    },
    {
      "type": "Feature",
      "geometry": {
        "type": "Point",
        "coordinates": [
          5.038505,
          47.330668
        ]
      },
      "properties": {
        "title": "Rue de Jouvence",
        "lat": "47.3306676",
        "lon": "5.038505",
        "type": "BSB"
      }
    },
    {
      "type": "Feature",
      "geometry": {
        "type": "Point",
        "coordinates": [
          4.579462,
          46.865024
        ]
      },
      "properties": {
        "title": "Route de Chalencey",
        "lat": "46.8650241",
        "lon": "4.5794617",
        "type": "BSB",
        "picture": "https://delivrez.fr/public/posts/img.64f0b89c8cd79.png"
      }
    },
    {
      "type": "Feature",
      "geometry": {
        "type": "Point",
        "coordinates": [
          5.438637,
          46.572387
        ]
      },
      "properties": {
        "title": "Route d'Augisey",
        "lat": "46.5723872",
        "lon": "5.4386368",
        "type": "BSB",
        "picture": "https://delivrez.fr/public/posts/img.64eb661e0faa5.png"
      }
    },
    {
      "type": "Feature",
      "geometry": {
        "type": "Point",
        "coordinates": [
          4.425357,
          46.79429
        ]
      },
      "properties": {
        "title": "Petite Rue de la Barre",
        "lat": "46.7942901",
        "lon": "4.4253573",
        "type": "BSB",
        "picture": "https://delivrez.fr/public/posts/img.64e9c8e5ac281.png"
      }
    },
    {
      "type": "Feature",
      "geometry": {
        "type": "Point",
        "coordinates": [
          5.77541,
          47.010437
        ]
      },
      "properties": {
        "title": "boîte à livres",
        "lat": "47.0104374",
        "lon": "5.7754102",
        "type": "BSB",
        "picture": "https://delivrez.fr/public/posts/img.64e92dcb228e2.png"
      }
    },
    {
      "type": "Feature",
      "geometry": {
        "type": "Point",
        "coordinates": [
          3.527537,
          47.514595
        ]
      },
      "properties": {
        "title": "Rue Robert Sursin",
        "lat": "47.5145955",
        "lon": "3.527537",
        "type": "BSB",
        "picture": "https://delivrez.fr/public/posts/img.64e8a9fba58e6.png"
      }
    },
    {
      "type": "Feature",
      "geometry": {
        "type": "Point",
        "coordinates": [
          4.465167,
          46.748109
        ]
      },
      "properties": {
        "title": "Rue Lamartine",
        "lat": "46.7481089",
        "lon": "4.4651673",
        "type": "BSB",
        "picture": "https://delivrez.fr/public/posts/img.64e36133090de.png"
      }
    },
    {
      "type": "Feature",
      "geometry": {
        "type": "Point",
        "coordinates": [
          4.482774,
          46.725616
        ]
      },
      "properties": {
        "title": "Route de Chalon",
        "lat": "46.7256164",
        "lon": "4.4827742",
        "type": "BSB",
        "picture": "https://delivrez.fr/public/posts/img.64e35d3057c03.png"
      }
    },
    {
      "type": "Feature",
      "geometry": {
        "type": "Point",
        "coordinates": [
          4.431164,
          46.806772
        ]
      },
      "properties": {
        "title": "Avenue François Mitterrand",
        "lat": "46.8067719",
        "lon": "4.4311641",
        "type": "BSB",
        "picture": "https://delivrez.fr/public/posts/img.64e32190ba0f5.png"
      }
    },
    {
      "type": "Feature",
      "geometry": {
        "type": "Point",
        "coordinates": [
          3.573097,
          47.799547
        ]
      },
      "properties": {
        "title": "Rue Cochois",
        "lat": "47.7995469",
        "lon": "3.5730971",
        "type": "BSB",
        "observation": "boite à livre dans une cabine téléphonique rouge",
        "picture": "https://delivrez.fr/public/posts/img.64e32834d409e.png"
      }
    },
    {
      "type": "Feature",
      "geometry": {
        "type": "Point",
        "coordinates": [
          6.371563,
          47.64965
        ]
      },
      "properties": {
        "title": "boite à livre",
        "lat": "47.6496496",
        "lon": "6.3715627",
        "type": "BSB",
        "observation": "près de l'église",
        "picture": "https://delivrez.fr/public/posts/img.64df3e7374706.png"
      }
    },
    {
      "type": "Feature",
      "geometry": {
        "type": "Point",
        "coordinates": [
          4.827503,
          47.934949
        ]
      },
      "properties": {
        "title": "Grande Rue",
        "lat": "47.9349494",
        "lon": "4.8275033",
        "type": "BSB",
        "observation": "près de l'église",
        "picture": "https://delivrez.fr/public/posts/img.64dce7b25a2f2.png"
      }
    },
    {
      "type": "Feature",
      "geometry": {
        "type": "Point",
        "coordinates": [
          3.131276,
          47.913386
        ]
      },
      "properties": {
        "title": "Route de Chevillon",
        "lat": "47.913386",
        "lon": "3.131276",
        "type": "BSB",
        "observation": "près de la mairie",
        "picture": "https://delivrez.fr/public/posts/img.64dcb17e1db45.png"
      }
    },
    {
      "type": "Feature",
      "geometry": {
        "type": "Point",
        "coordinates": [
          3.513889,
          47.924211
        ]
      },
      "properties": {
        "title": "Place de l'Église",
        "lat": "47.9242105",
        "lon": "3.5138885",
        "type": "BSB",
        "picture": "https://delivrez.fr/public/posts/img.64d91ecc07876.png"
      }
    },
    {
      "type": "Feature",
      "geometry": {
        "type": "Point",
        "coordinates": [
          5.61036,
          46.519951
        ]
      },
      "properties": {
        "title": "Avenue Lacuzon",
        "lat": "46.5199507",
        "lon": "5.6103602",
        "type": "BSB",
        "observation": "se situe dans une petite maisonnette",
        "picture": "https://delivrez.fr/public/posts/img.64d5f11cea478.png"
      }
    },
    {
      "type": "Feature",
      "geometry": {
        "type": "Point",
        "coordinates": [
          5.007611,
          47.324283
        ]
      },
      "properties": {
        "title": "Parking du lac Kir",
        "lat": "47.3242829",
        "lon": "5.0076112",
        "type": "BSB",
        "observation": "_",
        "picture": "https://delivrez.fr/public/posts/img.64c568f26267c.png"
      }
    },
    {
      "type": "Feature",
      "geometry": {
        "type": "Point",
        "coordinates": [
          6.834571,
          47.71622
        ]
      },
      "properties": {
        "title": "Grande Rue",
        "lat": "47.7162199",
        "lon": "6.834571",
        "type": "BSB",
        "observation": "vers l'école",
        "picture": "https://delivrez.fr/public/posts/img.64c91f9b972d1.png"
      }
    },
    {
      "type": "Feature",
      "geometry": {
        "type": "Point",
        "coordinates": [
          4.914968,
          47.083867
        ]
      },
      "properties": {
        "title": "Place de la Mairie",
        "lat": "47.0838668",
        "lon": "4.9149682",
        "type": "BSB",
        "observation": "dans une niche du mur",
        "picture": "https://delivrez.fr/public/posts/img.64c81c69ec1a1.png"
      }
    },
    {
      "type": "Feature",
      "geometry": {
        "type": "Point",
        "coordinates": [
          5.457291,
          46.915156
        ]
      },
      "properties": {
        "title": "Bascule à livres",
        "lat": "46.9151561",
        "lon": "5.4572913",
        "type": "BSB",
        "observation": "Grande cabane plein de livres de poche",
        "picture": "https://delivrez.fr/public/posts/img.64c69f205a9a8.png"
      }
    },
    {
      "type": "Feature",
      "geometry": {
        "type": "Point",
        "coordinates": [
          3.641445,
          47.901041
        ]
      },
      "properties": {
        "title": "Rue de Sévry",
        "lat": "47.9010409",
        "lon": "3.6414454",
        "type": "BSB",
        "observation": "Place Maurice Tremblay",
        "picture": "https://delivrez.fr/public/posts/img.64b82c6438d42.png"
      }
    },
    {
      "type": "Feature",
      "geometry": {
        "type": "Point",
        "coordinates": [
          6.932227,
          47.64566
        ]
      },
      "properties": {
        "title": "Rue des Magnolias",
        "lat": "47.6456595",
        "lon": "6.9322272",
        "type": "BSB",
        "picture": "https://delivrez.fr/public/posts/img.64b3aa959a276.png"
      }
    },
    {
      "type": "Feature",
      "geometry": {
        "type": "Point",
        "coordinates": [
          4.098112,
          47.2754
        ]
      },
      "properties": {
        "title": "Boîte à livres",
        "lat": "47.2753998",
        "lon": "4.0981119",
        "type": "BSB",
        "observation": "Dans le bistrot du Parc à Saint Brisson",
        "picture": "https://delivrez.fr/public/posts/img.64b27b20e065d.png"
      }
    },
    {
      "type": "Feature",
      "geometry": {
        "type": "Point",
        "coordinates": [
          3.859683,
          47.815121
        ]
      },
      "properties": {
        "title": "Route de Mont de Milieu",
        "lat": "47.8151214",
        "lon": "3.8596829",
        "type": "BSB",
        "observation": "dans sortie village",
        "picture": "https://delivrez.fr/public/posts/img.64a6748770265.png"
      }
    },
    {
      "type": "Feature",
      "geometry": {
        "type": "Point",
        "coordinates": [
          4.542613,
          47.26878
        ]
      },
      "properties": {
        "title": "Rue du Sergent Stéphane Mazeau",
        "lat": "47.2687795",
        "lon": "4.5426135",
        "type": "BSB",
        "observation": "sur le terrain de jeu",
        "picture": "https://delivrez.fr/public/posts/img.64a2d99325f21.png"
      }
    },
    {
      "type": "Feature",
      "geometry": {
        "type": "Point",
        "coordinates": [
          4.33906,
          47.637364
        ]
      },
      "properties": {
        "title": "Rue Elsa Triolet",
        "lat": "47.6373642",
        "lon": "4.3390604",
        "type": "BSB",
        "observation": "face gendarmerie",
        "picture": "https://delivrez.fr/public/posts/img.649ff1092d748.png"
      }
    },
    {
      "type": "Feature",
      "geometry": {
        "type": "Point",
        "coordinates": [
          3.10598,
          47.933345
        ]
      },
      "properties": {
        "title": "boite",
        "lat": "47.9333454",
        "lon": "3.1059804",
        "type": "BSB",
        "picture": "https://delivrez.fr/public/posts/img.649ad54128d52.png"
      }
    },
    {
      "type": "Feature",
      "geometry": {
        "type": "Point",
        "coordinates": [
          4.875969,
          47.072258
        ]
      },
      "properties": {
        "title": "Route de Beaune",
        "lat": "47.0722578",
        "lon": "4.8759691",
        "type": "BSB",
        "observation": "à côté de la boulangerie",
        "picture": "https://delivrez.fr/public/posts/img.648d8389f28de.png"
      }
    },
    {
      "type": "Feature",
      "geometry": {
        "type": "Point",
        "coordinates": [
          4.921429,
          47.102266
        ]
      },
      "properties": {
        "title": "Place du 21 Août 1944",
        "lat": "47.1022662",
        "lon": "4.9214287",
        "type": "BSB",
        "observation": "à côté de la mairie",
        "picture": "https://delivrez.fr/public/posts/img.648dbba3e6e8e.png"
      }
    },
    {
      "type": "Feature",
      "geometry": {
        "type": "Point",
        "coordinates": [
          2.934188,
          47.390226
        ]
      },
      "properties": {
        "title": "Centre d'action Sociale Cosne-Cours-sur-Loire",
        "lat": "47.3902256",
        "lon": "2.9341884",
        "type": "BSB",
        "observation": "boîte à livre"
      }
    },
    {
      "type": "Feature",
      "geometry": {
        "type": "Point",
        "coordinates": [
          6.15947,
          46.857303
        ]
      },
      "properties": {
        "title": "Rue de la Gare",
        "lat": "46.8573027",
        "lon": "6.1594702",
        "type": "BSB",
        "observation": "devant l'ecole"
      }
    },
    {
      "type": "Feature",
      "geometry": {
        "type": "Point",
        "coordinates": [
          4.372446,
          47.307529
        ]
      },
      "properties": {
        "title": "Route de Thoisy",
        "lat": "47.3075291",
        "lon": "4.3724465",
        "type": "BSB",
        "observation": "_"
      }
    },
    {
      "type": "Feature",
      "geometry": {
        "type": "Point",
        "coordinates": [
          6.860718,
          47.640426
        ]
      },
      "properties": {
        "title": "Rue du Docteur Frery",
        "lat": "47.6404262",
        "lon": "6.8607185",
        "type": "BSB"
      }
    },
    {
      "type": "Feature",
      "geometry": {
        "type": "Point",
        "coordinates": [
          2.955741,
          47.283936
        ]
      },
      "properties": {
        "title": "Rue Waldeck Rousseau",
        "lat": "47.2839364",
        "lon": "2.9557411",
        "type": "BSB",
        "observation": "dans l impasse de la mairie",
        "picture": "https://delivrez.fr/public/posts/img.6454fe4833975.png"
      }
    },
    {
      "type": "Feature",
      "geometry": {
        "type": "Point",
        "coordinates": [
          3.69193,
          47.384611
        ]
      },
      "properties": {
        "title": "Grande Rue",
        "lat": "47.3846106",
        "lon": "3.6919304",
        "type": "BSB",
        "observation": "direction Église",
        "picture": "https://delivrez.fr/public/posts/img.64511e4cebf90.png"
      }
    },
    {
      "type": "Feature",
      "geometry": {
        "type": "Point",
        "coordinates": [
          5.824138,
          47.001785
        ]
      },
      "properties": {
        "title": "Rue Edgar Faure",
        "lat": "47.0017853",
        "lon": "5.8241376",
        "type": "BSB",
        "observation": "proche mairie"
      }
    },
    {
      "type": "Feature",
      "geometry": {
        "type": "Point",
        "coordinates": [
          5.798245,
          46.976542
        ]
      },
      "properties": {
        "title": "Rue de la République",
        "lat": "46.9765415",
        "lon": "5.7982448",
        "type": "BSB",
        "observation": "cabine en bois au bord de la route"
      }
    },
    {
      "type": "Feature",
      "geometry": {
        "type": "Point",
        "coordinates": [
          6.338005,
          46.777089
        ]
      },
      "properties": {
        "title": "Place de la Mairie",
        "lat": "46.7770889",
        "lon": "6.3380051",
        "type": "BSB",
        "observation": "sous abri bus"
      }
    },
    {
      "type": "Feature",
      "geometry": {
        "type": "Point",
        "coordinates": [
          3.823415,
          47.666797
        ]
      },
      "properties": {
        "title": "Grande Rue",
        "lat": "47.6667972",
        "lon": "3.8234147",
        "type": "BSB",
        "observation": "Sacy",
        "picture": "https://delivrez.fr/public/posts/img.64367f64074a4.png"
      }
    },
    {
      "type": "Feature",
      "geometry": {
        "type": "Point",
        "coordinates": [
          5.180112,
          46.721155
        ]
      },
      "properties": {
        "title": "Route de Mervans",
        "lat": "46.7211546",
        "lon": "5.1801123",
        "type": "BSB",
        "observation": "_",
        "picture": "https://delivrez.fr/public/posts/img.640489e93e6e5.png"
      }
    },
    {
      "type": "Feature",
      "geometry": {
        "type": "Point",
        "coordinates": [
          3.996621,
          47.36922
        ]
      },
      "properties": {
        "title": "Rue du Grand Puits",
        "lat": "47.3692201",
        "lon": "3.9966206",
        "type": "BSB",
        "observation": "A côté de l'office du tourisme",
        "picture": "https://delivrez.fr/public/posts/img.643160a600d69.png"
      }
    },
    {
      "type": "Feature",
      "geometry": {
        "type": "Point",
        "coordinates": [
          5.899832,
          46.637618
        ]
      },
      "properties": {
        "title": "Route des Lacs",
        "lat": "46.6376184",
        "lon": "5.8998319",
        "type": "BSB",
        "observation": "sous l'abri bus"
      }
    },
    {
      "type": "Feature",
      "geometry": {
        "type": "Point",
        "coordinates": [
          6.00444,
          46.780929
        ]
      },
      "properties": {
        "title": "Rue du Mont",
        "lat": "46.7809285",
        "lon": "6.0044402",
        "type": "BSB",
        "observation": "dans un petit cabanon"
      }
    },
    {
      "type": "Feature",
      "geometry": {
        "type": "Point",
        "coordinates": [
          5.780243,
          46.923766
        ]
      },
      "properties": {
        "title": "Au Village",
        "lat": "46.9237658",
        "lon": "5.780243",
        "type": "BSB",
        "observation": "dans le tonneau face à la mairie"
      }
    },
    {
      "type": "Feature",
      "geometry": {
        "type": "Point",
        "coordinates": [
          6.064863,
          46.81488
        ]
      },
      "properties": {
        "title": "Rue du Magasin",
        "lat": "46.81488",
        "lon": "6.0648631",
        "type": "BSB",
        "observation": "contre le mur de la salle des fêtes"
      }
    },
    {
      "type": "Feature",
      "geometry": {
        "type": "Point",
        "coordinates": [
          5.859696,
          47.059127
        ]
      },
      "properties": {
        "title": "Route des Tilleuls",
        "lat": "47.0591267",
        "lon": "5.8596958",
        "type": "BSB",
        "observation": "sous abri communal"
      }
    },
    {
      "type": "Feature",
      "geometry": {
        "type": "Point",
        "coordinates": [
          5.859898,
          47.035509
        ]
      },
      "properties": {
        "title": "Rue Principale",
        "lat": "47.035509",
        "lon": "5.8598977",
        "type": "BSB",
        "observation": "contre l'abri bus"
      }
    },
    {
      "type": "Feature",
      "geometry": {
        "type": "Point",
        "coordinates": [
          5.852525,
          47.012141
        ]
      },
      "properties": {
        "title": "Rue des Murailles Neuves",
        "lat": "47.0121409",
        "lon": "5.8525247",
        "type": "BSB",
        "observation": "sous abri bus"
      }
    },
    {
      "type": "Feature",
      "geometry": {
        "type": "Point",
        "coordinates": [
          3.70072,
          47.896401
        ]
      },
      "properties": {
        "title": "Ferme de Beauvais",
        "lat": "47.8964011",
        "lon": "3.7007198",
        "type": "BSB",
        "observation": "A l'intérieur de la ferme",
        "picture": "https://delivrez.fr/public/posts/img.642286d13c990.png"
      }
    },
    {
      "type": "Feature",
      "geometry": {
        "type": "Point",
        "coordinates": [
          5.46258,
          46.906263
        ]
      },
      "properties": {
        "title": "Rue Potard",
        "lat": "46.9062627",
        "lon": "5.4625804",
        "type": "BSB",
        "observation": "très jolie dans un ancien arrêt de bus"
      }
    },
    {
      "type": "Feature",
      "geometry": {
        "type": "Point",
        "coordinates": [
          3.88642,
          47.534633
        ]
      },
      "properties": {
        "title": "Rue du Bas",
        "lat": "47.5346325",
        "lon": "3.8864195",
        "type": "BSB",
        "observation": "dans le Lavoir",
        "picture": "https://delivrez.fr/public/posts/img.64181db8475c2.png"
      }
    },
    {
      "type": "Feature",
      "geometry": {
        "type": "Point",
        "coordinates": [
          6.861026,
          47.640948
        ]
      },
      "properties": {
        "title": "Rue de la Cavalerie",
        "lat": "47.6409475",
        "lon": "6.8610264",
        "type": "BSB",
        "observation": "dans les halles Frery Belfort",
        "picture": "https://delivrez.fr/public/posts/img.640c2a014f214.png"
      }
    },
    {
      "type": "Feature",
      "geometry": {
        "type": "Point",
        "coordinates": [
          5.180103,
          46.72122
        ]
      },
      "properties": {
        "title": "Route de Mervans",
        "lat": "46.7212203",
        "lon": "5.1801029",
        "type": "BSB",
        "observation": "_"
      }
    },
    {
      "type": "Feature",
      "geometry": {
        "type": "Point",
        "coordinates": [
          5.169853,
          46.819819
        ]
      },
      "properties": {
        "title": "Route de Dijon",
        "lat": "46.8198194",
        "lon": "5.1698527",
        "type": "BSB",
        "observation": "_",
        "picture": "https://delivrez.fr/public/posts/img.63fb6844310ae.png"
      }
    },
    {
      "type": "Feature",
      "geometry": {
        "type": "Point",
        "coordinates": [
          5.267411,
          46.883758
        ]
      },
      "properties": {
        "title": "pierre de bresse",
        "lat": "46.8837578",
        "lon": "5.2674109",
        "type": "BSB",
        "observation": "au pied du château d'eau dans le parc"
      }
    },
    {
      "type": "Feature",
      "geometry": {
        "type": "Point",
        "coordinates": [
          5.565301,
          46.828027
        ]
      },
      "properties": {
        "title": "Rue Jean Moulin",
        "lat": "46.8280272",
        "lon": "5.5653006",
        "type": "BSB",
        "observation": "dans le parc contre un arbre"
      }
    },
    {
      "type": "Feature",
      "geometry": {
        "type": "Point",
        "coordinates": [
          5.052158,
          47.296619
        ]
      },
      "properties": {
        "title": "Rue des Veroniques",
        "lat": "47.2966188",
        "lon": "5.0521577",
        "type": "BSB",
        "observation": "Boîte à livres à côté de la maternelle"
      }
    },
    {
      "type": "Feature",
      "geometry": {
        "type": "Point",
        "coordinates": [
          3.996595,
          47.368257
        ]
      },
      "properties": {
        "title": "Place de l'Église",
        "lat": "47.3682574",
        "lon": "3.9965953",
        "type": "BSB",
        "observation": "vers La Poste",
        "picture": "https://delivrez.fr/public/posts/img.63e37315c6540.png"
      }
    },
    {
      "type": "Feature",
      "geometry": {
        "type": "Point",
        "coordinates": [
          5.601745,
          46.979343
        ]
      },
      "properties": {
        "title": "Rue Jean Bavilley",
        "lat": "46.9793427",
        "lon": "5.6017448",
        "type": "BSB",
        "observation": "sous l'abri de la mairie"
      }
    },
    {
      "type": "Feature",
      "geometry": {
        "type": "Point",
        "coordinates": [
          5.585856,
          46.823405
        ]
      },
      "properties": {
        "title": "Route de Sellières",
        "lat": "46.8234053",
        "lon": "5.5858557",
        "type": "BSB",
        "observation": "sous le lavoir"
      }
    },
    {
      "type": "Feature",
      "geometry": {
        "type": "Point",
        "coordinates": [
          5.35526,
          46.456263
        ]
      },
      "properties": {
        "title": "Route de Saint-Amour",
        "lat": "46.4562629",
        "lon": "5.3552602",
        "type": "BSB",
        "observation": "dans le porche de la mairie"
      }
    },
    {
      "type": "Feature",
      "geometry": {
        "type": "Point",
        "coordinates": [
          5.917211,
          46.725843
        ]
      },
      "properties": {
        "title": "Avenue Etienne Lamy",
        "lat": "46.7258429",
        "lon": "5.9172109",
        "type": "BSB",
        "observation": "sous le lavoir"
      }
    },
    {
      "type": "Feature",
      "geometry": {
        "type": "Point",
        "coordinates": [
          5.460942,
          46.451024
        ]
      },
      "properties": {
        "title": "Le Chapître",
        "lat": "46.4510242",
        "lon": "5.4609421",
        "type": "BSB",
        "observation": "dans la cour d'école derrière la mairie."
      }
    },
    {
      "type": "Feature",
      "geometry": {
        "type": "Point",
        "coordinates": [
          5.462592,
          46.484569
        ]
      },
      "properties": {
        "title": "Rue du four LOISIA",
        "lat": "46.4845687",
        "lon": "5.4625917",
        "type": "BSB",
        "observation": "superbe local de l'ancien four aménagé"
      }
    },
    {
      "type": "Feature",
      "geometry": {
        "type": "Point",
        "coordinates": [
          5.514323,
          46.603825
        ]
      },
      "properties": {
        "title": "Rue du Bourg",
        "lat": "46.6038254",
        "lon": "5.5143235",
        "type": "BSB",
        "observation": "initiative du gîte,  petite boîte deviendra grande !"
      }
    },
    {
      "type": "Feature",
      "geometry": {
        "type": "Point",
        "coordinates": [
          5.415809,
          46.381036
        ]
      },
      "properties": {
        "title": "Route de Villechantria",
        "lat": "46.3810357",
        "lon": "5.4158087",
        "type": "BSB",
        "observation": "sous l'abri bus"
      }
    },
    {
      "type": "Feature",
      "geometry": {
        "type": "Point",
        "coordinates": [
          5.404715,
          46.385651
        ]
      },
      "properties": {
        "title": "Rue des Vignes",
        "lat": "46.3856511",
        "lon": "5.4047152",
        "type": "BSB",
        "observation": "sous un petit hall"
      }
    },
    {
      "type": "Feature",
      "geometry": {
        "type": "Point",
        "coordinates": [
          5.399067,
          46.383313
        ]
      },
      "properties": {
        "title": "Rue de l'Église",
        "lat": "46.3833128",
        "lon": "5.3990673",
        "type": "BSB",
        "observation": "sous abri en bord de route"
      }
    },
    {
      "type": "Feature",
      "geometry": {
        "type": "Point",
        "coordinates": [
          5.391064,
          46.531363
        ]
      },
      "properties": {
        "title": "Grande Rue",
        "lat": "46.531363",
        "lon": "5.3910644",
        "type": "BSB",
        "observation": "dans le hall de la poste"
      }
    },
    {
      "type": "Feature",
      "geometry": {
        "type": "Point",
        "coordinates": [
          5.880725,
          46.707852
        ]
      },
      "properties": {
        "title": "Rue de la Confrérie",
        "lat": "46.7078523",
        "lon": "5.8807253",
        "type": "BSB",
        "observation": "dans l'ancien poids public"
      }
    },
    {
      "type": "Feature",
      "geometry": {
        "type": "Point",
        "coordinates": [
          6.065681,
          46.558284
        ]
      },
      "properties": {
        "title": "Route des Fontaines",
        "lat": "46.5582837",
        "lon": "6.065681",
        "type": "BSB",
        "observation": "sous abri bus"
      }
    },
    {
      "type": "Feature",
      "geometry": {
        "type": "Point",
        "coordinates": [
          6.024018,
          46.529611
        ]
      },
      "properties": {
        "title": "Chemin du Jura",
        "lat": "46.5296106",
        "lon": "6.0240176",
        "type": "BSB",
        "observation": "sur le grand square"
      }
    },
    {
      "type": "Feature",
      "geometry": {
        "type": "Point",
        "coordinates": [
          6.021934,
          46.526812
        ]
      },
      "properties": {
        "title": "Rue de la République",
        "lat": "46.5268117",
        "lon": "6.0219339",
        "type": "BSB",
        "observation": "petite boîte contre abri bus"
      }
    },
    {
      "type": "Feature",
      "geometry": {
        "type": "Point",
        "coordinates": [
          5.574804,
          46.694481
        ]
      },
      "properties": {
        "title": "Grande Rue - chilles",
        "lat": "46.694481",
        "lon": "5.5748045",
        "type": "BSB",
        "observation": "sous le lavoir"
      }
    },
    {
      "type": "Feature",
      "geometry": {
        "type": "Point",
        "coordinates": [
          5.699062,
          46.735286
        ]
      },
      "properties": {
        "title": "Place de l'Église - la Marre",
        "lat": "46.7352861",
        "lon": "5.6990624",
        "type": "BSB",
        "observation": "à côté de l'église sous abri"
      }
    },
    {
      "type": "Feature",
      "geometry": {
        "type": "Point",
        "coordinates": [
          5.392189,
          47.44657
        ]
      },
      "properties": {
        "title": "Rue du Communal",
        "lat": "47.4465695",
        "lon": "5.3921889",
        "type": "BSB",
        "observation": "_"
      }
    },
    {
      "type": "Feature",
      "geometry": {
        "type": "Point",
        "coordinates": [
          5.747519,
          46.579983
        ]
      },
      "properties": {
        "title": "Route de Lons le Saunier",
        "lat": "46.5799832",
        "lon": "5.7475188",
        "type": "BSB",
        "observation": "devant le Bi1"
      }
    },
    {
      "type": "Feature",
      "geometry": {
        "type": "Point",
        "coordinates": [
          5.586744,
          46.556588
        ]
      },
      "properties": {
        "title": "Rue Charnal Presilly",
        "lat": "46.5565876",
        "lon": "5.5867438",
        "type": "BSB",
        "observation": "sous abri bus dans une bibliothèque"
      }
    },
    {
      "type": "Feature",
      "geometry": {
        "type": "Point",
        "coordinates": [
          4.230375,
          47.280457
        ]
      },
      "properties": {
        "title": "Place Monge",
        "lat": "47.2804569",
        "lon": "4.2303746",
        "type": "BSB",
        "observation": "devant espace culturel Claude Sallier",
        "picture": "https://delivrez.fr/public/posts/img.636d05890b701.png"
      }
    },
    {
      "type": "Feature",
      "geometry": {
        "type": "Point",
        "coordinates": [
          3.687362,
          47.534374
        ]
      },
      "properties": {
        "title": "Place des Marronniers",
        "lat": "47.5343737",
        "lon": "3.6873623",
        "type": "BSB",
        "observation": "Chez Jacqueline",
        "picture": "https://delivrez.fr/public/posts/img.635cd67eee2c4.png"
      }
    },
    {
      "type": "Feature",
      "geometry": {
        "type": "Point",
        "coordinates": [
          5.688941,
          46.601184
        ]
      },
      "properties": {
        "title": "Grande Rue",
        "lat": "46.6011838",
        "lon": "5.6889407",
        "type": "BSB",
        "observation": "sous l'abri-bus"
      }
    },
    {
      "type": "Feature",
      "geometry": {
        "type": "Point",
        "coordinates": [
          5.648262,
          46.665662
        ]
      },
      "properties": {
        "title": "Rue du Saugeois",
        "lat": "46.6656618",
        "lon": "5.648262",
        "type": "BSB",
        "observation": "sous l'abri-bus"
      }
    },
    {
      "type": "Feature",
      "geometry": {
        "type": "Point",
        "coordinates": [
          5.661099,
          46.687658
        ]
      },
      "properties": {
        "title": "Rue de la Carrière",
        "lat": "46.6876576",
        "lon": "5.6610993",
        "type": "BSB",
        "observation": "au bord du magasin VIVAL"
      }
    },
    {
      "type": "Feature",
      "geometry": {
        "type": "Point",
        "coordinates": [
          5.596118,
          46.717065
        ]
      },
      "properties": {
        "title": "Place du 8 Mai 1945",
        "lat": "46.7170653",
        "lon": "5.5961176",
        "type": "BSB",
        "observation": "sous le lavoir"
      }
    },
    {
      "type": "Feature",
      "geometry": {
        "type": "Point",
        "coordinates": [
          5.582762,
          46.730017
        ]
      },
      "properties": {
        "title": "Rue du Quart d'Avaud",
        "lat": "46.7300166",
        "lon": "5.5827622",
        "type": "BSB",
        "observation": "sous l'abri-bus"
      }
    },
    {
      "type": "Feature",
      "geometry": {
        "type": "Point",
        "coordinates": [
          5.597277,
          46.763161
        ]
      },
      "properties": {
        "title": "Rue Marius Buisson",
        "lat": "46.7631608",
        "lon": "5.5972768",
        "type": "BSB",
        "observation": "dans une boîte sur des tonneaux au bord du parc"
      }
    },
    {
      "type": "Feature",
      "geometry": {
        "type": "Point",
        "coordinates": [
          5.579181,
          46.782573
        ]
      },
      "properties": {
        "title": "Grande Rue",
        "lat": "46.7825729",
        "lon": "5.5791813",
        "type": "BSB",
        "observation": "à Brery sur la façade de la mairie"
      }
    },
    {
      "type": "Feature",
      "geometry": {
        "type": "Point",
        "coordinates": [
          5.642074,
          46.597966
        ]
      },
      "properties": {
        "title": "Rue du Faubourg",
        "lat": "46.5979657",
        "lon": "5.6420745",
        "type": "BSB",
        "observation": "jolie boîte sur pilotis, près d'un abri bus"
      }
    },
    {
      "type": "Feature",
      "geometry": {
        "type": "Point",
        "coordinates": [
          5.568275,
          46.658731
        ]
      },
      "properties": {
        "title": "Rue du Petit Bourg",
        "lat": "46.658731",
        "lon": "5.5682747",
        "type": "BSB",
        "observation": "dans le parking de la salle des fêtes, petite boîte contre un mur"
      }
    },
    {
      "type": "Feature",
      "geometry": {
        "type": "Point",
        "coordinates": [
          5.530304,
          46.653646
        ]
      },
      "properties": {
        "title": "Route de Beauregard",
        "lat": "46.6536464",
        "lon": "5.5303041",
        "type": "BSB",
        "observation": "dans un réfrigérateur devant GRIGRI technique"
      }
    },
    {
      "type": "Feature",
      "geometry": {
        "type": "Point",
        "coordinates": [
          5.464589,
          46.737008
        ]
      },
      "properties": {
        "title": "Rue nationale",
        "lat": "46.737008",
        "lon": "5.4645886",
        "type": "BSB",
        "observation": "ville vieux, jolie armoire rouge sous auvent au centre de la place"
      }
    },
    {
      "type": "Feature",
      "geometry": {
        "type": "Point",
        "coordinates": [
          5.748578,
          46.631585
        ]
      },
      "properties": {
        "title": "La Côte",
        "lat": "46.6315845",
        "lon": "5.7485779",
        "type": "BSB",
        "observation": "sous l'abri bus"
      }
    },
    {
      "type": "Feature",
      "geometry": {
        "type": "Point",
        "coordinates": [
          5.782898,
          46.682337
        ]
      },
      "properties": {
        "title": "Rue des Vanniers",
        "lat": "46.6823373",
        "lon": "5.7828977",
        "type": "BSB",
        "observation": "sous l'abri bus"
      }
    },
    {
      "type": "Feature",
      "geometry": {
        "type": "Point",
        "coordinates": [
          5.710067,
          46.548952
        ]
      },
      "properties": {
        "title": "Rue de l'Église",
        "lat": "46.5489515",
        "lon": "5.7100672",
        "type": "BSB",
        "observation": "sous la petite cabane dans le parc derrière l'église"
      }
    },
    {
      "type": "Feature",
      "geometry": {
        "type": "Point",
        "coordinates": [
          5.728573,
          46.610738
        ]
      },
      "properties": {
        "title": "Rue de la Sirène",
        "lat": "46.6107384",
        "lon": "5.7285734",
        "type": "BSB",
        "observation": "face à la mairie sous l'abri"
      }
    },
    {
      "type": "Feature",
      "geometry": {
        "type": "Point",
        "coordinates": [
          5.741671,
          46.596079
        ]
      },
      "properties": {
        "title": "Rue des Fontaines",
        "lat": "46.5960788",
        "lon": "5.7416713",
        "type": "BSB",
        "observation": "sous l'abri bus"
      }
    },
    {
      "type": "Feature",
      "geometry": {
        "type": "Point",
        "coordinates": [
          5.59783,
          46.697937
        ]
      },
      "properties": {
        "title": "Rue de l'Église",
        "lat": "46.6979369",
        "lon": "5.5978303",
        "type": "BSB",
        "observation": "belle armoire sous abri vers local transformateur"
      }
    },
    {
      "type": "Feature",
      "geometry": {
        "type": "Point",
        "coordinates": [
          5.454013,
          46.393892
        ]
      },
      "properties": {
        "title": "Place de la Mairie",
        "lat": "46.393892",
        "lon": "5.4540126",
        "type": "BSB",
        "observation": "sous le porche de la maison à l'opposé de la cour"
      }
    },
    {
      "type": "Feature",
      "geometry": {
        "type": "Point",
        "coordinates": [
          5.661704,
          46.552196
        ]
      },
      "properties": {
        "title": "Rue Principale",
        "lat": "46.5521957",
        "lon": "5.661704",
        "type": "BSB",
        "observation": "sous l'abri bus"
      }
    },
    {
      "type": "Feature",
      "geometry": {
        "type": "Point",
        "coordinates": [
          5.810629,
          46.557305
        ]
      },
      "properties": {
        "title": "Curtil de la Rivière - la Frasnee",
        "lat": "46.5573055",
        "lon": "5.810629",
        "type": "BSB",
        "observation": "sous le Lavoir"
      }
    },
    {
      "type": "Feature",
      "geometry": {
        "type": "Point",
        "coordinates": [
          5.802967,
          46.573775
        ]
      },
      "properties": {
        "title": "Rue sous la Vierge",
        "lat": "46.5737746",
        "lon": "5.8029672",
        "type": "BSB",
        "observation": "sous l'abri-bus"
      }
    },
    {
      "type": "Feature",
      "geometry": {
        "type": "Point",
        "coordinates": [
          5.911616,
          46.730306
        ]
      },
      "properties": {
        "title": "Avenue Etienne Lamy",
        "lat": "46.7303062",
        "lon": "5.9116156",
        "type": "BSB",
        "observation": "près de l'ecole"
      }
    },
    {
      "type": "Feature",
      "geometry": {
        "type": "Point",
        "coordinates": [
          6.030502,
          46.636858
        ]
      },
      "properties": {
        "title": "Route nationale",
        "lat": "46.6368582",
        "lon": "6.0305016",
        "type": "BSB",
        "observation": "dans le hall de la salle polyvalente"
      }
    },
    {
      "type": "Feature",
      "geometry": {
        "type": "Point",
        "coordinates": [
          5.920925,
          46.570223
        ]
      },
      "properties": {
        "title": "Grande Rue",
        "lat": "46.5702228",
        "lon": "5.9209253",
        "type": "BSB",
        "observation": "contre le mur de la mairie"
      }
    },
    {
      "type": "Feature",
      "geometry": {
        "type": "Point",
        "coordinates": [
          5.79378,
          46.507339
        ]
      },
      "properties": {
        "title": "Route de Clairvaux",
        "lat": "46.5073393",
        "lon": "5.7937796",
        "type": "BSB",
        "observation": "ancienne cabine téléphonique"
      }
    },
    {
      "type": "Feature",
      "geometry": {
        "type": "Point",
        "coordinates": [
          5.696609,
          46.585743
        ]
      },
      "properties": {
        "title": "Grande Rue",
        "lat": "46.5857432",
        "lon": "5.6966094",
        "type": "BSB",
        "observation": "jolie bibliothèque colorée et bien abritée sous un auvent à côté de la mairie"
      }
    },
    {
      "type": "Feature",
      "geometry": {
        "type": "Point",
        "coordinates": [
          5.522486,
          46.662367
        ]
      },
      "properties": {
        "title": "Rue Aimé Berthod",
        "lat": "46.6623668",
        "lon": "5.522486",
        "type": "BSB",
        "observation": "dans une cabine téléphonique superbement colorée"
      }
    },
    {
      "type": "Feature",
      "geometry": {
        "type": "Point",
        "coordinates": [
          5.51302,
          46.662906
        ]
      },
      "properties": {
        "title": "Route de Chilly",
        "lat": "46.6629055",
        "lon": "5.5130197",
        "type": "BSB",
        "observation": "sous l'abri-bus"
      }
    },
    {
      "type": "Feature",
      "geometry": {
        "type": "Point",
        "coordinates": [
          5.519593,
          46.664233
        ]
      },
      "properties": {
        "title": "Route de Chilly",
        "lat": "46.6642328",
        "lon": "5.5195934",
        "type": "BSB",
        "observation": "sous l'abri bus"
      }
    },
    {
      "type": "Feature",
      "geometry": {
        "type": "Point",
        "coordinates": [
          5.516604,
          46.659282
        ]
      },
      "properties": {
        "title": "Rue Emmanuel Vauchez",
        "lat": "46.6592819",
        "lon": "5.5166036",
        "type": "BSB",
        "observation": "dans l'abri-bus"
      }
    },
    {
      "type": "Feature",
      "geometry": {
        "type": "Point",
        "coordinates": [
          4.848742,
          47.032257
        ]
      },
      "properties": {
        "title": "Route de Gigny",
        "lat": "47.0322573",
        "lon": "4.8487424",
        "type": "BSB",
        "observation": "au pied de la résidence primev?res"
      }
    },
    {
      "type": "Feature",
      "geometry": {
        "type": "Point",
        "coordinates": [
          6.705646,
          47.580743
        ]
      },
      "properties": {
        "title": "Rue du Moulin",
        "lat": "47.5807435",
        "lon": "6.7056457",
        "type": "BSB",
        "observation": "à côté de la mairie",
        "picture": "https://delivrez.fr/public/posts/img.632b0e9d13a8c.png"
      }
    },
    {
      "type": "Feature",
      "geometry": {
        "type": "Point",
        "coordinates": [
          3.086802,
          47.018838
        ]
      },
      "properties": {
        "title": "Place de la Gare",
        "lat": "47.0188378",
        "lon": "3.0868018",
        "type": "BSB",
        "observation": "_",
        "picture": "https://delivrez.fr/public/posts/img.631f10b1280ac.png"
      }
    },
    {
      "type": "Feature",
      "geometry": {
        "type": "Point",
        "coordinates": [
          3.083476,
          47.014641
        ]
      },
      "properties": {
        "title": "Place de L’Eglise",
        "lat": "47.0146414",
        "lon": "3.0834764",
        "type": "BSB",
        "observation": "face à la pharmacie@@__"
      }
    },
    {
      "type": "Feature",
      "geometry": {
        "type": "Point",
        "coordinates": [
          5.022112,
          47.340848
        ]
      },
      "properties": {
        "title": "Rue Général de Gaulle",
        "lat": "47.3408481",
        "lon": "5.0221117",
        "type": "BSB",
        "observation": "à côté de la salle Pierre Jacques"
      }
    },
    {
      "type": "Feature",
      "geometry": {
        "type": "Point",
        "coordinates": [
          3.082737,
          47.014739
        ]
      },
      "properties": {
        "title": "Rue Gambetta",
        "lat": "47.0147391",
        "lon": "3.0827367",
        "type": "BSB",
        "observation": "_",
        "picture": "https://delivrez.fr/public/posts/img.631c9dbb679c3.png"
      }
    },
    {
      "type": "Feature",
      "geometry": {
        "type": "Point",
        "coordinates": [
          6.746202,
          47.659512
        ]
      },