<?xml version='1.0' encoding='UTF-8' standalone='yes' ?>
<gpx version="1.1" creator="Binnette" xmlns="http://www.topografix.com/GPX/1/1" xmlns:osmand="https://osmand.net" xmlns:xsi="http://www.w3.org/2001/XMLSchema-instance" xsi:schemaLocation="http://www.topografix.com/GPX/1/1 http://www.topografix.com/GPX/1/1/gpx.xsd">
  <wpt lat="47.546088" lon="-2.913279">
    <name>Chemin du Petit Mousse</name>
    <desc>dans le parc@@__</desc>
    <type>Delivrez bookcases</type>
    <extensions>
      <osmand:color>#ff5020</osmand:color>
      <osmand:background>square</osmand:background>
      <osmand:icon>public_bookcase</osmand:icon>
    </extensions>
  </wpt>
  <wpt lat="47.982902" lon="-4.109003">
    <name>galerie carrefour</name>
    <desc></desc>
    <type>Delivrez bookcases</type>
    <extensions>
      <osmand:color>#ff5020</osmand:color>
      <osmand:background>square</osmand:background>
      <osmand:icon>public_bookcase</osmand:icon>
    </extensions>
  </wpt>
  <wpt lat="48.299922" lon="-3.516778">
    <name>Place de la Mairie</name>
    <desc></desc>
    <type>Delivrez bookcases</type>
    <extensions>
      <osmand:color>#ff5020</osmand:color>
      <osmand:background>square</osmand:background>
      <osmand:icon>public_bookcase</osmand:icon>
    </extensions>
  </wpt>
  <wpt lat="47.778982" lon="-3.352659">
    <name>Lann Sevelin</name>
    <desc>avec coin lecture</desc>
    <type>Delivrez bookcases</type>
    <extensions>
      <osmand:color>#ff5020</osmand:color>
      <osmand:background>square</osmand:background>
      <osmand:icon>public_bookcase</osmand:icon>
    </extensions>
  </wpt>
  <wpt lat="47.73261" lon="-3.344402">
    <name>boîte à livres</name>
    <desc></desc>
    <type>Delivrez bookcases</type>
    <extensions>
      <osmand:color>#ff5020</osmand:color>
      <osmand:background>square</osmand:background>
      <osmand:icon>public_bookcase</osmand:icon>
    </extensions>
  </wpt>
  <wpt lat="47.546368" lon="-2.91298">
    <name>Rue du Gén de Gaulle</name>
    <desc></desc>
    <type>Delivrez bookcases</type>
    <extensions>
      <osmand:color>#ff5020</osmand:color>
      <osmand:background>square</osmand:background>
      <osmand:icon>public_bookcase</osmand:icon>
    </extensions>
  </wpt>
  <wpt lat="47.76513" lon="-1.961148">
    <name>Rue de l'Abbé Corbe</name>
    <desc></desc>
    <type>Delivrez bookcases</type>
    <extensions>
      <osmand:color>#ff5020</osmand:color>
      <osmand:background>square</osmand:background>
      <osmand:icon>public_bookcase</osmand:icon>
    </extensions>
  </wpt>
  <wpt lat="48.473863" lon="-1.791931">
    <name>St Pierre de Plesguen, Mesnil Roch</name>
    <desc>à côté de la poste, dans une ancienne cabine téléphonique</desc>
    <type>Delivrez bookcases</type>
    <extensions>
      <osmand:color>#ff5020</osmand:color>
      <osmand:background>square</osmand:background>
      <osmand:icon>public_bookcase</osmand:icon>
    </extensions>
  </wpt>
  <wpt lat="48.508004" lon="-1.244091">
    <name>Rue Jean Janvier</name>
    <desc></desc>
    <type>Delivrez bookcases</type>
    <extensions>
      <osmand:color>#ff5020</osmand:color>
      <osmand:background>square</osmand:background>
      <osmand:icon>public_bookcase</osmand:icon>
    </extensions>
  </wpt>
  <wpt lat="48.506452" lon="-1.244592">
    <name>Rue Jean Janvier, saint georges de reintembault</name>
    <desc></desc>
    <type>Delivrez bookcases</type>
    <extensions>
      <osmand:color>#ff5020</osmand:color>
      <osmand:background>square</osmand:background>
      <osmand:icon>public_bookcase</osmand:icon>
    </extensions>
  </wpt>
  <wpt lat="47.58327" lon="-2.406069">
    <name>Rue des Oiseaux</name>
    <desc></desc>
    <type>Delivrez bookcases</type>
    <extensions>
      <osmand:color>#ff5020</osmand:color>
      <osmand:background>square</osmand:background>
      <osmand:icon>public_bookcase</osmand:icon>
    </extensions>
  </wpt>
  <wpt lat="48.12036" lon="-2.816128">
    <name>face à l etang</name>
    <desc>cabine téléphonique rouge</desc>
    <type>Delivrez bookcases</type>
    <extensions>
      <osmand:color>#ff5020</osmand:color>
      <osmand:background>square</osmand:background>
      <osmand:icon>public_bookcase</osmand:icon>
    </extensions>
  </wpt>
  <wpt lat="47.832382" lon="-4.174446">
    <name>Place des Anciens Combattants</name>
    <desc></desc>
    <type>Delivrez bookcases</type>
    <extensions>
      <osmand:color>#ff5020</osmand:color>
      <osmand:background>square</osmand:background>
      <osmand:icon>public_bookcase</osmand:icon>
    </extensions>
  </wpt>
  <wpt lat="47.844049" lon="-4.168571">
    <name>Rue Principale</name>
    <desc></desc>
    <type>Delivrez bookcases</type>
    <extensions>
      <osmand:color>#ff5020</osmand:color>
      <osmand:background>square</osmand:background>
      <osmand:icon>public_bookcase</osmand:icon>
    </extensions>
  </wpt>
  <wpt lat="47.851483" lon="-4.156724">
    <name>Avenue du Teven</name>
    <desc></desc>
    <type>Delivrez bookcases</type>
    <extensions>
      <osmand:color>#ff5020</osmand:color>
      <osmand:background>square</osmand:background>
      <osmand:icon>public_bookcase</osmand:icon>
    </extensions>
  </wpt>
  <wpt lat="47.909346" lon="-3.977898">
    <name>D44</name>
    <desc></desc>
    <type>Delivrez bookcases</type>
    <extensions>
      <osmand:color>#ff5020</osmand:color>
      <osmand:background>square</osmand:background>
      <osmand:icon>public_bookcase</osmand:icon>
    </extensions>
  </wpt>
  <wpt lat="47.818631" lon="-3.7914">
    <name>Rue de Port Manech</name>
    <desc></desc>
    <type>Delivrez bookcases</type>
    <extensions>
      <osmand:color>#ff5020</osmand:color>
      <osmand:background>square</osmand:background>
      <osmand:icon>public_bookcase</osmand:icon>
    </extensions>
  </wpt>
  <wpt lat="47.855984" lon="-3.747355">
    <name>Promenade Xavier Grall</name>
    <desc>_</desc>
    <type>Delivrez bookcases</type>
    <extensions>
      <osmand:color>#ff5020</osmand:color>
      <osmand:background>square</osmand:background>
      <osmand:icon>public_bookcase</osmand:icon>
    </extensions>
  </wpt>
  <wpt lat="48.018849" lon="-4.214595">
    <name>boîte à livre face à la mairie</name>
    <desc></desc>
    <type>Delivrez bookcases</type>
    <extensions>
      <osmand:color>#ff5020</osmand:color>
      <osmand:background>square</osmand:background>
      <osmand:icon>public_bookcase</osmand:icon>
    </extensions>
  </wpt>
  <wpt lat="48.123801" lon="-1.816916">
    <name>Rue du Presbytère</name>
    <desc>accessible dans le jardin de l'ancien presbytère</desc>
    <type>Delivrez bookcases</type>
    <extensions>
      <osmand:color>#ff5020</osmand:color>
      <osmand:background>square</osmand:background>
      <osmand:icon>public_bookcase</osmand:icon>
    </extensions>
  </wpt>
  <wpt lat="48.744931" lon="-4.015155">
    <name>Mezou Kenekaou</name>
    <desc></desc>
    <type>Delivrez bookcases</type>
    <extensions>
      <osmand:color>#ff5020</osmand:color>
      <osmand:background>square</osmand:background>
      <osmand:icon>public_bookcase</osmand:icon>
    </extensions>
  </wpt>
  <wpt lat="48.286944" lon="-4.461538">
    <name>D63</name>
    <desc>devant l'église</desc>
    <type>Delivrez bookcases</type>
    <extensions>
      <osmand:color>#ff5020</osmand:color>
      <osmand:background>square</osmand:background>
      <osmand:icon>public_bookcase</osmand:icon>
    </extensions>
  </wpt>
  <wpt lat="48.245102" lon="-4.48875">
    <name>Place Léon Blum</name>
    <desc>à gauche de la mairie, près de l'abri vélo  du carrefour market</desc>
    <type>Delivrez bookcases</type>
    <extensions>
      <osmand:color>#ff5020</osmand:color>
      <osmand:background>square</osmand:background>
      <osmand:icon>public_bookcase</osmand:icon>
    </extensions>
  </wpt>
  <wpt lat="47.670278" lon="-2.997211">
    <name>Rue du Colonel André Fauré</name>
    <desc></desc>
    <type>Delivrez bookcases</type>
    <extensions>
      <osmand:color>#ff5020</osmand:color>
      <osmand:background>square</osmand:background>
      <osmand:icon>public_bookcase</osmand:icon>
    </extensions>
  </wpt>
  <wpt lat="47.670274" lon="-2.997606">
    <name>Rue du Colonel André Fauré</name>
    <desc>Dans le quartier du Gumenen  Maison Livre réalisée par une classe de 3ème du Lycée Kerplouz  Installées en extérieur  dans un lieu de passage  chacun peut venir y retirer un livre  avec pour seule contrainte d'en déposer un autre à la place...</desc>
    <type>Delivrez bookcases</type>
    <extensions>
      <osmand:color>#ff5020</osmand:color>
      <osmand:background>square</osmand:background>
      <osmand:icon>public_bookcase</osmand:icon>
    </extensions>
  </wpt>
  <wpt lat="48.314902" lon="-4.548471">
    <name>Place de l'Église</name>
    <desc>sur un muret en pierre</desc>
    <type>Delivrez bookcases</type>
    <extensions>
      <osmand:color>#ff5020</osmand:color>
      <osmand:background>square</osmand:background>
      <osmand:icon>public_bookcase</osmand:icon>
    </extensions>
  </wpt>
  <wpt lat="48.10063" lon="-4.345741">
    <name>Rue Henry Cheffer</name>
    <desc>Le long d un  mur en descendant à la plage ST Jean</desc>
    <type>Delivrez bookcases</type>
    <extensions>
      <osmand:color>#ff5020</osmand:color>
      <osmand:background>square</osmand:background>
      <osmand:icon>public_bookcase</osmand:icon>
    </extensions>
  </wpt>
  <wpt lat="48.092099" lon="-4.336885">
    <name>devant l aire de jeux inclusive</name>
    <desc>elle est jaune</desc>
    <type>Delivrez bookcases</type>
    <extensions>
      <osmand:color>#ff5020</osmand:color>
      <osmand:background>square</osmand:background>
      <osmand:icon>public_bookcase</osmand:icon>
    </extensions>
  </wpt>
  <wpt lat="48.124487" lon="-4.21931">
    <name>Place de Cornouaille</name>
    <desc>boite murale orange accrochée devant la bibliothèque</desc>
    <type>Delivrez bookcases</type>
    <extensions>
      <osmand:color>#ff5020</osmand:color>
      <osmand:background>square</osmand:background>
      <osmand:icon>public_bookcase</osmand:icon>
    </extensions>
  </wpt>
  <wpt lat="47.857175" lon="-3.605161">
    <name>Rue Jean Marie Carer</name>
    <desc></desc>
    <type>Delivrez bookcases</type>
    <extensions>
      <osmand:color>#ff5020</osmand:color>
      <osmand:background>square</osmand:background>
      <osmand:icon>public_bookcase</osmand:icon>
    </extensions>
  </wpt>
  <wpt lat="48.62494" lon="-2.142839">
    <name>Boulevard du Bechay</name>
    <desc></desc>
    <type>Delivrez bookcases</type>
    <extensions>
      <osmand:color>#ff5020</osmand:color>
      <osmand:background>square</osmand:background>
      <osmand:icon>public_bookcase</osmand:icon>
    </extensions>
  </wpt>
  <wpt lat="48.63244" lon="-2.050924">
    <name>Avenue George V</name>
    <desc></desc>
    <type>Delivrez bookcases</type>
    <extensions>
      <osmand:color>#ff5020</osmand:color>
      <osmand:background>square</osmand:background>
      <osmand:icon>public_bookcase</osmand:icon>
    </extensions>
  </wpt>
  <wpt lat="47.702146" lon="-3.432842">
    <name>Route du Perello</name>
    <desc></desc>
    <type>Delivrez bookcases</type>
    <extensions>
      <osmand:color>#ff5020</osmand:color>
      <osmand:background>square</osmand:background>
      <osmand:icon>public_bookcase</osmand:icon>
    </extensions>
  </wpt>
  <wpt lat="48.411264" lon="-1.365428">
    <name>Rue Pasteur</name>
    <desc></desc>
    <type>Delivrez bookcases</type>
    <extensions>
      <osmand:color>#ff5020</osmand:color>
      <osmand:background>square</osmand:background>
      <osmand:icon>public_bookcase</osmand:icon>
    </extensions>
  </wpt>
  <wpt lat="47.555358" lon="-2.555023">
    <name>Cabane à livres près de la mairie</name>
    <desc></desc>
    <type>Delivrez bookcases</type>
    <extensions>
      <osmand:color>#ff5020</osmand:color>
      <osmand:background>square</osmand:background>
      <osmand:icon>public_bookcase</osmand:icon>
    </extensions>
  </wpt>
  <wpt lat="47.663918" lon="-2.97706">
    <name>Promenade du Stanguy</name>
    <desc></desc>
    <type>Delivrez bookcases</type>
    <extensions>
      <osmand:color>#ff5020</osmand:color>
      <osmand:background>square</osmand:background>
      <osmand:icon>public_bookcase</osmand:icon>
    </extensions>
  </wpt>
  <wpt lat="48.511193" lon="-1.180792">
    <name>Rue Saint Pierre des Bois</name>
    <desc></desc>
    <type>Delivrez bookcases</type>
    <extensions>
      <osmand:color>#ff5020</osmand:color>
      <osmand:background>square</osmand:background>
      <osmand:icon>public_bookcase</osmand:icon>
    </extensions>
  </wpt>
  <wpt lat="47.997133" lon="-4.100601">
    <name>Rond-Point Alexandre Massé</name>
    <desc></desc>
    <type>Delivrez bookcases</type>
    <extensions>
      <osmand:color>#ff5020</osmand:color>
      <osmand:background>square</osmand:background>
      <osmand:icon>public_bookcase</osmand:icon>
    </extensions>
  </wpt>
  <wpt lat="47.867007" lon="-4.223324">
    <name>Rue Jean Jaurès</name>
    <desc></desc>
    <type>Delivrez bookcases</type>
    <extensions>
      <osmand:color>#ff5020</osmand:color>
      <osmand:background>square</osmand:background>
      <osmand:icon>public_bookcase</osmand:icon>
    </extensions>
  </wpt>
  <wpt lat="47.76454" lon="-3.12196">
    <name>D765 Landévant</name>
    <desc></desc>
    <type>Delivrez bookcases</type>
    <extensions>
      <osmand:color>#ff5020</osmand:color>
      <osmand:background>square</osmand:background>
      <osmand:icon>public_bookcase</osmand:icon>
    </extensions>
  </wpt>
  <wpt lat="47.688645" lon="-3.028426">
    <name>Rue des Tilleuls</name>
    <desc></desc>
    <type>Delivrez bookcases</type>
    <extensions>
      <osmand:color>#ff5020</osmand:color>
      <osmand:background>square</osmand:background>
      <osmand:icon>public_bookcase</osmand:icon>
    </extensions>
  </wpt>
  <wpt lat="48.014881" lon="-4.48775">
    <name>Rue du Gén de Gaulle</name>
    <desc>face à la mairie</desc>
    <type>Delivrez bookcases</type>
    <extensions>
      <osmand:color>#ff5020</osmand:color>
      <osmand:background>square</osmand:background>
      <osmand:icon>public_bookcase</osmand:icon>
    </extensions>
  </wpt>
  <wpt lat="48.103282" lon="-3.491647">
    <name>Place Morvan</name>
    <desc></desc>
    <type>Delivrez bookcases</type>
    <extensions>
      <osmand:color>#ff5020</osmand:color>
      <osmand:background>square</osmand:background>
      <osmand:icon>public_bookcase</osmand:icon>
    </extensions>
  </wpt>
  <wpt lat="48.496159" lon="-2.711847">
    <name>rue de Brest</name>
    <desc></desc>
    <type>Delivrez bookcases</type>
    <extensions>
      <osmand:color>#ff5020</osmand:color>
      <osmand:background>square</osmand:background>
      <osmand:icon>public_bookcase</osmand:icon>
    </extensions>
  </wpt>
  <wpt lat="47.482022" lon="-3.120482">
    <name>Rue de Verdun</name>
    <desc></desc>
    <type>Delivrez bookcases</type>
    <extensions>
      <osmand:color>#ff5020</osmand:color>
      <osmand:background>square</osmand:background>
      <osmand:icon>public_bookcase</osmand:icon>
    </extensions>
  </wpt>
  <wpt lat="48.510161" lon="-4.082512">
    <name>Rue Bideford</name>
    <desc></desc>
    <type>Delivrez bookcases</type>
    <extensions>
      <osmand:color>#ff5020</osmand:color>
      <osmand:background>square</osmand:background>
      <osmand:icon>public_bookcase</osmand:icon>
    </extensions>
  </wpt>
  <wpt lat="48.12462" lon="-1.229048">
    <name>Rue Françoise Dolto</name>
    <desc></desc>
    <type>Delivrez bookcases</type>
    <extensions>
      <osmand:color>#ff5020</osmand:color>
      <osmand:background>square</osmand:background>
      <osmand:icon>public_bookcase</osmand:icon>
    </extensions>
  </wpt>
  <wpt lat="48.724076" lon="-3.982615">
    <name>Rue Gambetta</name>
    <desc>dans le parc de la chapelle</desc>
    <type>Delivrez bookcases</type>
    <extensions>
      <osmand:color>#ff5020</osmand:color>
      <osmand:background>square</osmand:background>
      <osmand:icon>public_bookcase</osmand:icon>
    </extensions>
  </wpt>
  <wpt lat="48.72689" lon="-3.986059">
    <name>Place Lacaze Duthiers</name>
    <desc>boite en bous face église</desc>
    <type>Delivrez bookcases</type>
    <extensions>
      <osmand:color>#ff5020</osmand:color>
      <osmand:background>square</osmand:background>
      <osmand:icon>public_bookcase</osmand:icon>
    </extensions>
  </wpt>
  <wpt lat="47.597642" lon="-3.111848">
    <name>Rue Sainte-Anne</name>
    <desc>A l'entrée du parc</desc>
    <type>Delivrez bookcases</type>
    <extensions>
      <osmand:color>#ff5020</osmand:color>
      <osmand:background>square</osmand:background>
      <osmand:icon>public_bookcase</osmand:icon>
    </extensions>
  </wpt>
  <wpt lat="48.660239" lon="-4.101339">
    <name>Rue des Sources</name>
    <desc></desc>
    <type>Delivrez bookcases</type>
    <extensions>
      <osmand:color>#ff5020</osmand:color>
      <osmand:background>square</osmand:background>
      <osmand:icon>public_bookcase</osmand:icon>
    </extensions>
  </wpt>
  <wpt lat="47.649902" lon="-2.084442">
    <name>Rue Nominoë</name>
    <desc></desc>
    <type>Delivrez bookcases</type>
    <extensions>
      <osmand:color>#ff5020</osmand:color>
      <osmand:background>square</osmand:background>
      <osmand:icon>public_bookcase</osmand:icon>
    </extensions>
  </wpt>
  <wpt lat="47.798579" lon="-4.197357">
    <name>Rue du Beau Rivage</name>
    <desc></desc>
    <type>Delivrez bookcases</type>
    <extensions>
      <osmand:color>#ff5020</osmand:color>
      <osmand:background>square</osmand:background>
      <osmand:icon>public_bookcase</osmand:icon>
    </extensions>
  </wpt>
  <wpt lat="47.796081" lon="-4.280979">
    <name>Rue de la Marine</name>
    <desc></desc>
    <type>Delivrez bookcases</type>
    <extensions>
      <osmand:color>#ff5020</osmand:color>
      <osmand:background>square</osmand:background>
      <osmand:icon>public_bookcase</osmand:icon>
    </extensions>
  </wpt>
  <wpt lat="48.674797" lon="-1.852479">
    <name>Salle omnisports</name>
    <desc></desc>
    <type>Delivrez bookcases</type>
    <extensions>
      <osmand:color>#ff5020</osmand:color>
      <osmand:background>square</osmand:background>
      <osmand:icon>public_bookcase</osmand:icon>
    </extensions>
  </wpt>
  <wpt lat="47.546917" lon="-2.891027">
    <name>Parking de la petite plage de Kervoyal</name>
    <desc>Cabane à livres</desc>
    <type>Delivrez bookcases</type>
    <extensions>
      <osmand:color>#ff5020</osmand:color>
      <osmand:background>square</osmand:background>
      <osmand:icon>public_bookcase</osmand:icon>
    </extensions>
  </wpt>
  <wpt lat="48.45157" lon="-2.045802">
    <name>Place Duguesclin</name>
    <desc></desc>
    <type>Delivrez bookcases</type>
    <extensions>
      <osmand:color>#ff5020</osmand:color>
      <osmand:background>square</osmand:background>
      <osmand:icon>public_bookcase</osmand:icon>
    </extensions>
  </wpt>
  <wpt lat="48.551364" lon="-1.751328">
    <name>Place Châteaubriand</name>
    <desc></desc>
    <type>Delivrez bookcases</type>
    <extensions>
      <osmand:color>#ff5020</osmand:color>
      <osmand:background>square</osmand:background>
      <osmand:icon>public_bookcase</osmand:icon>
    </extensions>
  </wpt>
  <wpt lat="48.36809" lon="-1.218095">
    <name>Place Saint-Martin</name>
    <desc></desc>
    <type>Delivrez bookcases</type>
    <extensions>
      <osmand:color>#ff5020</osmand:color>
      <osmand:background>square</osmand:background>
      <osmand:icon>public_bookcase</osmand:icon>
    </extensions>
  </wpt>
  <wpt lat="48.749411" lon="-2.983735">
    <name>Rue du Docteur Laurent</name>
    <desc>Eglise</desc>
    <type>Delivrez bookcases</type>
    <extensions>
      <osmand:color>#ff5020</osmand:color>
      <osmand:background>square</osmand:background>
      <osmand:icon>public_bookcase</osmand:icon>
    </extensions>
  </wpt>
  <wpt lat="48.67663" lon="-2.929065">
    <name>Place Foch</name>
    <desc>près de l'église</desc>
    <type>Delivrez bookcases</type>
    <extensions>
      <osmand:color>#ff5020</osmand:color>
      <osmand:background>square</osmand:background>
      <osmand:icon>public_bookcase</osmand:icon>
    </extensions>
  </wpt>
  <wpt lat="48.167669" lon="-1.192083">
    <name>Place de la Paix</name>
    <desc></desc>
    <type>Delivrez bookcases</type>
    <extensions>
      <osmand:color>#ff5020</osmand:color>
      <osmand:background>square</osmand:background>
      <osmand:icon>public_bookcase</osmand:icon>
    </extensions>
  </wpt>
  <wpt lat="48.504229" lon="-2.697328">
    <name>Rue de Boutdeville</name>
    <desc>front de mer</desc>
    <type>Delivrez bookcases</type>
    <extensions>
      <osmand:color>#ff5020</osmand:color>
      <osmand:background>square</osmand:background>
      <osmand:icon>public_bookcase</osmand:icon>
    </extensions>
  </wpt>
  <wpt lat="48.533181" lon="-2.577854">
    <name>Place du 8 Mai 1945</name>
    <desc>près de l'église et la mairie</desc>
    <type>Delivrez bookcases</type>
    <extensions>
      <osmand:color>#ff5020</osmand:color>
      <osmand:background>square</osmand:background>
      <osmand:icon>public_bookcase</osmand:icon>
    </extensions>
  </wpt>
  <wpt lat="48.625982" lon="-2.404869">
    <name>Rue de Montangue</name>
    <desc>près de la bibliothèque</desc>
    <type>Delivrez bookcases</type>
    <extensions>
      <osmand:color>#ff5020</osmand:color>
      <osmand:background>square</osmand:background>
      <osmand:icon>public_bookcase</osmand:icon>
    </extensions>
  </wpt>
  <wpt lat="47.645259" lon="-2.088966">
    <name>Quai Surcouf</name>
    <desc></desc>
    <type>Delivrez bookcases</type>
    <extensions>
      <osmand:color>#ff5020</osmand:color>
      <osmand:background>square</osmand:background>
      <osmand:icon>public_bookcase</osmand:icon>
    </extensions>
  </wpt>
  <wpt lat="48.489726" lon="-2.001041">
    <name>Rue du Port</name>
    <desc>sur le port, en face du restaurant.</desc>
    <type>Delivrez bookcases</type>
    <extensions>
      <osmand:color>#ff5020</osmand:color>
      <osmand:background>square</osmand:background>
      <osmand:icon>public_bookcase</osmand:icon>
    </extensions>
  </wpt>
  <wpt lat="48.672435" lon="-3.922548">
    <name>Rue du Port</name>
    <desc>sous un abri bus en pierre</desc>
    <type>Delivrez bookcases</type>
    <extensions>
      <osmand:color>#ff5020</osmand:color>
      <osmand:background>square</osmand:background>
      <osmand:icon>public_bookcase</osmand:icon>
    </extensions>
  </wpt>
  <wpt lat="47.865603" lon="-4.219355">
    <name>Place Benjamin Delessert</name>
    <desc></desc>
    <type>Delivrez bookcases</type>
    <extensions>
      <osmand:color>#ff5020</osmand:color>
      <osmand:background>square</osmand:background>
      <osmand:icon>public_bookcase</osmand:icon>
    </extensions>
  </wpt>
  <wpt lat="48.814205" lon="-3.444029">
    <name>Place de l'Église</name>
    <desc></desc>
    <type>Delivrez bookcases</type>
    <extensions>
      <osmand:color>#ff5020</osmand:color>
      <osmand:background>square</osmand:background>
      <osmand:icon>public_bookcase</osmand:icon>
    </extensions>
  </wpt>
  <wpt lat="48.812693" lon="-3.296169">
    <name>Impasse Abbé Conan</name>
    <desc></desc>
    <type>Delivrez bookcases</type>
    <extensions>
      <osmand:color>#ff5020</osmand:color>
      <osmand:background>square</osmand:background>
      <osmand:icon>public_bookcase</osmand:icon>
    </extensions>
  </wpt>
  <wpt lat="48.481127" lon="-2.168339">
    <name>Rue de l'Arguenon</name>
    <desc>près de l'église</desc>
    <type>Delivrez bookcases</type>
    <extensions>
      <osmand:color>#ff5020</osmand:color>
      <osmand:background>square</osmand:background>
      <osmand:icon>public_bookcase</osmand:icon>
    </extensions>
  </wpt>
  <wpt lat="48.596068" lon="-2.292269">
    <name>Place du Général de Gaulle</name>
    <desc>sous la halle</desc>
    <type>Delivrez bookcases</type>
    <extensions>
      <osmand:color>#ff5020</osmand:color>
      <osmand:background>square</osmand:background>
      <osmand:icon>public_bookcase</osmand:icon>
    </extensions>
  </wpt>
  <wpt lat="48.597257" lon="-2.288788">
    <name>Rue Saint-Pierre</name>
    <desc>près de la mairie</desc>
    <type>Delivrez bookcases</type>
    <extensions>
      <osmand:color>#ff5020</osmand:color>
      <osmand:background>square</osmand:background>
      <osmand:icon>public_bookcase</osmand:icon>
    </extensions>
  </wpt>
  <wpt lat="48.637994" lon="-2.259468">
    <name>Rue des Terre Neuvas</name>
    <desc></desc>
    <type>Delivrez bookcases</type>
    <extensions>
      <osmand:color>#ff5020</osmand:color>
      <osmand:background>square</osmand:background>
      <osmand:icon>public_bookcase</osmand:icon>
    </extensions>
  </wpt>
  <wpt lat="48.496546" lon="-1.587572">
    <name>Rue de Villecartier</name>
    <desc>sur la place de l'église</desc>
    <type>Delivrez bookcases</type>
    <extensions>
      <osmand:color>#ff5020</osmand:color>
      <osmand:background>square</osmand:background>
      <osmand:icon>public_bookcase</osmand:icon>
    </extensions>
  </wpt>
  <wpt lat="47.895573" lon="-1.612838">
    <name>Rue Lamartine</name>
    <desc></desc>
    <type>Delivrez bookcases</type>
    <extensions>
      <osmand:color>#ff5020</osmand:color>
      <osmand:background>square</osmand:background>
      <osmand:icon>public_bookcase</osmand:icon>
    </extensions>
  </wpt>
  <wpt lat="47.842638" lon="-1.680473">
    <name>Rue de la Pompe</name>
    <desc></desc>
    <type>Delivrez bookcases</type>
    <extensions>
      <osmand:color>#ff5020</osmand:color>
      <osmand:background>square</osmand:background>
      <osmand:icon>public_bookcase</osmand:icon>
    </extensions>
  </wpt>
  <wpt lat="48.073874" lon="-2.96426">
    <name>boite à livres</name>
    <desc></desc>
    <type>Delivrez bookcases</type>
    <extensions>
      <osmand:color>#ff5020</osmand:color>
      <osmand:background>square</osmand:background>
      <osmand:icon>public_bookcase</osmand:icon>
    </extensions>
  </wpt>
  <wpt lat="48.178268" lon="-1.116686">
    <name>Place de l'Église</name>
    <desc></desc>
    <type>Delivrez bookcases</type>
    <extensions>
      <osmand:color>#ff5020</osmand:color>
      <osmand:background>square</osmand:background>
      <osmand:icon>public_bookcase</osmand:icon>
    </extensions>
  </wpt>
  <wpt lat="48.140539" lon="-1.100115">
    <name>Livres en balade</name>
    <desc></desc>
    <type>Delivrez bookcases</type>
    <extensions>
      <osmand:color>#ff5020</osmand:color>
      <osmand:background>square</osmand:background>
      <osmand:icon>public_bookcase</osmand:icon>
    </extensions>
  </wpt>
  <wpt lat="48.229899" lon="-1.179488">
    <name>Rue des Rouxières</name>
    <desc></desc>
    <type>Delivrez bookcases</type>
    <extensions>
      <osmand:color>#ff5020</osmand:color>
      <osmand:background>square</osmand:background>
      <osmand:icon>public_bookcase</osmand:icon>
    </extensions>
  </wpt>
  <wpt lat="48.519514" lon="-2.793235">
    <name>Rue de Penthièvre</name>
    <desc></desc>
    <type>Delivrez bookcases</type>
    <extensions>
      <osmand:color>#ff5020</osmand:color>
      <osmand:background>square</osmand:background>
      <osmand:icon>public_bookcase</osmand:icon>
    </extensions>
  </wpt>
  <wpt lat="48.108435" lon="-1.404427">
    <name>boîte à livres</name>
    <desc>place du marché</desc>
    <type>Delivrez bookcases</type>
    <extensions>
      <osmand:color>#ff5020</osmand:color>
      <osmand:background>square</osmand:background>
      <osmand:icon>public_bookcase</osmand:icon>
    </extensions>
  </wpt>
  <wpt lat="48.846044" lon="-3.000215">
    <name>Birlot</name>
    <desc>place du bourg de Bréhat</desc>
    <type>Delivrez bookcases</type>
    <extensions>
      <osmand:color>#ff5020</osmand:color>
      <osmand:background>square</osmand:background>
      <osmand:icon>public_bookcase</osmand:icon>
    </extensions>
  </wpt>
  <wpt lat="48.782596" lon="-3.037421">
    <name>Rue du Tumulus</name>
    <desc>parc du gr 34</desc>
    <type>Delivrez bookcases</type>
    <extensions>
      <osmand:color>#ff5020</osmand:color>
      <osmand:background>square</osmand:background>
      <osmand:icon>public_bookcase</osmand:icon>
    </extensions>
  </wpt>
  <wpt lat="47.606024" lon="-2.227085">
    <name>place de l'église</name>
    <desc>à côté du monument aux morts</desc>
    <type>Delivrez bookcases</type>
    <extensions>
      <osmand:color>#ff5020</osmand:color>
      <osmand:background>square</osmand:background>
      <osmand:icon>public_bookcase</osmand:icon>
    </extensions>
  </wpt>
  <wpt lat="48.402804" lon="-4.469446">
    <name>Rue du Vercors</name>
    <desc></desc>
    <type>Delivrez bookcases</type>
    <extensions>
      <osmand:color>#ff5020</osmand:color>
      <osmand:background>square</osmand:background>
      <osmand:icon>public_bookcase</osmand:icon>
    </extensions>
  </wpt>
  <wpt lat="48.351277" lon="-1.204346">
    <name>Rue Porte Saint-Léonard</name>
    <desc></desc>
    <type>Delivrez bookcases</type>
    <extensions>
      <osmand:color>#ff5020</osmand:color>
      <osmand:background>square</osmand:background>
      <osmand:icon>public_bookcase</osmand:icon>
    </extensions>
  </wpt>
  <wpt lat="48.682229" lon="-3.635408">
    <name>Voie Communale de l'Armorique</name>
    <desc>cabine de plage</desc>
    <type>Delivrez bookcases</type>
    <extensions>
      <osmand:color>#ff5020</osmand:color>
      <osmand:background>square</osmand:background>
      <osmand:icon>public_bookcase</osmand:icon>
    </extensions>
  </wpt>
  <wpt lat="47.708212" lon="-3.360369">
    <name>Cabane à livres - parking entrée Grand Plage</name>
    <desc>située sur le terre plein après le parc à jeux pour enfants et le manège, devant l'entrée de la Grande Plage devant les remparts</desc>
    <type>Delivrez bookcases</type>
    <extensions>
      <osmand:color>#ff5020</osmand:color>
      <osmand:background>square</osmand:background>
      <osmand:icon>public_bookcase</osmand:icon>
    </extensions>
  </wpt>
  <wpt lat="47.806198" lon="-3.282938">
    <name>Rue Francis Le Frapper</name>
    <desc>a l'entrée du camping</desc>
    <type>Delivrez bookcases</type>
    <extensions>
      <osmand:color>#ff5020</osmand:color>
      <osmand:background>square</osmand:background>
      <osmand:icon>public_bookcase</osmand:icon>
    </extensions>
  </wpt>
  <wpt lat="48.617579" lon="-2.036558">
    <name>Rue de la Gougeonnais</name>
    <desc>Juste à gauche de la creperie</desc>
    <type>Delivrez bookcases</type>
    <extensions>
      <osmand:color>#ff5020</osmand:color>
      <osmand:background>square</osmand:background>
      <osmand:icon>public_bookcase</osmand:icon>
    </extensions>
  </wpt>
  <wpt lat="47.639951" lon="-2.948398">
    <name>Rue Jean Jaurès</name>
    <desc>_</desc>
    <type>Delivrez bookcases</type>
    <extensions>
      <osmand:color>#ff5020</osmand:color>
      <osmand:background>square</osmand:background>
      <osmand:icon>public_bookcase</osmand:icon>
    </extensions>
  </wpt>
  <wpt lat="48.470163" lon="-2.515405">
    <name>Rue Calmette</name>
    <desc></desc>
    <type>Delivrez bookcases</type>
    <extensions>
      <osmand:color>#ff5020</osmand:color>
      <osmand:background>square</osmand:background>
      <osmand:icon>public_bookcase</osmand:icon>
    </extensions>
  </wpt>
  <wpt lat="48.469648" lon="-2.513079">
    <name>Rue du Val</name>
    <desc></desc>
    <type>Delivrez bookcases</type>
    <extensions>
      <osmand:color>#ff5020</osmand:color>
      <osmand:background>square</osmand:background>
      <osmand:icon>public_bookcase</osmand:icon>
    </extensions>
  </wpt>
  <wpt lat="48.593726" lon="-1.98035">
    <name>Rue des Epinettes</name>
    <desc>Sur le parking, face à l'estuaire.</desc>
    <type>Delivrez bookcases</type>
    <extensions>
      <osmand:color>#ff5020</osmand:color>
      <osmand:background>square</osmand:background>
      <osmand:icon>public_bookcase</osmand:icon>
    </extensions>
  </wpt>
  <wpt lat="48.605077" lon="-2.033203">
    <name>Rue du Port</name>
    <desc>en face de la pharmacie</desc>
    <type>Delivrez bookcases</type>
    <extensions>
      <osmand:color>#ff5020</osmand:color>
      <osmand:background>square</osmand:background>
      <osmand:icon>public_bookcase</osmand:icon>
    </extensions>
  </wpt>
  <wpt lat="48.363843" lon="-1.22044">
    <name>Rue de la Butte</name>
    <desc></desc>
    <type>Delivrez bookcases</type>
    <extensions>
      <osmand:color>#ff5020</osmand:color>
      <osmand:background>square</osmand:background>
      <osmand:icon>public_bookcase</osmand:icon>
    </extensions>
  </wpt>
  <wpt lat="48.343793" lon="-1.194186">
    <name>Rue du Gué Maheu</name>
    <desc></desc>
    <type>Delivrez bookcases</type>
    <extensions>
      <osmand:color>#ff5020</osmand:color>
      <osmand:background>square</osmand:background>
      <osmand:icon>public_bookcase</osmand:icon>
    </extensions>
  </wpt>
  <wpt lat="47.801865" lon="-3.720695">
    <name>plage de Kerfany</name>
    <desc></desc>
    <type>Delivrez bookcases</type>
    <extensions>
      <osmand:color>#ff5020</osmand:color>
      <osmand:background>square</osmand:background>
      <osmand:icon>public_bookcase</osmand:icon>
    </extensions>
  </wpt>
  <wpt lat="48.842642" lon="-3.228569">
    <name>Rue Garden Post</name>
    <desc>entre la poste et l'Office du tourisme</desc>
    <type>Delivrez bookcases</type>
    <extensions>
      <osmand:color>#ff5020</osmand:color>
      <osmand:background>square</osmand:background>
      <osmand:icon>public_bookcase</osmand:icon>
    </extensions>
  </wpt>
  <wpt lat="47.58005" lon="-3.078031">
    <name>jardin de cesarine</name>
    <desc>au centre du parc sous un grand abri en bois</desc>
    <type>Delivrez bookcases</type>
    <extensions>
      <osmand:color>#ff5020</osmand:color>
      <osmand:background>square</osmand:background>
      <osmand:icon>public_bookcase</osmand:icon>
    </extensions>
  </wpt>
  <wpt lat="48.847489" lon="-3.20746">
    <name>camping beg ar bilin</name>
    <desc>dans le camping, a côté de la réception</desc>
    <type>Delivrez bookcases</type>
    <extensions>
      <osmand:color>#ff5020</osmand:color>
      <osmand:background>square</osmand:background>
      <osmand:icon>public_bookcase</osmand:icon>
    </extensions>
  </wpt>
  <wpt lat="48.669096" lon="-3.915211">
    <name>Place de la République</name>
    <desc></desc>
    <type>Delivrez bookcases</type>
    <extensions>
      <osmand:color>#ff5020</osmand:color>
      <osmand:background>square</osmand:background>
      <osmand:icon>public_bookcase</osmand:icon>
    </extensions>
  </wpt>
  <wpt lat="48.5223" lon="-2.608198">
    <name>morieux</name>
    <desc></desc>
    <type>Delivrez bookcases</type>
    <extensions>
      <osmand:color>#ff5020</osmand:color>
      <osmand:background>square</osmand:background>
      <osmand:icon>public_bookcase</osmand:icon>
    </extensions>
  </wpt>
  <wpt lat="47.766536" lon="-3.547161">
    <name>Place Gauguin</name>
    <desc></desc>
    <type>Delivrez bookcases</type>
    <extensions>
      <osmand:color>#ff5020</osmand:color>
      <osmand:background>square</osmand:background>
      <osmand:icon>public_bookcase</osmand:icon>
    </extensions>
  </wpt>
  <wpt lat="48.576345" lon="-3.825174">
    <name>Place du Dossen</name>
    <desc>devant la Librairie Dialogues</desc>
    <type>Delivrez bookcases</type>
    <extensions>
      <osmand:color>#ff5020</osmand:color>
      <osmand:background>square</osmand:background>
      <osmand:icon>public_bookcase</osmand:icon>
    </extensions>
  </wpt>
  <wpt lat="48.569939" lon="-1.768604">
    <name>Rue de la Mairie</name>
    <desc></desc>
    <type>Delivrez bookcases</type>
    <extensions>
      <osmand:color>#ff5020</osmand:color>
      <osmand:background>square</osmand:background>
      <osmand:icon>public_bookcase</osmand:icon>
    </extensions>
  </wpt>
  <wpt lat="48.636654" lon="-2.020775">
    <name>Place Monseigneur Duchesne</name>
    <desc></desc>
    <type>Delivrez bookcases</type>
    <extensions>
      <osmand:color>#ff5020</osmand:color>
      <osmand:background>square</osmand:background>
      <osmand:icon>public_bookcase</osmand:icon>
    </extensions>
  </wpt>
  <wpt lat="48.569385" lon="-2.817697">
    <name>Place Emile Guéret</name>
    <desc>à côté de la mairie</desc>
    <type>Delivrez bookcases</type>
    <extensions>
      <osmand:color>#ff5020</osmand:color>
      <osmand:background>square</osmand:background>
      <osmand:icon>public_bookcase</osmand:icon>
    </extensions>
  </wpt>
  <wpt lat="48.600112" lon="-2.825225">
    <name>Boulevard Clemenceau</name>
    <desc>à côté de la stèle/memorial</desc>
    <type>Delivrez bookcases</type>
    <extensions>
      <osmand:color>#ff5020</osmand:color>
      <osmand:background>square</osmand:background>
      <osmand:icon>public_bookcase</osmand:icon>
    </extensions>
  </wpt>
  <wpt lat="48.52657" lon="-1.848605">
    <name>boite à livres</name>
    <desc>dans une cabine téléphonique sur la petite place</desc>
    <type>Delivrez bookcases</type>
    <extensions>
      <osmand:color>#ff5020</osmand:color>
      <osmand:background>square</osmand:background>
      <osmand:icon>public_bookcase</osmand:icon>
    </extensions>
  </wpt>
  <wpt lat="48.182829" lon="-1.643459">
    <name>Place de la cale</name>
    <desc></desc>
    <type>Delivrez bookcases</type>
    <extensions>
      <osmand:color>#ff5020</osmand:color>
      <osmand:background>square</osmand:background>
      <osmand:icon>public_bookcase</osmand:icon>
    </extensions>
  </wpt>
  <wpt lat="48.616312" lon="-1.852402">
    <name>Rue du bord de mer</name>
    <desc>Cabine téléphonique juste à côté de la bibliothèque municipale</desc>
    <type>Delivrez bookcases</type>
    <extensions>
      <osmand:color>#ff5020</osmand:color>
      <osmand:background>square</osmand:background>
      <osmand:icon>public_bookcase</osmand:icon>
    </extensions>
  </wpt>
  <wpt lat="48.616325" lon="-1.852375">
    <name>Rue du bord de mer</name>
    <desc>Dans une cabine téléphonique juste à côté de la bibliothèque</desc>
    <type>Delivrez bookcases</type>
    <extensions>
      <osmand:color>#ff5020</osmand:color>
      <osmand:background>square</osmand:background>
      <osmand:icon>public_bookcase</osmand:icon>
    </extensions>
  </wpt>
  <wpt lat="48.10753" lon="-1.705448">
    <name>29 rue Amiral Courbet</name>
    <desc>Boîte située à l intersection de la rue Amiral Courbet et de la rue Kerviler.</desc>
    <type>Delivrez bookcases</type>
    <extensions>
      <osmand:color>#ff5020</osmand:color>
      <osmand:background>square</osmand:background>
      <osmand:icon>public_bookcase</osmand:icon>
    </extensions>
  </wpt>
  <wpt lat="48.092944" lon="-1.653842">
    <name>Allée Romain Rolland</name>
    <desc></desc>
    <type>Delivrez bookcases</type>
    <extensions>
      <osmand:color>#ff5020</osmand:color>
      <osmand:background>square</osmand:background>
      <osmand:icon>public_bookcase</osmand:icon>
    </extensions>
  </wpt>
  <wpt lat="48.091907" lon="-1.639772">
    <name>place du ronceray</name>
    <desc>Devant le carrefour Market.</desc>
    <type>Delivrez bookcases</type>
    <extensions>
      <osmand:color>#ff5020</osmand:color>
      <osmand:background>square</osmand:background>
      <osmand:icon>public_bookcase</osmand:icon>
    </extensions>
  </wpt>
  <wpt lat="47.57048" lon="-3.082197">
    <name>Chaussée des Bernaches</name>
    <desc>Petites boîte à livres rouge</desc>
    <type>Delivrez bookcases</type>
    <extensions>
      <osmand:color>#ff5020</osmand:color>
      <osmand:background>square</osmand:background>
      <osmand:icon>public_bookcase</osmand:icon>
    </extensions>
  </wpt>
  <wpt lat="47.958347" lon="-2.979949">
    <name>Impasse de l'Étang</name>
    <desc>Au bord de l'étang, vers les emplacements pour Camping-cars</desc>
    <type>Delivrez bookcases</type>
    <extensions>
      <osmand:color>#ff5020</osmand:color>
      <osmand:background>square</osmand:background>
      <osmand:icon>public_bookcase</osmand:icon>
    </extensions>
  </wpt>
  <wpt lat="48.124752" lon="-4.224436">
    <name>4 Rue de Cornuaille</name>
    <desc>Devant la bibliothèque municipale</desc>
    <type>Delivrez bookcases</type>
    <extensions>
      <osmand:color>#ff5020</osmand:color>
      <osmand:background>square</osmand:background>
      <osmand:icon>public_bookcase</osmand:icon>
    </extensions>
  </wpt>
  <wpt lat="48.133884" lon="-1.668428">
    <name>RUE DU BLAVET</name>
    <desc>Il s'agit d'un monstro livre</desc>
    <type>Delivrez bookcases</type>
    <extensions>
      <osmand:color>#ff5020</osmand:color>
      <osmand:background>square</osmand:background>
      <osmand:icon>public_bookcase</osmand:icon>
    </extensions>
  </wpt>
  <wpt lat="48.113202" lon="-1.606962">
    <name>8 Avenue des Peupliers</name>
    <desc>Sur le parking de la biocoop de cesson-sévigné.</desc>
    <type>Delivrez bookcases</type>
    <extensions>
      <osmand:color>#ff5020</osmand:color>
      <osmand:background>square</osmand:background>
      <osmand:icon>public_bookcase</osmand:icon>
    </extensions>
  </wpt>
  <wpt lat="48.133337" lon="-1.533786">
    <name>place de la mairie</name>
    <desc>Boite à lire construite sur la place de la mairie</desc>
    <type>Delivrez bookcases</type>
    <extensions>
      <osmand:color>#ff5020</osmand:color>
      <osmand:background>square</osmand:background>
      <osmand:icon>public_bookcase</osmand:icon>
    </extensions>
  </wpt>
  <wpt lat="48.374157" lon="-4.369362">
    <name>Place du Calvaire</name>
    <desc>Une ancienne cabine téléphonique Anglaise. </desc>
    <type>Delivrez bookcases</type>
    <extensions>
      <osmand:color>#ff5020</osmand:color>
      <osmand:background>square</osmand:background>
      <osmand:icon>public_bookcase</osmand:icon>
    </extensions>
  </wpt>
  <wpt lat="48.118406" lon="-1.680947">
    <name>Square de la Rance</name>
    <desc>La boite est proche du Carrefour contact.</desc>
    <type>Delivrez bookcases</type>
    <extensions>
      <osmand:color>#ff5020</osmand:color>
      <osmand:background>square</osmand:background>
      <osmand:icon>public_bookcase</osmand:icon>
    </extensions>
  </wpt>
  <wpt lat="48.629871" lon="-2.465403">
    <name>Rue Foch</name>
    <desc></desc>
    <type>Delivrez bookcases</type>
    <extensions>
      <osmand:color>#ff5020</osmand:color>
      <osmand:background>square</osmand:background>
      <osmand:icon>public_bookcase</osmand:icon>
    </extensions>
  </wpt>
  <wpt lat="48.107872" lon="-1.658769">
    <name>Rue Henri Delaborde</name>
    <desc>La boîte est située à l'angle de la rue Henri Delaborde et de la Rue Bertrand Robidou  </desc>
    <type>Delivrez bookcases</type>
    <extensions>
      <osmand:color>#ff5020</osmand:color>
      <osmand:background>square</osmand:background>
      <osmand:icon>public_bookcase</osmand:icon>
    </extensions>
  </wpt>
  <wpt lat="48.149617" lon="-1.656178">
    <name>Rue du Halage</name>
    <desc></desc>
    <type>Delivrez bookcases</type>
    <extensions>
      <osmand:color>#ff5020</osmand:color>
      <osmand:background>square</osmand:background>
      <osmand:icon>public_bookcase</osmand:icon>
    </extensions>
  </wpt>
  <wpt lat="48.510893" lon="-2.78674">
    <name>Place de Normandie</name>
    <desc>ancienne cabine téléphonique place de normandie</desc>
    <type>Delivrez bookcases</type>
    <extensions>
      <osmand:color>#ff5020</osmand:color>
      <osmand:background>square</osmand:background>
      <osmand:icon>public_bookcase</osmand:icon>
    </extensions>
  </wpt>
  <wpt lat="48.056684" lon="-1.152288">
    <name>Rue du Général Leclerc</name>
    <desc>Dans le jardin des hills</desc>
    <type>Delivrez bookcases</type>
    <extensions>
      <osmand:color>#ff5020</osmand:color>
      <osmand:background>square</osmand:background>
      <osmand:icon>public_bookcase</osmand:icon>
    </extensions>
  </wpt>
  <wpt lat="48.328539" lon="-4.242564">
    <name>hôpital camfrout</name>
    <desc></desc>
    <type>Delivrez bookcases</type>
    <extensions>
      <osmand:color>#ff5020</osmand:color>
      <osmand:background>square</osmand:background>
      <osmand:icon>public_bookcase</osmand:icon>
    </extensions>
  </wpt>
  <wpt lat="48.392235" lon="-4.381119">
    <name>Chemin du Bord de Mer</name>
    <desc></desc>
    <type>Delivrez bookcases</type>
    <extensions>
      <osmand:color>#ff5020</osmand:color>
      <osmand:background>square</osmand:background>
      <osmand:icon>public_bookcase</osmand:icon>
    </extensions>
  </wpt>
  <wpt lat="48.292548" lon="-4.459849">
    <name>Cale</name>
    <desc>Mise en place le 1er octobre 2016</desc>
    <type>Delivrez bookcases</type>
    <extensions>
      <osmand:color>#ff5020</osmand:color>
      <osmand:background>square</osmand:background>
      <osmand:icon>public_bookcase</osmand:icon>
    </extensions>
  </wpt>
  <wpt lat="47.817318" lon="-2.132393">
    <name>Rue du Presbytère</name>
    <desc></desc>
    <type>Delivrez bookcases</type>
    <extensions>
      <osmand:color>#ff5020</osmand:color>
      <osmand:background>square</osmand:background>
      <osmand:icon>public_bookcase</osmand:icon>
    </extensions>
  </wpt>
  <wpt lat="47.959868" lon="-2.14791">
    <name>jardin des évêques 56380 st malo de beignon</name>
    <desc></desc>
    <type>Delivrez bookcases</type>
    <extensions>
      <osmand:color>#ff5020</osmand:color>
      <osmand:background>square</osmand:background>
      <osmand:icon>public_bookcase</osmand:icon>
    </extensions>
  </wpt>
  <wpt lat="48.004878" lon="-2.094239">
    <name>Rue de Montfort</name>
    <desc></desc>
    <type>Delivrez bookcases</type>
    <extensions>
      <osmand:color>#ff5020</osmand:color>
      <osmand:background>square</osmand:background>
      <osmand:icon>public_bookcase</osmand:icon>
    </extensions>
  </wpt>
  <wpt lat="47.960743" lon="-2.170003">
    <name>Route des Etangs</name>
    <desc></desc>
    <type>Delivrez bookcases</type>
    <extensions>
      <osmand:color>#ff5020</osmand:color>
      <osmand:background>square</osmand:background>
      <osmand:icon>public_bookcase</osmand:icon>
    </extensions>
  </wpt>
  <wpt lat="47.9549" lon="-2.150213">
    <name>Rue de Bel air</name>
    <desc></desc>
    <type>Delivrez bookcases</type>
    <extensions>
      <osmand:color>#ff5020</osmand:color>
      <osmand:background>square</osmand:background>
      <osmand:icon>public_bookcase</osmand:icon>
    </extensions>
  </wpt>
  <wpt lat="47.903821" lon="-2.120354">
    <name>bibliorue</name>
    <desc></desc>
    <type>Delivrez bookcases</type>
    <extensions>
      <osmand:color>#ff5020</osmand:color>
      <osmand:background>square</osmand:background>
      <osmand:icon>public_bookcase</osmand:icon>
    </extensions>
  </wpt>
  <wpt lat="47.651864" lon="-2.757582">
    <name>Rue Ferdinand le Dressay</name>
    <desc>à côté du parc de jeux</desc>
    <type>Delivrez bookcases</type>
    <extensions>
      <osmand:color>#ff5020</osmand:color>
      <osmand:background>square</osmand:background>
      <osmand:icon>public_bookcase</osmand:icon>
    </extensions>
  </wpt>
  <wpt lat="48.712081" lon="-3.816005">
    <name>Rue du Grand Large</name>
    <desc>sois abri bus</desc>
    <type>Delivrez bookcases</type>
    <extensions>
      <osmand:color>#ff5020</osmand:color>
      <osmand:background>square</osmand:background>
      <osmand:icon>public_bookcase</osmand:icon>
    </extensions>
  </wpt>
  <wpt lat="48.154397" lon="-1.766341">
    <name>Allée de la Châtaigneraie</name>
    <desc>à l'entrée du parc</desc>
    <type>Delivrez bookcases</type>
    <extensions>
      <osmand:color>#ff5020</osmand:color>
      <osmand:background>square</osmand:background>
      <osmand:icon>public_bookcase</osmand:icon>
    </extensions>
  </wpt>
  <wpt lat="48.393988" lon="-4.131406">
    <name>Route des Monts d'Arrée</name>
    <desc>_</desc>
    <type>Delivrez bookcases</type>
    <extensions>
      <osmand:color>#ff5020</osmand:color>
      <osmand:background>square</osmand:background>
      <osmand:icon>public_bookcase</osmand:icon>
    </extensions>
  </wpt>
  <wpt lat="48.589126" lon="-2.554081">
    <name>Rue du Parc</name>
    <desc>_</desc>
    <type>Delivrez bookcases</type>
    <extensions>
      <osmand:color>#ff5020</osmand:color>
      <osmand:background>square</osmand:background>
      <osmand:icon>public_bookcase</osmand:icon>
    </extensions>
  </wpt>
  <wpt lat="48.404701" lon="-4.229448">
    <name>Route du Stum</name>
    <desc>près du terrain de foot</desc>
    <type>Delivrez bookcases</type>
    <extensions>
      <osmand:color>#ff5020</osmand:color>
      <osmand:background>square</osmand:background>
      <osmand:icon>public_bookcase</osmand:icon>
    </extensions>
  </wpt>
  <wpt lat="48.472521" lon="-4.203775">
    <name>Grande Place</name>
    <desc>proche de la pharmacie dans cabine téléphonique rouge.</desc>
    <type>Delivrez bookcases</type>
    <extensions>
      <osmand:color>#ff5020</osmand:color>
      <osmand:background>square</osmand:background>
      <osmand:icon>public_bookcase</osmand:icon>
    </extensions>
  </wpt>
  <wpt lat="48.300984" lon="-3.897036">
    <name>Le Bourg</name>
    <desc>à côté du grand pas</desc>
    <type>Delivrez bookcases</type>
    <extensions>
      <osmand:color>#ff5020</osmand:color>
      <osmand:background>square</osmand:background>
      <osmand:icon>public_bookcase</osmand:icon>
    </extensions>
  </wpt>
  <wpt lat="48.369781" lon="-4.214753">
    <name>Route de Daoulas</name>
    <desc>près de l'école et de l'abri bus</desc>
    <type>Delivrez bookcases</type>
    <extensions>
      <osmand:color>#ff5020</osmand:color>
      <osmand:background>square</osmand:background>
      <osmand:icon>public_bookcase</osmand:icon>
    </extensions>
  </wpt>
  <wpt lat="48.448042" lon="-4.241242">
    <name>Route de Pencran</name>
    <desc>Près de la mairie, l'église et l'école.</desc>
    <type>Delivrez bookcases</type>
    <extensions>
      <osmand:color>#ff5020</osmand:color>
      <osmand:background>square</osmand:background>
      <osmand:icon>public_bookcase</osmand:icon>
    </extensions>
  </wpt>
  <wpt lat="47.930993" lon="-2.394566">
    <name>petite boîte à livre bien fournie boite à livre</name>
    <desc>_</desc>
    <type>Delivrez bookcases</type>
    <extensions>
      <osmand:color>#ff5020</osmand:color>
      <osmand:background>square</osmand:background>
      <osmand:icon>public_bookcase</osmand:icon>
    </extensions>
  </wpt>
  <wpt lat="47.517609" lon="-2.580709">
    <name>Rue des Dunes</name>
    <desc>_</desc>
    <type>Delivrez bookcases</type>
    <extensions>
      <osmand:color>#ff5020</osmand:color>
      <osmand:background>square</osmand:background>
      <osmand:icon>public_bookcase</osmand:icon>
    </extensions>
  </wpt>
  <wpt lat="48.57553" lon="-2.013653">
    <name>Rue des Devants Lauriers</name>
    <desc>_</desc>
    <type>Delivrez bookcases</type>
    <extensions>
      <osmand:color>#ff5020</osmand:color>
      <osmand:background>square</osmand:background>
      <osmand:icon>public_bookcase</osmand:icon>
    </extensions>
  </wpt>
  <wpt lat="48.388467" lon="-4.525835">
    <name>Carrefour Iroise - Boulevard de Plymouth</name>
    <desc>La bibliothèque participative se trouve à l'intérieur de la galerie marchande devant le magasin Histoire d'Or</desc>
    <type>Delivrez bookcases</type>
    <extensions>
      <osmand:color>#ff5020</osmand:color>
      <osmand:background>square</osmand:background>
      <osmand:icon>public_bookcase</osmand:icon>
    </extensions>
  </wpt>
  <wpt lat="48.126646" lon="-3.717078">
    <name>Rue Nicolas le Grand</name>
    <desc>_</desc>
    <type>Delivrez bookcases</type>
    <extensions>
      <osmand:color>#ff5020</osmand:color>
      <osmand:background>square</osmand:background>
      <osmand:icon>public_bookcase</osmand:icon>
    </extensions>
  </wpt>
  <wpt lat="48.696227" lon="-3.161072">
    <name>Rue de Traou Meledern</name>
    <desc>face à l'embarquadaire @@__</desc>
    <type>Delivrez bookcases</type>
    <extensions>
      <osmand:color>#ff5020</osmand:color>
      <osmand:background>square</osmand:background>
      <osmand:icon>public_bookcase</osmand:icon>
    </extensions>
  </wpt>
  <wpt lat="47.512725" lon="-2.622792">
    <name>Rue Kerybel</name>
    <desc>_</desc>
    <type>Delivrez bookcases</type>
    <extensions>
      <osmand:color>#ff5020</osmand:color>
      <osmand:background>square</osmand:background>
      <osmand:icon>public_bookcase</osmand:icon>
    </extensions>
  </wpt>
  <wpt lat="48.69148" lon="-4.083653">
    <name>Pointe de Beg Tanguy</name>
    <desc>quai Moguierec</desc>
    <type>Delivrez bookcases</type>
    <extensions>
      <osmand:color>#ff5020</osmand:color>
      <osmand:background>square</osmand:background>
      <osmand:icon>public_bookcase</osmand:icon>
    </extensions>
  </wpt>
  <wpt lat="48.570365" lon="-1.973072">
    <name>Rue de la Grande Cohue</name>
    <desc>_</desc>
    <type>Delivrez bookcases</type>
    <extensions>
      <osmand:color>#ff5020</osmand:color>
      <osmand:background>square</osmand:background>
      <osmand:icon>public_bookcase</osmand:icon>
    </extensions>
  </wpt>
  <wpt lat="48.636664" lon="-2.109201">
    <name>Boulevard du Général de Gaulle</name>
    <desc>boîte en bois dans le parc devant la mairie</desc>
    <type>Delivrez bookcases</type>
    <extensions>
      <osmand:color>#ff5020</osmand:color>
      <osmand:background>square</osmand:background>
      <osmand:icon>public_bookcase</osmand:icon>
    </extensions>
  </wpt>
  <wpt lat="48.576281" lon="-3.825389">
    <name>Place du Dossen</name>
    <desc>boîte en bois devant la librairie</desc>
    <type>Delivrez bookcases</type>
    <extensions>
      <osmand:color>#ff5020</osmand:color>
      <osmand:background>square</osmand:background>
      <osmand:icon>public_bookcase</osmand:icon>
    </extensions>
  </wpt>
  <wpt lat="47.834493" lon="-3.400326">
    <name>Place du Treano</name>
    <desc>Déposez, empruntez, appréciez</desc>
    <type>Delivrez bookcases</type>
    <extensions>
      <osmand:color>#ff5020</osmand:color>
      <osmand:background>square</osmand:background>
      <osmand:icon>public_bookcase</osmand:icon>
    </extensions>
  </wpt>
  <wpt lat="48.560427" lon="-2.377364">
    <name>Rue de la Libération</name>
    <desc>_</desc>
    <type>Delivrez bookcases</type>
    <extensions>
      <osmand:color>#ff5020</osmand:color>
      <osmand:background>square</osmand:background>
      <osmand:icon>public_bookcase</osmand:icon>
    </extensions>
  </wpt>
  <wpt lat="48.604062" lon="-3.899992">
    <name>Place de la Mairie</name>
    <desc>La cabane à livres</desc>
    <type>Delivrez bookcases</type>
    <extensions>
      <osmand:color>#ff5020</osmand:color>
      <osmand:background>square</osmand:background>
      <osmand:icon>public_bookcase</osmand:icon>
    </extensions>
  </wpt>
  <wpt lat="47.860197" lon="-2.236642">
    <name>Rue du Verger</name>
    <desc>_</desc>
    <type>Delivrez bookcases</type>
    <extensions>
      <osmand:color>#ff5020</osmand:color>
      <osmand:background>square</osmand:background>
      <osmand:icon>public_bookcase</osmand:icon>
    </extensions>
  </wpt>
  <wpt lat="48.649272" lon="-2.027245">
    <name>Place des Frères F et Jm Lamennais</name>
    <desc>petit boîte qui ressemble à un parcmètre</desc>
    <type>Delivrez bookcases</type>
    <extensions>
      <osmand:color>#ff5020</osmand:color>
      <osmand:background>square</osmand:background>
      <osmand:icon>public_bookcase</osmand:icon>
    </extensions>
  </wpt>
  <wpt lat="47.653503" lon="-2.092238">
    <name>Rue Codilo</name>
    <desc>BD, MANGA, JEUNESSE, ROMANS</desc>
    <type>Delivrez bookcases</type>
    <extensions>
      <osmand:color>#ff5020</osmand:color>
      <osmand:background>square</osmand:background>
      <osmand:icon>public_bookcase</osmand:icon>
    </extensions>
  </wpt>
  <wpt lat="47.696011" lon="-3.249028">
    <name>Boîte à livres Plouhinec</name>
    <desc>boîte à livres en forme de champignon à côté de l'aire de jeux pour enfants@@__romans, polars, jeunesse, politique</desc>
    <type>Delivrez bookcases</type>
    <extensions>
      <osmand:color>#ff5020</osmand:color>
      <osmand:background>square</osmand:background>
      <osmand:icon>public_bookcase</osmand:icon>
    </extensions>
  </wpt>
  <wpt lat="47.846492" lon="-4.041038">
    <name>Route de la Pointe de Mousterlin</name>
    <desc>_</desc>
    <type>Delivrez bookcases</type>
    <extensions>
      <osmand:color>#ff5020</osmand:color>
      <osmand:background>square</osmand:background>
      <osmand:icon>public_bookcase</osmand:icon>
    </extensions>
  </wpt>
  <wpt lat="47.498279" lon="-2.765291">
    <name>Furibard</name>
    <desc>A la terrasse du restaurant</desc>
    <type>Delivrez bookcases</type>
    <extensions>
      <osmand:color>#ff5020</osmand:color>
      <osmand:background>square</osmand:background>
      <osmand:icon>public_bookcase</osmand:icon>
    </extensions>
  </wpt>
  <wpt lat="47.798569" lon="-4.269248">
    <name>Rue Président Allende</name>
    <desc>dans la cabine téléphonique</desc>
    <type>Delivrez bookcases</type>
    <extensions>
      <osmand:color>#ff5020</osmand:color>
      <osmand:background>square</osmand:background>
      <osmand:icon>public_bookcase</osmand:icon>
    </extensions>
  </wpt>
  <wpt lat="48.00608" lon="-1.846703">
    <name>Place Saint-Martin</name>
    <desc>_</desc>
    <type>Delivrez bookcases</type>
    <extensions>
      <osmand:color>#ff5020</osmand:color>
      <osmand:background>square</osmand:background>
      <osmand:icon>public_bookcase</osmand:icon>
    </extensions>
  </wpt>
  <wpt lat="48.696483" lon="-3.007511">
    <name>Place de la Liberté</name>
    <desc>devant l'église</desc>
    <type>Delivrez bookcases</type>
    <extensions>
      <osmand:color>#ff5020</osmand:color>
      <osmand:background>square</osmand:background>
      <osmand:icon>public_bookcase</osmand:icon>
    </extensions>
  </wpt>
  <wpt lat="48.384198" lon="-4.498547">
    <name>10 Rue de la Porte</name>
    <desc>boîte à livres sur la librairie solidaire Sapristi, alimentée régulièrement</desc>
    <type>Delivrez bookcases</type>
    <extensions>
      <osmand:color>#ff5020</osmand:color>
      <osmand:background>square</osmand:background>
      <osmand:icon>public_bookcase</osmand:icon>
    </extensions>
  </wpt>
  <wpt lat="47.823306" lon="-2.06722">
    <name>Rue Yves rocher</name>
    <desc>A côté de l'église sans une cabine téléphonique</desc>
    <type>Delivrez bookcases</type>
    <extensions>
      <osmand:color>#ff5020</osmand:color>
      <osmand:background>square</osmand:background>
      <osmand:icon>public_bookcase</osmand:icon>
    </extensions>
  </wpt>
  <wpt lat="48.173962" lon="-2.487154">
    <name>Place du 15 Juin 1944</name>
    <desc>_</desc>
    <type>Delivrez bookcases</type>
    <extensions>
      <osmand:color>#ff5020</osmand:color>
      <osmand:background>square</osmand:background>
      <osmand:icon>public_bookcase</osmand:icon>
    </extensions>
  </wpt>
  <wpt lat="47.789004" lon="-3.407534">
    <name>Rue de Kervégant</name>
    <desc>_</desc>
    <type>Delivrez bookcases</type>
    <extensions>
      <osmand:color>#ff5020</osmand:color>
      <osmand:background>square</osmand:background>
      <osmand:icon>public_bookcase</osmand:icon>
    </extensions>
  </wpt>
  <wpt lat="48.236171" lon="-2.733366">
    <name>Rue de la Poste</name>
    <desc>cabine telephonique</desc>
    <type>Delivrez bookcases</type>
    <extensions>
      <osmand:color>#ff5020</osmand:color>
      <osmand:background>square</osmand:background>
      <osmand:icon>public_bookcase</osmand:icon>
    </extensions>
  </wpt>
  <wpt lat="48.569946" lon="-1.768638">
    <name>Rue de la Mairie</name>
    <desc>juste en face de la mairie</desc>
    <type>Delivrez bookcases</type>
    <extensions>
      <osmand:color>#ff5020</osmand:color>
      <osmand:background>square</osmand:background>
      <osmand:icon>public_bookcase</osmand:icon>
    </extensions>
  </wpt>
  <wpt lat="48.347501" lon="-2.757018">
    <name>Rue Butter</name>
    <desc>cabine téléphonique. face a la pharmacie</desc>
    <type>Delivrez bookcases</type>
    <extensions>
      <osmand:color>#ff5020</osmand:color>
      <osmand:background>square</osmand:background>
      <osmand:icon>public_bookcase</osmand:icon>
    </extensions>
  </wpt>
  <wpt lat="48.110535" lon="-1.483226">
    <name>Rue de Rennes</name>
    <desc>boîte devant la mairie</desc>
    <type>Delivrez bookcases</type>
    <extensions>
      <osmand:color>#ff5020</osmand:color>
      <osmand:background>square</osmand:background>
      <osmand:icon>public_bookcase</osmand:icon>
    </extensions>
  </wpt>
  <wpt lat="48.833228" lon="-3.515659">
    <name>Boulevard du Coz-Pors</name>
    <desc>a côté du poste de secours</desc>
    <type>Delivrez bookcases</type>
    <extensions>
      <osmand:color>#ff5020</osmand:color>
      <osmand:background>square</osmand:background>
      <osmand:icon>public_bookcase</osmand:icon>
    </extensions>
  </wpt>
  <wpt lat="48.580073" lon="-3.826007">
    <name>Venelle Auguste Ropars</name>
    <desc>ancien lavoir aménagé par les habitants du quartier</desc>
    <type>Delivrez bookcases</type>
    <extensions>
      <osmand:color>#ff5020</osmand:color>
      <osmand:background>square</osmand:background>
      <osmand:icon>public_bookcase</osmand:icon>
    </extensions>
  </wpt>
  <wpt lat="48.378742" lon="-1.881178">
    <name>Sentier du halage</name>
    <desc>_</desc>
    <type>Delivrez bookcases</type>
    <extensions>
      <osmand:color>#ff5020</osmand:color>
      <osmand:background>square</osmand:background>
      <osmand:icon>public_bookcase</osmand:icon>
    </extensions>
  </wpt>
  <wpt lat="48.657078" lon="-4.208111">
    <name>Corn Arscourn</name>
    <desc>Au club de char a voil</desc>
    <type>Delivrez bookcases</type>
    <extensions>
      <osmand:color>#ff5020</osmand:color>
      <osmand:background>square</osmand:background>
      <osmand:icon>public_bookcase</osmand:icon>
    </extensions>
  </wpt>
  <wpt lat="48.376226" lon="-4.300802">
    <name>Route du Fogot</name>
    <desc>_</desc>
    <type>Delivrez bookcases</type>
    <extensions>
      <osmand:color>#ff5020</osmand:color>
      <osmand:background>square</osmand:background>
      <osmand:icon>public_bookcase</osmand:icon>
    </extensions>
  </wpt>
  <wpt lat="48.658926" lon="-4.217366">
    <name>Rue Pen an Theven</name>
    <desc>A l'entrée du camping</desc>
    <type>Delivrez bookcases</type>
    <extensions>
      <osmand:color>#ff5020</osmand:color>
      <osmand:background>square</osmand:background>
      <osmand:icon>public_bookcase</osmand:icon>
    </extensions>
  </wpt>
  <wpt lat="48.662249" lon="-4.21514">
    <name>Rue ar Mor</name>
    <desc>Entre le resto et la plage</desc>
    <type>Delivrez bookcases</type>
    <extensions>
      <osmand:color>#ff5020</osmand:color>
      <osmand:background>square</osmand:background>
      <osmand:icon>public_bookcase</osmand:icon>
    </extensions>
  </wpt>
  <wpt lat="48.66675" lon="-4.212933">
    <name>Rue de la Digue</name>
    <desc>En bord de plage. Centre nautique.</desc>
    <type>Delivrez bookcases</type>
    <extensions>
      <osmand:color>#ff5020</osmand:color>
      <osmand:background>square</osmand:background>
      <osmand:icon>public_bookcase</osmand:icon>
    </extensions>
  </wpt>
  <wpt lat="48.692244" lon="-4.120723">
    <name>Poulennou</name>
    <desc>à l'entrée du camping municipal de Poulannou</desc>
    <type>Delivrez bookcases</type>
    <extensions>
      <osmand:color>#ff5020</osmand:color>
      <osmand:background>square</osmand:background>
      <osmand:icon>public_bookcase</osmand:icon>
    </extensions>
  </wpt>
  <wpt lat="48.296858" lon="-4.181129">
    <name>Le Quai</name>
    <desc>juste à côté du bar La Terrasse</desc>
    <type>Delivrez bookcases</type>
    <extensions>
      <osmand:color>#ff5020</osmand:color>
      <osmand:background>square</osmand:background>
      <osmand:icon>public_bookcase</osmand:icon>
    </extensions>
  </wpt>
  <wpt lat="48.296805" lon="-4.225039">
    <name>Place de la Chapelle de Lanvoy</name>
    <desc>sous l'abri en bois</desc>
    <type>Delivrez bookcases</type>
    <extensions>
      <osmand:color>#ff5020</osmand:color>
      <osmand:background>square</osmand:background>
      <osmand:icon>public_bookcase</osmand:icon>
    </extensions>
  </wpt>
  <wpt lat="48.663425" lon="-2.872387">
    <name>Place du Bourg</name>
    <desc>Dans abri bus</desc>
    <type>Delivrez bookcases</type>
    <extensions>
      <osmand:color>#ff5020</osmand:color>
      <osmand:background>square</osmand:background>
      <osmand:icon>public_bookcase</osmand:icon>
    </extensions>
  </wpt>
  <wpt lat="48.671399" lon="-4.327845">
    <name>Rue de Keravezan</name>
    <desc>_</desc>
    <type>Delivrez bookcases</type>
    <extensions>
      <osmand:color>#ff5020</osmand:color>
      <osmand:background>square</osmand:background>
      <osmand:icon>public_bookcase</osmand:icon>
    </extensions>
  </wpt>
  <wpt lat="48.664664" lon="-4.326745">
    <name>Rue de Naot Hir</name>
    <desc>_</desc>
    <type>Delivrez bookcases</type>
    <extensions>
      <osmand:color>#ff5020</osmand:color>
      <osmand:background>square</osmand:background>
      <osmand:icon>public_bookcase</osmand:icon>
    </extensions>
  </wpt>
  <wpt lat="48.667102" lon="-4.319425">
    <name>Rue de la Corniche</name>
    <desc>_</desc>
    <type>Delivrez bookcases</type>
    <extensions>
      <osmand:color>#ff5020</osmand:color>
      <osmand:background>square</osmand:background>
      <osmand:icon>public_bookcase</osmand:icon>
    </extensions>
  </wpt>
  <wpt lat="48.650472" lon="-4.316458">
    <name>Rue des Écoles</name>
    <desc>_</desc>
    <type>Delivrez bookcases</type>
    <extensions>
      <osmand:color>#ff5020</osmand:color>
      <osmand:background>square</osmand:background>
      <osmand:icon>public_bookcase</osmand:icon>
    </extensions>
  </wpt>
  <wpt lat="48.515161" lon="-4.216266">
    <name>Rue du Penker</name>
    <desc>Une boîte hibou</desc>
    <type>Delivrez bookcases</type>
    <extensions>
      <osmand:color>#ff5020</osmand:color>
      <osmand:background>square</osmand:background>
      <osmand:icon>public_bookcase</osmand:icon>
    </extensions>
  </wpt>
  <wpt lat="48.801526" lon="-3.031864">
    <name>Rue Adrien Rebours</name>
    <desc>Jolie boîte bien achalandée</desc>
    <type>Delivrez bookcases</type>
    <extensions>
      <osmand:color>#ff5020</osmand:color>
      <osmand:background>square</osmand:background>
      <osmand:icon>public_bookcase</osmand:icon>
    </extensions>
  </wpt>
  <wpt lat="48.2861" lon="-1.24567">
    <name>VIVAL BILLE</name>
    <desc>Little Free Library</desc>
    <type>Delivrez bookcases</type>
    <extensions>
      <osmand:color>#ff5020</osmand:color>
      <osmand:background>square</osmand:background>
      <osmand:icon>public_bookcase</osmand:icon>
    </extensions>
  </wpt>
  <wpt lat="48.2839" lon="-1.11849">
    <name>VIVAL LUITRE</name>
    <desc>Little Free Library</desc>
    <type>Delivrez bookcases</type>
    <extensions>
      <osmand:color>#ff5020</osmand:color>
      <osmand:background>square</osmand:background>
      <osmand:icon>public_bookcase</osmand:icon>
    </extensions>
  </wpt>
  <wpt lat="48.81479" lon="-3.35845">
    <name>VIVAL TREVOU TREGUIGNEC</name>
    <desc>Little Free Library</desc>
    <type>Delivrez bookcases</type>
    <extensions>
      <osmand:color>#ff5020</osmand:color>
      <osmand:background>square</osmand:background>
      <osmand:icon>public_bookcase</osmand:icon>
    </extensions>
  </wpt>
  <wpt lat="47.52111" lon="-3.14666">
    <name>VIVAL SAUZON</name>
    <desc>Little Free Library</desc>
    <type>Delivrez bookcases</type>
    <extensions>
      <osmand:color>#ff5020</osmand:color>
      <osmand:background>square</osmand:background>
      <osmand:icon>public_bookcase</osmand:icon>
    </extensions>
  </wpt>
  <wpt lat="48.46236" lon="-3.969369">
    <name>Route du Quinquis</name>
    <desc>_</desc>
    <type>Delivrez bookcases</type>
    <extensions>
      <osmand:color>#ff5020</osmand:color>
      <osmand:background>square</osmand:background>
      <osmand:icon>public_bookcase</osmand:icon>
    </extensions>
  </wpt>
  <wpt lat="48.10494" lon="-1.681684">
    <name>Place du Colombier</name>
    <desc>près de  Nature et Decouvertes</desc>
    <type>Delivrez bookcases</type>
    <extensions>
      <osmand:color>#ff5020</osmand:color>
      <osmand:background>square</osmand:background>
      <osmand:icon>public_bookcase</osmand:icon>
    </extensions>
  </wpt>
  <wpt lat="48.433581" lon="-4.729303">
    <name>Route de Saint-Renan</name>
    <desc>médiathèque</desc>
    <type>Delivrez bookcases</type>
    <extensions>
      <osmand:color>#ff5020</osmand:color>
      <osmand:background>square</osmand:background>
      <osmand:icon>public_bookcase</osmand:icon>
    </extensions>
  </wpt>
  <wpt lat="48.462037" lon="-4.571732">
    <name>Rue du Ponant</name>
    <desc>_</desc>
    <type>Delivrez bookcases</type>
    <extensions>
      <osmand:color>#ff5020</osmand:color>
      <osmand:background>square</osmand:background>
      <osmand:icon>public_bookcase</osmand:icon>
    </extensions>
  </wpt>
  <wpt lat="48.000032" lon="-1.667161">
    <name>Rue de Rennes</name>
    <desc>_</desc>
    <type>Delivrez bookcases</type>
    <extensions>
      <osmand:color>#ff5020</osmand:color>
      <osmand:background>square</osmand:background>
      <osmand:icon>public_bookcase</osmand:icon>
    </extensions>
  </wpt>
  <wpt lat="48.117077" lon="-1.210197">
    <name>boulevard Chateaubriant</name>
    <desc>La boite à livres se situe dans le jardin du parc, a mi-chemin entre la statue de Madame de Sévigné et la Volière</desc>
    <type>Delivrez bookcases</type>
    <extensions>
      <osmand:color>#ff5020</osmand:color>
      <osmand:background>square</osmand:background>
      <osmand:icon>public_bookcase</osmand:icon>
    </extensions>
  </wpt>
  <wpt lat="48.110844" lon="-1.481649">
    <name>PLACE DE L EGLISE</name>
    <desc></desc>
    <type>Delivrez bookcases</type>
    <extensions>
      <osmand:color>#ff5020</osmand:color>
      <osmand:background>square</osmand:background>
      <osmand:icon>public_bookcase</osmand:icon>
    </extensions>
  </wpt>
  <wpt lat="48.327657" lon="-4.159604">
    <name>Rue Urbain de Quelen</name>
    <desc></desc>
    <type>Delivrez bookcases</type>
    <extensions>
      <osmand:color>#ff5020</osmand:color>
      <osmand:background>square</osmand:background>
      <osmand:icon>public_bookcase</osmand:icon>
    </extensions>
  </wpt>
  <wpt lat="48.432382" lon="-2.119894">
    <name>Rue du Centre</name>
    <desc>Située en face de la boulangerie</desc>
    <type>Delivrez bookcases</type>
    <extensions>
      <osmand:color>#ff5020</osmand:color>
      <osmand:background>square</osmand:background>
      <osmand:icon>public_bookcase</osmand:icon>
    </extensions>
  </wpt>
  <wpt lat="47.937338" lon="-1.662922">
    <name>Rue Bernard Picoult</name>
    <desc>La boîte se trouve juste en face de l entrée de la boulangerie Le Moulin Crevinois.</desc>
    <type>Delivrez bookcases</type>
    <extensions>
      <osmand:color>#ff5020</osmand:color>
      <osmand:background>square</osmand:background>
      <osmand:icon>public_bookcase</osmand:icon>
    </extensions>
  </wpt>
  <wpt lat="48.630215" lon="-3.300423">
    <name>10 rue de l'hôtel de ville</name>
    <desc>La boite à lire se trouve dans l'entrée d'une boutique de vêtements.</desc>
    <type>Delivrez bookcases</type>
    <extensions>
      <osmand:color>#ff5020</osmand:color>
      <osmand:background>square</osmand:background>
      <osmand:icon>public_bookcase</osmand:icon>
    </extensions>
  </wpt>
  <wpt lat="47.788001" lon="-3.702844">
    <name>Plage de Trénez</name>
    <desc></desc>
    <type>Delivrez bookcases</type>
    <extensions>
      <osmand:color>#ff5020</osmand:color>
      <osmand:background>square</osmand:background>
      <osmand:icon>public_bookcase</osmand:icon>
    </extensions>
  </wpt>
  <wpt lat="47.81437" lon="-3.629023">
    <name>Place de l'église</name>
    <desc>Situéesous les halles. Ces boites ont été créées par les jeunes de lEspace Jeunes de la commune en 2016</desc>
    <type>Delivrez bookcases</type>
    <extensions>
      <osmand:color>#ff5020</osmand:color>
      <osmand:background>square</osmand:background>
      <osmand:icon>public_bookcase</osmand:icon>
    </extensions>
  </wpt>
  <wpt lat="48.115299" lon="-1.678918">
    <name>20 Rue d'Antrain</name>
    <desc>Dans le restaurant le Coucou Rennais : Espace de gratuité avec tout un tas de choses et des livres !</desc>
    <type>Delivrez bookcases</type>
    <extensions>
      <osmand:color>#ff5020</osmand:color>
      <osmand:background>square</osmand:background>
      <osmand:icon>public_bookcase</osmand:icon>
    </extensions>
  </wpt>
  <wpt lat="48.522957" lon="-2.230329">
    <name>Quai du Duc d'Aiguillon</name>
    <desc></desc>
    <type>Delivrez bookcases</type>
    <extensions>
      <osmand:color>#ff5020</osmand:color>
      <osmand:background>square</osmand:background>
      <osmand:icon>public_bookcase</osmand:icon>
    </extensions>
  </wpt>
  <wpt lat="48.658157" lon="-4.175206">
    <name>5 rue des halles</name>
    <desc>La boite à lire se trouve juste à coté de l'office du tourisme de Plouescat</desc>
    <type>Delivrez bookcases</type>
    <extensions>
      <osmand:color>#ff5020</osmand:color>
      <osmand:background>square</osmand:background>
      <osmand:icon>public_bookcase</osmand:icon>
    </extensions>
  </wpt>
  <wpt lat="48.687407" lon="-4.167347">
    <name>Lieu-dit Poulfoën</name>
    <desc>A l'entrée du camping de Poulfoën</desc>
    <type>Delivrez bookcases</type>
    <extensions>
      <osmand:color>#ff5020</osmand:color>
      <osmand:background>square</osmand:background>
      <osmand:icon>public_bookcase</osmand:icon>
    </extensions>
  </wpt>
  <wpt lat="48.659572" lon="-4.213347">
    <name>Plage de Porsmeur</name>
    <desc>La boite à lire se trouve sur le bord de la route juste à cote du centre nautique de plouescat</desc>
    <type>Delivrez bookcases</type>
    <extensions>
      <osmand:color>#ff5020</osmand:color>
      <osmand:background>square</osmand:background>
      <osmand:icon>public_bookcase</osmand:icon>
    </extensions>
  </wpt>
  <wpt lat="48.380588" lon="-4.600173">
    <name>Ecole primaire de Kroas-Saliou, Castel-Nevez</name>
    <desc>Projet propre à école</desc>
    <type>Delivrez bookcases</type>
    <extensions>
      <osmand:color>#ff5020</osmand:color>
      <osmand:background>square</osmand:background>
      <osmand:icon>public_bookcase</osmand:icon>
    </extensions>
  </wpt>
  <wpt lat="48.114085" lon="-4.12137">
    <name>hent park marichal kemeneven</name>
    <desc></desc>
    <type>Delivrez bookcases</type>
    <extensions>
      <osmand:color>#ff5020</osmand:color>
      <osmand:background>square</osmand:background>
      <osmand:icon>public_bookcase</osmand:icon>
    </extensions>
  </wpt>
  <wpt lat="48.319646" lon="-1.832164">
    <name>la reinais</name>
    <desc></desc>
    <type>Delivrez bookcases</type>
    <extensions>
      <osmand:color>#ff5020</osmand:color>
      <osmand:background>square</osmand:background>
      <osmand:icon>public_bookcase</osmand:icon>
    </extensions>
  </wpt>
  <wpt lat="48.32941" lon="-1.835034">
    <name>place andré ferré</name>
    <desc></desc>
    <type>Delivrez bookcases</type>
    <extensions>
      <osmand:color>#ff5020</osmand:color>
      <osmand:background>square</osmand:background>
      <osmand:icon>public_bookcase</osmand:icon>
    </extensions>
  </wpt>
  <wpt lat="48.330033" lon="-1.835899">
    <name>Médiathèque</name>
    <desc>Derrière la médiathèque</desc>
    <type>Delivrez bookcases</type>
    <extensions>
      <osmand:color>#ff5020</osmand:color>
      <osmand:background>square</osmand:background>
      <osmand:icon>public_bookcase</osmand:icon>
    </extensions>
  </wpt>
  <wpt lat="48.330025" lon="-1.842886">
    <name>rue francoise leroux</name>
    <desc>dans le lotissement derrière les commerces</desc>
    <type>Delivrez bookcases</type>
    <extensions>
      <osmand:color>#ff5020</osmand:color>
      <osmand:background>square</osmand:background>
      <osmand:icon>public_bookcase</osmand:icon>
    </extensions>
  </wpt>
  <wpt lat="48.661969" lon="-2.347738">
    <name>cours de l école</name>
    <desc></desc>
    <type>Delivrez bookcases</type>
    <extensions>
      <osmand:color>#ff5020</osmand:color>
      <osmand:background>square</osmand:background>
      <osmand:icon>public_bookcase</osmand:icon>
    </extensions>
  </wpt>
  <wpt lat="48.142324" lon="-1.898376">
    <name>rue des sentiers</name>
    <desc>dans une cabine téléphonique a la sortie du bourg vers la gare</desc>
    <type>Delivrez bookcases</type>
    <extensions>
      <osmand:color>#ff5020</osmand:color>
      <osmand:background>square</osmand:background>
      <osmand:icon>public_bookcase</osmand:icon>
    </extensions>
  </wpt>
  <wpt lat="48.191807" lon="-1.828186">
    <name>rue principale</name>
    <desc>aupres bibliotheque</desc>
    <type>Delivrez bookcases</type>
    <extensions>
      <osmand:color>#ff5020</osmand:color>
      <osmand:background>square</osmand:background>
      <osmand:icon>public_bookcase</osmand:icon>
    </extensions>
  </wpt>
  <wpt lat="48.454855" lon="-2.027348">
    <name>RUE CENTRALE</name>
    <desc>entre l Ehpad Louis-Gautier et l'église</desc>
    <type>Delivrez bookcases</type>
    <extensions>
      <osmand:color>#ff5020</osmand:color>
      <osmand:background>square</osmand:background>
      <osmand:icon>public_bookcase</osmand:icon>
    </extensions>
  </wpt>
  <wpt lat="48.070651" lon="-1.932782">
    <name>LE VERGER</name>
    <desc>sur le site du bassin d orage, dit le Verger et de l'ancienne mairie</desc>
    <type>Delivrez bookcases</type>
    <extensions>
      <osmand:color>#ff5020</osmand:color>
      <osmand:background>square</osmand:background>
      <osmand:icon>public_bookcase</osmand:icon>
    </extensions>
  </wpt>
  <wpt lat="48.465285" lon="-2.087499">
    <name>SALLE DES FETES</name>
    <desc></desc>
    <type>Delivrez bookcases</type>
    <extensions>
      <osmand:color>#ff5020</osmand:color>
      <osmand:background>square</osmand:background>
      <osmand:icon>public_bookcase</osmand:icon>
    </extensions>
  </wpt>
  <wpt lat="48.601734" lon="-2.189176">
    <name>place Charles Bettaux</name>
    <desc></desc>
    <type>Delivrez bookcases</type>
    <extensions>
      <osmand:color>#ff5020</osmand:color>
      <osmand:background>square</osmand:background>
      <osmand:icon>public_bookcase</osmand:icon>
    </extensions>
  </wpt>
  <wpt lat="48.403151" lon="-1.329665">
    <name>2 rue Amand Dagnet</name>
    <desc>Boite à livre à l entrée du local d'une Boutique sans Argent. Elle est abrité sous un abri vitré ouvert en permanence.Informations :  Association Recycl'Roch - https://www.facebook.com/RecyclRoch/</desc>
    <type>Delivrez bookcases</type>
    <extensions>
      <osmand:color>#ff5020</osmand:color>
      <osmand:background>square</osmand:background>
      <osmand:icon>public_bookcase</osmand:icon>
    </extensions>
  </wpt>
  <wpt lat="47.54249" lon="-2.87996">
    <name>Supermarché UNICO, rond-point de Kerjouanno</name>
    <desc>La boite à Livres est dans l entrée du magasin, toujours des livres et beaucoup de renouvellement surtout en été</desc>
    <type>Delivrez bookcases</type>
    <extensions>
      <osmand:color>#ff5020</osmand:color>
      <osmand:background>square</osmand:background>
      <osmand:icon>public_bookcase</osmand:icon>
    </extensions>
  </wpt>
  <wpt lat="48.009985" lon="-1.430965">
    <name>5 rue de chaumere</name>
    <desc>La boite à lire se trouve à côté du cabinet de réflexologie.</desc>
    <type>Delivrez bookcases</type>
    <extensions>
      <osmand:color>#ff5020</osmand:color>
      <osmand:background>square</osmand:background>
      <osmand:icon>public_bookcase</osmand:icon>
    </extensions>
  </wpt>
  <wpt lat="48.117259" lon="-1.603746">
    <name>Place du marché</name>
    <desc>Près du parking, à l'entrée du parc de Bourgchevreuil</desc>
    <type>Delivrez bookcases</type>
    <extensions>
      <osmand:color>#ff5020</osmand:color>
      <osmand:background>square</osmand:background>
      <osmand:icon>public_bookcase</osmand:icon>
    </extensions>
  </wpt>
  <wpt lat="48.015971" lon="-4.361235">
    <name>Résidence du Goyen</name>
    <desc>Située près de la mairie</desc>
    <type>Delivrez bookcases</type>
    <extensions>
      <osmand:color>#ff5020</osmand:color>
      <osmand:background>square</osmand:background>
      <osmand:icon>public_bookcase</osmand:icon>
    </extensions>
  </wpt>
  <wpt lat="47.578434" lon="-2.356902">
    <name>Rue saint Michel</name>
    <desc>Boîte à livres.</desc>
    <type>Delivrez bookcases</type>
    <extensions>
      <osmand:color>#ff5020</osmand:color>
      <osmand:background>square</osmand:background>
      <osmand:icon>public_bookcase</osmand:icon>
    </extensions>
  </wpt>
  <wpt lat="47.737034" lon="-3.232055">
    <name>Rue de la Mairie</name>
    <desc>Belle boîte à lire, juste devant la poste, dans une belle cabine téléphonique peinte en rouge et aménagée eprès pour l occasion.</desc>
    <type>Delivrez bookcases</type>
    <extensions>
      <osmand:color>#ff5020</osmand:color>
      <osmand:background>square</osmand:background>
      <osmand:icon>public_bookcase</osmand:icon>
    </extensions>
  </wpt>
  <wpt lat="47.814493" lon="-4.333261">
    <name>Rue Edmond Michel</name>
    <desc>Adossée à la maison pour tous, a côté de la poste.</desc>
    <type>Delivrez bookcases</type>
    <extensions>
      <osmand:color>#ff5020</osmand:color>
      <osmand:background>square</osmand:background>
      <osmand:icon>public_bookcase</osmand:icon>
    </extensions>
  </wpt>
  <wpt lat="48.184018" lon="-1.437854">
    <name>1 Rue Théophile Rémond</name>
    <desc>Boîte à lire tout public dans une cabine téléphonique Anglaise. Cette cabine téléphonique a été offerte par une ville Anglaise avec laquelle nous sommes jumellés.</desc>
    <type>Delivrez bookcases</type>
    <extensions>
      <osmand:color>#ff5020</osmand:color>
      <osmand:background>square</osmand:background>
      <osmand:icon>public_bookcase</osmand:icon>
    </extensions>
  </wpt>
  <wpt lat="48.513234" lon="-2.758551">
    <name>Allée des promenades</name>
    <desc>C est une boîte qui se trouve contre la clôture du Parc des Promenades, au niveau de l'entrée.</desc>
    <type>Delivrez bookcases</type>
    <extensions>
      <osmand:color>#ff5020</osmand:color>
      <osmand:background>square</osmand:background>
      <osmand:icon>public_bookcase</osmand:icon>
    </extensions>
  </wpt>
  <wpt lat="48.293622" lon="-4.177765">
    <name>Parc de Goarem Goz</name>
    <desc></desc>
    <type>Delivrez bookcases</type>
    <extensions>
      <osmand:color>#ff5020</osmand:color>
      <osmand:background>square</osmand:background>
      <osmand:icon>public_bookcase</osmand:icon>
    </extensions>
  </wpt>
  <wpt lat="48.534142" lon="-3.792132">
    <name>rue Yves Léon</name>
    <desc>Près de l aire de jeux.</desc>
    <type>Delivrez bookcases</type>
    <extensions>
      <osmand:color>#ff5020</osmand:color>
      <osmand:background>square</osmand:background>
      <osmand:icon>public_bookcase</osmand:icon>
    </extensions>
  </wpt>
  <wpt lat="48.215506" lon="-1.891873">
    <name>au pied de l eglise</name>
    <desc>dans une ancienne cabine téléphonique</desc>
    <type>Delivrez bookcases</type>
    <extensions>
      <osmand:color>#ff5020</osmand:color>
      <osmand:background>square</osmand:background>
      <osmand:icon>public_bookcase</osmand:icon>
    </extensions>
  </wpt>
  <wpt lat="48.201022" lon="-2.046462">
    <name>Place du Marché</name>
    <desc></desc>
    <type>Delivrez bookcases</type>
    <extensions>
      <osmand:color>#ff5020</osmand:color>
      <osmand:background>square</osmand:background>
      <osmand:icon>public_bookcase</osmand:icon>
    </extensions>
  </wpt>
  <wpt lat="48.34706" lon="-2.26315">
    <name>devant la supérette</name>
    <desc></desc>
    <type>Delivrez bookcases</type>
    <extensions>
      <osmand:color>#ff5020</osmand:color>
      <osmand:background>square</osmand:background>
      <osmand:icon>public_bookcase</osmand:icon>
    </extensions>
  </wpt>
  <wpt lat="48.640268" lon="-3.822343">
    <name>20 place du Bourg,</name>
    <desc>Armoire sous un abri, contre le mur de la Bibliothèque.</desc>
    <type>Delivrez bookcases</type>
    <extensions>
      <osmand:color>#ff5020</osmand:color>
      <osmand:background>square</osmand:background>
      <osmand:icon>public_bookcase</osmand:icon>
    </extensions>
  </wpt>
  <wpt lat="48.117342" lon="-1.70752">
    <name>Place Clara Zetkin</name>
    <desc>Le frigo à livres se situe juste à côté de l entrée des Ateliers du Vent.</desc>
    <type>Delivrez bookcases</type>
    <extensions>
      <osmand:color>#ff5020</osmand:color>
      <osmand:background>square</osmand:background>
      <osmand:icon>public_bookcase</osmand:icon>
    </extensions>
  </wpt>
  <wpt lat="47.795818" lon="-3.58491">
    <name>place de l église</name>
    <desc>la boite a livre se situe sur le coté de l église, près de la petite entrée.</desc>
    <type>Delivrez bookcases</type>
    <extensions>
      <osmand:color>#ff5020</osmand:color>
      <osmand:background>square</osmand:background>
      <osmand:icon>public_bookcase</osmand:icon>
    </extensions>
  </wpt>
  <wpt lat="48.454315" lon="-2.048305">
    <name>Place Duclos Pinot</name>
    <desc>Boite à lire qui tourne beaucoup contre le mur de la mairie</desc>
    <type>Delivrez bookcases</type>
    <extensions>
      <osmand:color>#ff5020</osmand:color>
      <osmand:background>square</osmand:background>
      <osmand:icon>public_bookcase</osmand:icon>
    </extensions>
  </wpt>
  <wpt lat="48.459302" lon="-2.049233">
    <name>10 rue Lécuyer</name>
    <desc>En face du noz, dans le parc</desc>
    <type>Delivrez bookcases</type>
    <extensions>
      <osmand:color>#ff5020</osmand:color>
      <osmand:background>square</osmand:background>
      <osmand:icon>public_bookcase</osmand:icon>
    </extensions>
  </wpt>
  <wpt lat="48.455555" lon="-2.040719">
    <name>10 rue du Petit Fort</name>
    <desc>La petite armoire protégée au niveau du lavoir</desc>
    <type>Delivrez bookcases</type>
    <extensions>
      <osmand:color>#ff5020</osmand:color>
      <osmand:background>square</osmand:background>
      <osmand:icon>public_bookcase</osmand:icon>
    </extensions>
  </wpt>
  <wpt lat="47.644505" lon="-2.699137">
    <name>2 rue surcouf</name>
    <desc>L Hotel Inn vous propose une bibliotheque participative ou les clients, ou les gens de passage, prennent ou laissent leurs livres voyageurs.Ouvert de 6h a 22hlibre d'acces</desc>
    <type>Delivrez bookcases</type>
    <extensions>
      <osmand:color>#ff5020</osmand:color>
      <osmand:background>square</osmand:background>
      <osmand:icon>public_bookcase</osmand:icon>
    </extensions>
  </wpt>
  <wpt lat="48.63662" lon="-2.939436">
    <name>Place du bourg</name>
    <desc>Ancienne cabine téléphonique réhabilitée en boite à livres.</desc>
    <type>Delivrez bookcases</type>
    <extensions>
      <osmand:color>#ff5020</osmand:color>
      <osmand:background>square</osmand:background>
      <osmand:icon>public_bookcase</osmand:icon>
    </extensions>
  </wpt>
  <wpt lat="47.619551" lon="-2.916694">
    <name>rue du poulic</name>
    <desc>A la sortie de la boulangerie entre la rue Bernard Layec et la rue du Poulic</desc>
    <type>Delivrez bookcases</type>
    <extensions>
      <osmand:color>#ff5020</osmand:color>
      <osmand:background>square</osmand:background>
      <osmand:icon>public_bookcase</osmand:icon>
    </extensions>
  </wpt>
  <wpt lat="48.181324" lon="-1.732004">
    <name>jardin de la rosière</name>
    <desc>La boite est à coté du presbytère</desc>
    <type>Delivrez bookcases</type>
    <extensions>
      <osmand:color>#ff5020</osmand:color>
      <osmand:background>square</osmand:background>
      <osmand:icon>public_bookcase</osmand:icon>
    </extensions>
  </wpt>
  <wpt lat="48.249129" lon="-1.659485">
    <name>LA MAIRIE</name>
    <desc>La boite est à coté de la mairie</desc>
    <type>Delivrez bookcases</type>
    <extensions>
      <osmand:color>#ff5020</osmand:color>
      <osmand:background>square</osmand:background>
      <osmand:icon>public_bookcase</osmand:icon>
    </extensions>
  </wpt>
  <wpt lat="48.262153" lon="-1.602737">
    <name>rue de l étang</name>
    <desc>LA CABANE EST SITUEE AU BORD DE L ETANG</desc>
    <type>Delivrez bookcases</type>
    <extensions>
      <osmand:color>#ff5020</osmand:color>
      <osmand:background>square</osmand:background>
      <osmand:icon>public_bookcase</osmand:icon>
    </extensions>
  </wpt>
  <wpt lat="48.090037" lon="-1.617331">
    <name>22 rue de picardie</name>
    <desc>la boite est sur le trottoir</desc>
    <type>Delivrez bookcases</type>
    <extensions>
      <osmand:color>#ff5020</osmand:color>
      <osmand:background>square</osmand:background>
      <osmand:icon>public_bookcase</osmand:icon>
    </extensions>
  </wpt>
  <wpt lat="48.085564" lon="-1.606661">
    <name>14 allée jean cocteau</name>
    <desc>LA BOITE EST SUR LE TROTTOIR</desc>
    <type>Delivrez bookcases</type>
    <extensions>
      <osmand:color>#ff5020</osmand:color>
      <osmand:background>square</osmand:background>
      <osmand:icon>public_bookcase</osmand:icon>
    </extensions>
  </wpt>
  <wpt lat="48.082802" lon="-1.61882">
    <name>29 RUE DU VERGER</name>
    <desc>Elle est située sur le trottoir</desc>
    <type>Delivrez bookcases</type>
    <extensions>
      <osmand:color>#ff5020</osmand:color>
      <osmand:background>square</osmand:background>
      <osmand:icon>public_bookcase</osmand:icon>
    </extensions>
  </wpt>
  <wpt lat="48.383182" lon="-1.745645">
    <name>24 RUE PETIT CHAMPS</name>
    <desc>Elle est située  sur le trottoir</desc>
    <type>Delivrez bookcases</type>
    <extensions>
      <osmand:color>#ff5020</osmand:color>
      <osmand:background>square</osmand:background>
      <osmand:icon>public_bookcase</osmand:icon>
    </extensions>
  </wpt>
  <wpt lat="48.151546" lon="-1.823089">
    <name>L étang</name>
    <desc>La cabane est située au bord de l  étang</desc>
    <type>Delivrez bookcases</type>
    <extensions>
      <osmand:color>#ff5020</osmand:color>
      <osmand:background>square</osmand:background>
      <osmand:icon>public_bookcase</osmand:icon>
    </extensions>
  </wpt>
  <wpt lat="48.094048" lon="-1.773835">
    <name>74, route nationale</name>
    <desc>C est une cabine téléphonique à coté d 'un arret de bus</desc>
    <type>Delivrez bookcases</type>
    <extensions>
      <osmand:color>#ff5020</osmand:color>
      <osmand:background>square</osmand:background>
      <osmand:icon>public_bookcase</osmand:icon>
    </extensions>
  </wpt>
  <wpt lat="48.043253" lon="-1.695728">
    <name>MAIRIE</name>
    <desc>ELLE EST SITUEE A GAUCHE DE LA MAIRIE</desc>
    <type>Delivrez bookcases</type>
    <extensions>
      <osmand:color>#ff5020</osmand:color>
      <osmand:background>square</osmand:background>
      <osmand:icon>public_bookcase</osmand:icon>
    </extensions>
  </wpt>
  <wpt lat="48.124179" lon="-1.816938">
    <name>PRESBYTERE</name>
    <desc>LA BOITE EST SITUEE DEVANT LE PRESBYTERE</desc>
    <type>Delivrez bookcases</type>
    <extensions>
      <osmand:color>#ff5020</osmand:color>
      <osmand:background>square</osmand:background>
      <osmand:icon>public_bookcase</osmand:icon>
    </extensions>
  </wpt>
  <wpt lat="48.126465" lon="-1.663636">
    <name>11C place du gros chene</name>
    <desc>A L  ENTREE DU CCAS DE MAUREPAS</desc>
    <type>Delivrez bookcases</type>
    <extensions>
      <osmand:color>#ff5020</osmand:color>
      <osmand:background>square</osmand:background>
      <osmand:icon>public_bookcase</osmand:icon>
    </extensions>
  </wpt>
  <wpt lat="48.233883" lon="-2.374593">
    <name>Le bourg</name>
    <desc></desc>
    <type>Delivrez bookcases</type>
    <extensions>
      <osmand:color>#ff5020</osmand:color>
      <osmand:background>square</osmand:background>
      <osmand:icon>public_bookcase</osmand:icon>
    </extensions>
  </wpt>
  <wpt lat="48.574055" lon="-4.326416">
    <name>Rue st yves</name>
    <desc>La boîte à livres se trouve derrière le city stade, sur le parking de l ancienne caserne de pompiers</desc>
    <type>Delivrez bookcases</type>
    <extensions>
      <osmand:color>#ff5020</osmand:color>
      <osmand:background>square</osmand:background>
      <osmand:icon>public_bookcase</osmand:icon>
    </extensions>
  </wpt>
  <wpt lat="48.095435" lon="-1.692428">
    <name>23 bis rue Joseph Boussin</name>
    <desc>Boite à livre bien fournie, aussi bien en livres pour adultes qu'en livres pour adolescents.</desc>
    <type>Delivrez bookcases</type>
    <extensions>
      <osmand:color>#ff5020</osmand:color>
      <osmand:background>square</osmand:background>
      <osmand:icon>public_bookcase</osmand:icon>
    </extensions>
  </wpt>
  <wpt lat="47.973285" lon="-4.093812">
    <name>18 Avenue de la Plage des Gueux</name>
    <desc>A l intérieur de la fac, en face des amphithéâtres</desc>
    <type>Delivrez bookcases</type>
    <extensions>
      <osmand:color>#ff5020</osmand:color>
      <osmand:background>square</osmand:background>
      <osmand:icon>public_bookcase</osmand:icon>
    </extensions>
  </wpt>
  <wpt lat="48.104254" lon="-3.977959">
    <name>Mairie</name>
    <desc>Devant la mairie.</desc>
    <type>Delivrez bookcases</type>
    <extensions>
      <osmand:color>#ff5020</osmand:color>
      <osmand:background>square</osmand:background>
      <osmand:icon>public_bookcase</osmand:icon>
    </extensions>
  </wpt>
  <wpt lat="47.654938" lon="-2.754542">
    <name>jardin de la garenne</name>
    <desc>Elle se trouve dans le jardin de la garenne du côté des jeux pour enfants</desc>
    <type>Delivrez bookcases</type>
    <extensions>
      <osmand:color>#ff5020</osmand:color>
      <osmand:background>square</osmand:background>
      <osmand:icon>public_bookcase</osmand:icon>
    </extensions>
  </wpt>
  <wpt lat="47.65837" lon="-2.760976">
    <name>Place de la mairie rue Thiers</name>
    <desc>Devant la mairie côté collège Jules Simon</desc>
    <type>Delivrez bookcases</type>
    <extensions>
      <osmand:color>#ff5020</osmand:color>
      <osmand:background>square</osmand:background>
      <osmand:icon>public_bookcase</osmand:icon>
    </extensions>
  </wpt>
  <wpt lat="47.704916" lon="-3.145813">
    <name>Place Georges Cadoudal Lieu-dit locoal</name>
    <desc>Le Conseil Municipal des Enfants de Locoal-Mendon a crée avec l aide du service technique communal, une boîte à don de livres. Celle-ci est placée sur la place centrale du village en bord de ria. Les conseillers enfants ont beaucoup réfléchi aux  notions de propriété, gratuité et de partage de biens. La boîte est active depuis décembre 2018.</desc>
    <type>Delivrez bookcases</type>
    <extensions>
      <osmand:color>#ff5020</osmand:color>
      <osmand:background>square</osmand:background>
      <osmand:icon>public_bookcase</osmand:icon>
    </extensions>
  </wpt>
  <wpt lat="48.779108" lon="-3.046104">
    <name>Rue Georges Brassens</name>
    <desc></desc>
    <type>Delivrez bookcases</type>
    <extensions>
      <osmand:color>#ff5020</osmand:color>
      <osmand:background>square</osmand:background>
      <osmand:icon>public_bookcase</osmand:icon>
    </extensions>
  </wpt>
  <wpt lat="47.541789" lon="-2.323721">
    <name>place St Pierre</name>
    <desc>Dans une ancienne cabine téléphonique, en face de l église. Offert par la Médiathèque.</desc>
    <type>Delivrez bookcases</type>
    <extensions>
      <osmand:color>#ff5020</osmand:color>
      <osmand:background>square</osmand:background>
      <osmand:icon>public_bookcase</osmand:icon>
    </extensions>
  </wpt>
  <wpt lat="48.343509" lon="-1.488224">
    <name>Rue Zacharie Roussin</name>
    <desc>Ancienne cabine téléphonique située en face de la boulangerie.</desc>
    <type>Delivrez bookcases</type>
    <extensions>
      <osmand:color>#ff5020</osmand:color>
      <osmand:background>square</osmand:background>
      <osmand:icon>public_bookcase</osmand:icon>
    </extensions>
  </wpt>
  <wpt lat="48.356312" lon="-1.482278">
    <name>Rue principale</name>
    <desc>Cabine téléphonique, route de Chauvigné</desc>
    <type>Delivrez bookcases</type>
    <extensions>
      <osmand:color>#ff5020</osmand:color>
      <osmand:background>square</osmand:background>
      <osmand:icon>public_bookcase</osmand:icon>
    </extensions>
  </wpt>
  <wpt lat="47.369974" lon="-3.221315">
    <name>rue du chemin neuf</name>
    <desc>Grande boîte à lire noire.A droite de la supérette VIVAL</desc>
    <type>Delivrez bookcases</type>
    <extensions>
      <osmand:color>#ff5020</osmand:color>
      <osmand:background>square</osmand:background>
      <osmand:icon>public_bookcase</osmand:icon>
    </extensions>
  </wpt>
  <wpt lat="48.262788" lon="-1.605951">
    <name>Place de la mairie</name>
    <desc>Grande armoire dans l'abribus</desc>
    <type>Delivrez bookcases</type>
    <extensions>
      <osmand:color>#ff5020</osmand:color>
      <osmand:background>square</osmand:background>
      <osmand:icon>public_bookcase</osmand:icon>
    </extensions>
  </wpt>
  <wpt lat="47.915398" lon="-3.334701">
    <name>Place de la mairie</name>
    <desc>Ancienne cabine téléphonique</desc>
    <type>Delivrez bookcases</type>
    <extensions>
      <osmand:color>#ff5020</osmand:color>
      <osmand:background>square</osmand:background>
      <osmand:icon>public_bookcase</osmand:icon>
    </extensions>
  </wpt>
  <wpt lat="48.071191" lon="-1.393313">
    <name>Place Carron de la Carrière</name>
    <desc></desc>
    <type>Delivrez bookcases</type>
    <extensions>
      <osmand:color>#ff5020</osmand:color>
      <osmand:background>square</osmand:background>
      <osmand:icon>public_bookcase</osmand:icon>
    </extensions>
  </wpt>
  <wpt lat="48.318153" lon="-2.075868">
    <name>Place de la mairie</name>
    <desc>Dans la cabine téléphonique sous les halles</desc>
    <type>Delivrez bookcases</type>
    <extensions>
      <osmand:color>#ff5020</osmand:color>
      <osmand:background>square</osmand:background>
      <osmand:icon>public_bookcase</osmand:icon>
    </extensions>
  </wpt>
  <wpt lat="48.357475" lon="-2.124594">
    <name>14, rue Cassiopée</name>
    <desc>A la superette  Au Petit Marché".</desc>
    <type>Delivrez bookcases</type>
    <extensions>
      <osmand:color>#ff5020</osmand:color>
      <osmand:background>square</osmand:background>
      <osmand:icon>public_bookcase</osmand:icon>
    </extensions>
  </wpt>