{
  "type": "FeatureCollection",
  "features": [
    {
      "type": "Feature",
      "geometry": {
        "type": "Point",
        "coordinates": [
          -1.572352,
          48.81479
        ]
      },
      "properties": {
        "title": "Allée de la Plage",
        "lat": "48.8147895",
        "lon": "-1.5723522",
        "type": "BSB",
        "picture": "https://delivrez.fr/public/posts/img.68d6624c74e51.png"
      }
    },
    {
      "type": "Feature",
      "geometry": {
        "type": "Point",
        "coordinates": [
          -1.844172,
          49.564637
        ]
      },
      "properties": {
        "title": "Place des Tamaris",
        "lat": "49.5646373",
        "lon": "-1.8441722",
        "type": "BSB",
        "observation": "a cote des toilettes publiques",
        "picture": "https://delivrez.fr/public/posts/img.68d2c334380c8.png"
      }
    },
    {
      "type": "Feature",
      "geometry": {
        "type": "Point",
        "coordinates": [
          -1.579672,
          49.641132
        ]
      },
      "properties": {
        "title": "mairie tourlaville",
        "lat": "49.6411317",
        "lon": "-1.5796717",
        "type": "BSB"
      }
    },
    {
      "type": "Feature",
      "geometry": {
        "type": "Point",
        "coordinates": [
          -1.579898,
          49.647085
        ]
      },
      "properties": {
        "title": "Résidence Diderot",
        "lat": "49.647085",
        "lon": "-1.5798983",
        "type": "BSB"
      }
    },
    {
      "type": "Feature",
      "geometry": {
        "type": "Point",
        "coordinates": [
          -1.527362,
          48.739082
        ]
      },
      "properties": {
        "title": "Route du Hamel",
        "lat": "48.739082",
        "lon": "-1.5273617",
        "type": "BSB",
        "picture": "https://delivrez.fr/public/posts/img.68cba8cadbefe.png"
      }
    },
    {
      "type": "Feature",
      "geometry": {
        "type": "Point",
        "coordinates": [
          1.152917,
          49.021756
        ]
      },
      "properties": {
        "title": "Rue Franklin Delano Roosevelt",
        "lat": "49.0217558",
        "lon": "1.1529172",
        "type": "BSB",
        "observation": "Boite à lire installée par l'association de quartier Carrement Voisins.",
        "picture": "https://delivrez.fr/public/posts/img.68ada961312aa.png"
      }
    },
    {
      "type": "Feature",
      "geometry": {
        "type": "Point",
        "coordinates": [
          0.7263,
          48.319389
        ]
      },
      "properties": {
        "title": "Rue du Cheval Blanc",
        "lat": "48.3193894",
        "lon": "0.7263002",
        "type": "BSB",
        "picture": "https://delivrez.fr/public/posts/img.68bb338e5f791.png"
      }
    },
    {
      "type": "Feature",
      "geometry": {
        "type": "Point",
        "coordinates": [
          0.743104,
          48.34679
        ]
      },
      "properties": {
        "title": "rue du verger",
        "lat": "48.3467903",
        "lon": "0.7431041",
        "type": "BSB",
        "picture": "https://delivrez.fr/public/posts/img.68bb3017e19da.png"
      }
    },
    {
      "type": "Feature",
      "geometry": {
        "type": "Point",
        "coordinates": [
          0.980568,
          49.234547
        ]
      },
      "properties": {
        "title": "Mairie du Bec Thomas",
        "lat": "49.2345472",
        "lon": "0.9805683",
        "type": "BSB",
        "picture": "https://delivrez.fr/public/posts/img.68a9b6c7e728a.png"
      }
    },
    {
      "type": "Feature",
      "geometry": {
        "type": "Point",
        "coordinates": [
          -0.345292,
          49.173663
        ]
      },
      "properties": {
        "title": "Rue Grentheville",
        "lat": "49.1736634",
        "lon": "-0.3452922",
        "type": "BSB",
        "observation": "boîte éphémère sur le muret d'une maison",
        "picture": "https://delivrez.fr/public/posts/img.68974a6cdee14.png"
      }
    },
    {
      "type": "Feature",
      "geometry": {
        "type": "Point",
        "coordinates": [
          -1.390381,
          48.697262
        ]
      },
      "properties": {
        "title": "Rue des Écoles",
        "lat": "48.6972623",
        "lon": "-1.3903807",
        "type": "BSB"
      }
    },
    {
      "type": "Feature",
      "geometry": {
        "type": "Point",
        "coordinates": [
          0.146929,
          49.005737
        ]
      },
      "properties": {
        "title": "Rue Marcel Gambier",
        "lat": "49.0057368",
        "lon": "0.1469293",
        "type": "BSB",
        "picture": "https://delivrez.fr/public/posts/img.689f7e3e73d50.png"
      }
    },
    {
      "type": "Feature",
      "geometry": {
        "type": "Point",
        "coordinates": [
          -0.117994,
          49.286965
        ]
      },
      "properties": {
        "title": "Avenue Charles de Gaulle",
        "lat": "49.2869651",
        "lon": "-0.1179939",
        "type": "BSB",
        "observation": "dans un tout petit parc sans arbres, au bord de la route",
        "picture": "https://delivrez.fr/public/posts/img.689b932e6dbac.png"
      }
    },
    {
      "type": "Feature",
      "geometry": {
        "type": "Point",
        "coordinates": [
          -0.124646,
          49.287723
        ]
      },
      "properties": {
        "title": "Avenue Charles de Gaulle",
        "lat": "49.2877227",
        "lon": "-0.1246459",
        "type": "BSB",
        "observation": "vers l'entrée du parc, sous les arbres",
        "picture": "https://delivrez.fr/public/posts/img.689b8f3be474c.png"
      }
    },
    {
      "type": "Feature",
      "geometry": {
        "type": "Point",
        "coordinates": [
          -1.597537,
          49.167221
        ]
      },
      "properties": {
        "title": "Rue de Jersey",
        "lat": "49.167221",
        "lon": "-1.5975366",
        "type": "BSB",
        "picture": "https://delivrez.fr/public/posts/img.689b88651dbee.png"
      }
    },
    {
      "type": "Feature",
      "geometry": {
        "type": "Point",
        "coordinates": [
          -0.115059,
          49.292541
        ]
      },
      "properties": {
        "title": "Jardin du Casino",
        "lat": "49.2925407",
        "lon": "-0.1150592",
        "type": "BSB",
        "observation": "à l'entrée du petit jardin",
        "picture": "https://delivrez.fr/public/posts/img.689a49f381867.png"
      }
    },
    {
      "type": "Feature",
      "geometry": {
        "type": "Point",
        "coordinates": [
          -0.112277,
          49.293046
        ]
      },
      "properties": {
        "title": "Place Marcel Proust",
        "lat": "49.293046",
        "lon": "-0.1122769",
        "type": "BSB",
        "observation": "sur un terrain de pétanque"
      }
    },
    {
      "type": "Feature",
      "geometry": {
        "type": "Point",
        "coordinates": [
          -0.351925,
          49.166593
        ]
      },
      "properties": {
        "title": "Avenue Jeanne d'Arc",
        "lat": "49.1665934",
        "lon": "-0.3519253",
        "type": "BSB",
        "observation": "au muret d'une maison, sous un petit arbre rafraîchissant",
        "picture": "https://delivrez.fr/public/posts/img.68975203124c8.png"
      }
    },
    {
      "type": "Feature",
      "geometry": {
        "type": "Point",
        "coordinates": [
          -0.34699,
          49.167211
        ]
      },
      "properties": {
        "title": "Avenue Capitaine Georges Guynemer",
        "lat": "49.1672106",
        "lon": "-0.3469904",
        "type": "BSB",
        "observation": "en plein milieu, malheureusement pas d'ombre...",
        "picture": "https://delivrez.fr/public/posts/img.68974ec4cb1e1.png"
      }
    },
    {
      "type": "Feature",
      "geometry": {
        "type": "Point",
        "coordinates": [
          -0.345219,
          49.172727
        ]
      },
      "properties": {
        "title": "Boulevard Leroy",
        "lat": "49.172727",
        "lon": "-0.3452187",
        "type": "BSB",
        "observation": "boîte éphémère sur un muret de maison",
        "picture": "https://delivrez.fr/public/posts/img.68974abb82c38.png"
      }
    },
    {
      "type": "Feature",
      "geometry": {
        "type": "Point",
        "coordinates": [
          -0.34638,
          49.176372
        ]
      },
      "properties": {
        "title": "Boîte à livre",
        "lat": "49.1763723",
        "lon": "-0.3463798",
        "type": "BSB",
        "observation": "dans la gare routière",
        "picture": "https://delivrez.fr/public/posts/img.689746597347b.png"
      }
    },
    {
      "type": "Feature",
      "geometry": {
        "type": "Point",
        "coordinates": [
          -0.900284,
          48.800608
        ]
      },
      "properties": {
        "title": "Rue Bernard Amand",
        "lat": "48.8006081",
        "lon": "-0.9002844",
        "type": "BSB",
        "picture": "https://delivrez.fr/public/posts/img.6891c5e52fd94.png"
      }
    },
    {
      "type": "Feature",
      "geometry": {
        "type": "Point",
        "coordinates": [
          1.181509,
          49.0277
        ]
      },
      "properties": {
        "title": "Rue de Fauville",
        "lat": "49.0277004",
        "lon": "1.1815087",
        "type": "BSB",
        "observation": "dans l'Inter",
        "picture": "https://delivrez.fr/public/posts/img.6880adede3b68.png"
      }
    },
    {
      "type": "Feature",
      "geometry": {
        "type": "Point",
        "coordinates": [
          -0.368203,
          49.219342
        ]
      },
      "properties": {
        "title": "Rue de la Grâce de Dieu",
        "lat": "49.2193418",
        "lon": "-0.3682026",
        "type": "BSB",
        "picture": "https://delivrez.fr/public/posts/img.687a7713693d0.png"
      }
    },
    {
      "type": "Feature",
      "geometry": {
        "type": "Point",
        "coordinates": [
          -0.706629,
          49.276585
        ]
      },
      "properties": {
        "title": "Place Charles de Gaulle",
        "lat": "49.2765851",
        "lon": "-0.7066291",
        "type": "BSB",
        "picture": "https://delivrez.fr/public/posts/img.687a5c3c65e8e.png"
      }
    },
    {
      "type": "Feature",
      "geometry": {
        "type": "Point",
        "coordinates": [
          -0.157202,
          49.253697
        ]
      },
      "properties": {
        "title": "Rue de la Libération",
        "lat": "49.2536968",
        "lon": "-0.1572019",
        "type": "BSB",
        "picture": "https://delivrez.fr/public/posts/img.6879225ae6853.png"
      }
    },
    {
      "type": "Feature",
      "geometry": {
        "type": "Point",
        "coordinates": [
          -0.384891,
          49.232137
        ]
      },
      "properties": {
        "title": "Rue du Bourg",
        "lat": "49.2321365",
        "lon": "-0.3848912",
        "type": "BSB",
        "observation": "petite boite a livres",
        "picture": "https://delivrez.fr/public/posts/img.68776fa19be40.png"
      }
    },
    {
      "type": "Feature",
      "geometry": {
        "type": "Point",
        "coordinates": [
          -1.536047,
          49.218079
        ]
      },
      "properties": {
        "title": "rue sainte croix",
        "lat": "49.2180786",
        "lon": "-1.5360468",
        "type": "BSB",
        "observation": "a côté de la mairie",
        "picture": "https://delivrez.fr/public/posts/img.68737c878c1b3.png"
      }
    },
    {
      "type": "Feature",
      "geometry": {
        "type": "Point",
        "coordinates": [
          -1.784572,
          49.379584
        ]
      },
      "properties": {
        "title": "Place du Terminus",
        "lat": "49.3795843",
        "lon": "-1.7845718",
        "type": "BSB",
        "picture": "https://delivrez.fr/public/posts/img.687366412fede.png"
      }
    },
    {
      "type": "Feature",
      "geometry": {
        "type": "Point",
        "coordinates": [
          1.605586,
          49.728122
        ]
      },
      "properties": {
        "title": "Rue des Tilleuls",
        "lat": "49.7281225",
        "lon": "1.605586",
        "type": "BSB",
        "observation": "Près de l'arrêt de bus",
        "picture": "https://delivrez.fr/public/posts/img.685eec75c1609.png"
      }
    },
    {
      "type": "Feature",
      "geometry": {
        "type": "Point",
        "coordinates": [
          0.618527,
          49.789854
        ]
      },
      "properties": {
        "title": "Grande Rue",
        "lat": "49.7898543",
        "lon": "0.6185268",
        "type": "BSB",
        "picture": "https://delivrez.fr/public/posts/img.68416a67b3f1a.png"
      }
    },
    {
      "type": "Feature",
      "geometry": {
        "type": "Point",
        "coordinates": [
          0.785758,
          49.16701
        ]
      },
      "properties": {
        "title": "Place du Général Chrétien",
        "lat": "49.1670101",
        "lon": "0.7857583",
        "type": "BSB",
        "picture": "https://delivrez.fr/public/posts/img.6846e738ae05f.png"
      }
    },
    {
      "type": "Feature",
      "geometry": {
        "type": "Point",
        "coordinates": [
          0.694595,
          48.735495
        ]
      },
      "properties": {
        "title": "Rue Désiré Guillemarre",
        "lat": "48.7354951",
        "lon": "0.6945954",
        "type": "BSB",
        "picture": "https://delivrez.fr/public/posts/img.6842a8eaaa22d.png"
      }
    },
    {
      "type": "Feature",
      "geometry": {
        "type": "Point",
        "coordinates": [
          -1.299494,
          49.61862
        ]
      },
      "properties": {
        "title": "boite à livre",
        "lat": "49.61862",
        "lon": "-1.2994939",
        "type": "BSB",
        "picture": "https://delivrez.fr/public/posts/img.68397b4fa0589.png"
      }
    },
    {
      "type": "Feature",
      "geometry": {
        "type": "Point",
        "coordinates": [
          1.413484,
          50.014812
        ]
      },
      "properties": {
        "title": "Rue de la Chapelle",
        "lat": "50.0148121",
        "lon": "1.4134836",
        "type": "BSB",
        "picture": "https://delivrez.fr/public/posts/img.683315784f863.png"
      }
    },
    {
      "type": "Feature",
      "geometry": {
        "type": "Point",
        "coordinates": [
          -1.409448,
          49.694312
        ]
      },
      "properties": {
        "title": "boîte à livres",
        "lat": "49.6943116",
        "lon": "-1.4094484",
        "type": "BSB",
        "picture": "https://delivrez.fr/public/posts/img.6829f7199edcf.png"
      }
    },
    {
      "type": "Feature",
      "geometry": {
        "type": "Point",
        "coordinates": [
          -0.250063,
          49.285175
        ]
      },
      "properties": {
        "title": "Boulevard Boivin Champeaux",
        "lat": "49.285175",
        "lon": "-0.2500635",
        "type": "BSB",
        "observation": "beaucoup de livres mais assez anciens propre",
        "picture": "https://delivrez.fr/public/posts/img.6829a70fef76c.png"
      }
    },
    {
      "type": "Feature",
      "geometry": {
        "type": "Point",
        "coordinates": [
          0.665543,
          49.823075
        ]
      },
      "properties": {
        "title": "ancienne cabine téléphonique",
        "lat": "49.8230749",
        "lon": "0.6655434",
        "type": "BSB",
        "picture": "https://delivrez.fr/public/posts/img.6823cb74a8f29.png"
      }
    },
    {
      "type": "Feature",
      "geometry": {
        "type": "Point",
        "coordinates": [
          1.497717,
          50.016068
        ]
      },
      "properties": {
        "title": "Rue Jules Verne",
        "lat": "50.0160683",
        "lon": "1.4977167",
        "type": "BSB",
        "observation": "Little Free Library",
        "picture": "https://delivrez.fr/public/posts/img.681cd3a4510e5.png"
      }
    },
    {
      "type": "Feature",
      "geometry": {
        "type": "Point",
        "coordinates": [
          1.084218,
          49.931856
        ]
      },
      "properties": {
        "title": "Cultivons le goût de lire",
        "lat": "49.9318556",
        "lon": "1.0842184",
        "type": "BSB",
        "picture": "https://delivrez.fr/public/posts/img.68238190660fd.png"
      }
    },
    {
      "type": "Feature",
      "geometry": {
        "type": "Point",
        "coordinates": [
          0.662112,
          49.837167
        ]
      },
      "properties": {
        "title": "ancienne cabine téléphonique",
        "lat": "49.8371667",
        "lon": "0.6621117",
        "type": "BSB",
        "picture": "https://delivrez.fr/public/posts/img.681e0793d68fc.png"
      }
    },
    {
      "type": "Feature",
      "geometry": {
        "type": "Point",
        "coordinates": [
          1.395604,
          50.009328
        ]
      },
      "properties": {
        "title": "Rue de la Croix de Pierre",
        "lat": "50.0093283",
        "lon": "1.3956044",
        "type": "BSB",
        "picture": "https://delivrez.fr/public/posts/img.681fa4d834844.png"
      }
    },
    {
      "type": "Feature",
      "geometry": {
        "type": "Point",
        "coordinates": [
          -1.447828,
          49.682129
        ]
      },
      "properties": {
        "title": "La Vallée des Moulins",
        "lat": "49.6821287",
        "lon": "-1.4478282",
        "type": "BSB",
        "picture": "https://delivrez.fr/public/posts/img.681bb1f0272b7.png"
      }
    },
    {
      "type": "Feature",
      "geometry": {
        "type": "Point",
        "coordinates": [
          0.111603,
          49.495447
        ]
      },
      "properties": {
        "title": "Boîte aux livres Coty",
        "lat": "49.4954475",
        "lon": "0.1116028",
        "type": "BSB",
        "observation": "À l'étage près de la salle de sport, juste en face des escalators",
        "picture": "https://delivrez.fr/public/posts/img.681a34ddd824a.png"
      }
    },
    {
      "type": "Feature",
      "geometry": {
        "type": "Point",
        "coordinates": [
          -1.259495,
          49.672609
        ]
      },
      "properties": {
        "title": "Quai Henri Chardon",
        "lat": "49.6726086",
        "lon": "-1.2594951",
        "type": "BSB",
        "picture": "https://delivrez.fr/public/posts/img.6818e04285e55.png"
      }
    },
    {
      "type": "Feature",
      "geometry": {
        "type": "Point",
        "coordinates": [
          -1.225968,
          49.378979
        ]
      },
      "properties": {
        "title": "Rue des Mannevilles",
        "lat": "49.378979",
        "lon": "-1.225968",
        "type": "BSB",
        "picture": "https://delivrez.fr/public/posts/img.680bab5b88713.png"
      }
    },
    {
      "type": "Feature",
      "geometry": {
        "type": "Point",
        "coordinates": [
          -1.240031,
          49.30651
        ]
      },
      "properties": {
        "title": "Rue de Caligny",
        "lat": "49.3065103",
        "lon": "-1.2400308",
        "type": "BSB",
        "picture": "https://delivrez.fr/public/posts/img.680b7daf34f11.png"
      }
    },
    {
      "type": "Feature",
      "geometry": {
        "type": "Point",
        "coordinates": [
          -1.567916,
          48.77563
        ]
      },
      "properties": {
        "title": "Avenue du Casino",
        "lat": "48.7756299",
        "lon": "-1.5679162",
        "type": "BSB",
        "picture": "https://delivrez.fr/public/posts/img.680cf4775ec1e.png"
      }
    },
    {
      "type": "Feature",
      "geometry": {
        "type": "Point",
        "coordinates": [
          0.23222,
          49.672608
        ]
      },
      "properties": {
        "title": "Rue du Village",
        "lat": "49.6726076",
        "lon": "0.2322197",
        "type": "BSB",
        "picture": "https://delivrez.fr/public/posts/img.680bc08d4ace7.png"
      }
    },
    {
      "type": "Feature",
      "geometry": {
        "type": "Point",
        "coordinates": [
          0.785092,
          49.721105
        ]
      },
      "properties": {
        "title": "Place Général de Gaulle",
        "lat": "49.7211051",
        "lon": "0.7850915",
        "type": "BSB",
        "picture": "https://delivrez.fr/public/posts/img.68079014d5de8.png"
      }
    },
    {
      "type": "Feature",
      "geometry": {
        "type": "Point",
        "coordinates": [
          0.230798,
          49.41691
        ]
      },
      "properties": {
        "title": "Place Albert Sorel",
        "lat": "49.4169096",
        "lon": "0.2307984",
        "type": "BSB",
        "observation": "Elle est rue de la République  la grande rue qui aboutit au port  sur la droite en allant vers le port.",
        "picture": "https://delivrez.fr/public/posts/img.67ff88a4e16d9.png"
      }
    },
    {
      "type": "Feature",
      "geometry": {
        "type": "Point",
        "coordinates": [
          0.722286,
          49.75575
        ]
      },
      "properties": {
        "title": "Route des Hameaux",
        "lat": "49.7557502",
        "lon": "0.7222855",
        "type": "BSB",
        "picture": "https://delivrez.fr/public/posts/img.68077fd441ad0.png"
      }
    },
    {
      "type": "Feature",
      "geometry": {
        "type": "Point",
        "coordinates": [
          0.269494,
          49.642706
        ]
      },
      "properties": {
        "title": "Villainville",
        "lat": "49.6427063",
        "lon": "0.2694943",
        "type": "BSB",
        "observation": "a côté de la salle des fêtes",
        "picture": "https://delivrez.fr/public/posts/img.67f3e84eb97b8.png"
      }
    },
    {
      "type": "Feature",
      "geometry": {
        "type": "Point",
        "coordinates": [
          1.402559,
          49.832272
        ]
      },
      "properties": {
        "title": "Rue du Presbytère",
        "lat": "49.8322723",
        "lon": "1.4025595",
        "type": "BSB",
        "picture": "https://delivrez.fr/public/posts/img.6804bd2d507db.png"
      }
    },
    {
      "type": "Feature",
      "geometry": {
        "type": "Point",
        "coordinates": [
          0.233142,
          49.42298
        ]
      },
      "properties": {
        "title": "Boulevard Charles V",
        "lat": "49.4229798",
        "lon": "0.233142",
        "type": "BSB",
        "picture": "https://delivrez.fr/public/posts/img.67ffb373e328d.png"
      }
    },
    {
      "type": "Feature",
      "geometry": {
        "type": "Point",
        "coordinates": [
          0.237904,
          49.681354
        ]
      },
      "properties": {
        "title": "Villainville parc de jeux",
        "lat": "49.6813539",
        "lon": "0.2379044",
        "type": "BSB"
      }
    },
    {
      "type": "Feature",
      "geometry": {
        "type": "Point",
        "coordinates": [
          1.134172,
          49.880338
        ]
      },
      "properties": {
        "title": "Place de la Gare",
        "lat": "49.8803376",
        "lon": "1.1341718",
        "type": "BSB",
        "picture": "https://delivrez.fr/public/posts/img.67efc27f62bf1.png"
      }
    },
    {
      "type": "Feature",
      "geometry": {
        "type": "Point",
        "coordinates": [
          0.639458,
          49.786981
        ]
      },
      "properties": {
        "title": "Rue du Huit Mai 1945",
        "lat": "49.786981",
        "lon": "0.6394576",
        "type": "BSB",
        "picture": "https://delivrez.fr/public/posts/img.67ee960532643.png"
      }
    },
    {
      "type": "Feature",
      "geometry": {
        "type": "Point",
        "coordinates": [
          0.637952,
          49.78681
        ]
      },
      "properties": {
        "title": "Place Robert Gabel",
        "lat": "49.7868101",
        "lon": "0.6379517",
        "type": "BSB",
        "picture": "https://delivrez.fr/public/posts/img.67ee97e6d92bd.png"
      }
    },
    {
      "type": "Feature",
      "geometry": {
        "type": "Point",
        "coordinates": [
          1.112757,
          49.479381
        ]
      },
      "properties": {
        "title": "Chemin de la Bretèque",
        "lat": "49.4793814",
        "lon": "1.1127573",
        "type": "BSB",
        "picture": "https://delivrez.fr/public/posts/img.67e9805250c5c.png"
      }
    },
    {
      "type": "Feature",
      "geometry": {
        "type": "Point",
        "coordinates": [
          -0.042743,
          49.22985
        ]
      },
      "properties": {
        "title": "Avenue Georges Landry",
        "lat": "49.2298498",
        "lon": "-0.0427434",
        "type": "BSB",
        "observation": "Dans le parc pour enfants",
        "picture": "https://delivrez.fr/public/posts/img.67e6cc1e1974d.png"
      }
    },
    {
      "type": "Feature",
      "geometry": {
        "type": "Point",
        "coordinates": [
          0.572739,
          49.381712
        ]
      },
      "properties": {
        "title": "Route du Bourg",
        "lat": "49.3817115",
        "lon": "0.5727395",
        "type": "BSB",
        "observation": "école",
        "picture": "https://delivrez.fr/public/posts/img.67d9463a81eef.png"
      }
    },
    {
      "type": "Feature",
      "geometry": {
        "type": "Point",
        "coordinates": [
          1.061611,
          49.423629
        ]
      },
      "properties": {
        "title": "Rue Jean Macé",
        "lat": "49.4236293",
        "lon": "1.0616114",
        "type": "BSB",
        "picture": "https://delivrez.fr/public/posts/img.67cace9990357.png"
      }
    },
    {
      "type": "Feature",
      "geometry": {
        "type": "Point",
        "coordinates": [
          -1.079469,
          49.330083
        ]
      },
      "properties": {
        "title": "Place Marie Lefrançois",
        "lat": "49.3300827",
        "lon": "-1.0794687",
        "type": "BSB"
      }
    },
    {
      "type": "Feature",
      "geometry": {
        "type": "Point",
        "coordinates": [
          0.366944,
          49.646048
        ]
      },
      "properties": {
        "title": "Place Godard des Vaux",
        "lat": "49.6460475",
        "lon": "0.3669442",
        "type": "BSB",
        "picture": "https://delivrez.fr/public/posts/img.67befd4fe48b0.png"
      }
    },
    {
      "type": "Feature",
      "geometry": {
        "type": "Point",
        "coordinates": [
          1.187566,
          49.956103
        ]
      },
      "properties": {
        "title": "Rue Pasteur",
        "lat": "49.9561027",
        "lon": "1.1875659",
        "type": "BSB",
        "picture": "https://delivrez.fr/public/posts/img.67bb4046b7b2d.png"
      }
    },
    {
      "type": "Feature",
      "geometry": {
        "type": "Point",
        "coordinates": [
          0.053984,
          49.352985
        ]
      },
      "properties": {
        "title": "Boulevard de la Mer",
        "lat": "49.3529846",
        "lon": "0.053984",
        "type": "BSB"
      }
    },
    {
      "type": "Feature",
      "geometry": {
        "type": "Point",
        "coordinates": [
          0.101366,
          49.343464
        ]
      },
      "properties": {
        "title": "Place Lemercier",
        "lat": "49.3434639",
        "lon": "0.1013661",
        "type": "BSB",
        "picture": "https://delivrez.fr/public/posts/img.6792669c5b420.png"
      }
    },
    {
      "type": "Feature",
      "geometry": {
        "type": "Point",
        "coordinates": [
          -0.292805,
          49.212851
        ]
      },
      "properties": {
        "title": "La Boite à Livres à la Boite à Idées",
        "lat": "49.2128509",
        "lon": "-0.2928053",
        "type": "BSB",
        "observation": "Découvert une Boite à Livres dans un petit commerce de proximité"
      }
    },
    {
      "type": "Feature",
      "geometry": {
        "type": "Point",
        "coordinates": [
          0.52675,
          49.585388
        ]
      },
      "properties": {
        "title": "Place de la Mairie",
        "lat": "49.5853881",
        "lon": "0.5267497",
        "type": "BSB",
        "picture": "https://delivrez.fr/public/posts/img.6767f1e87abee.png"
      }
    },
    {
      "type": "Feature",
      "geometry": {
        "type": "Point",
        "coordinates": [
          0.637977,
          49.5144
        ]
      },
      "properties": {
        "title": "trouville alliquerbille",
        "lat": "49.5143996",
        "lon": "0.6379771",
        "type": "BSB",
        "observation": "mairie"
      }
    },
    {
      "type": "Feature",
      "geometry": {
        "type": "Point",
        "coordinates": [
          0.774412,
          49.081639
        ]
      },
      "properties": {
        "title": "Rue Marcel Heurtebout",
        "lat": "49.0816388",
        "lon": "0.7744124",
        "type": "BSB",
        "picture": "https://delivrez.fr/public/posts/img.67361835daac2.png"
      }
    },
    {
      "type": "Feature",
      "geometry": {
        "type": "Point",
        "coordinates": [
          0.514318,
          49.35392
        ]
      },
      "properties": {
        "title": "place Victor Hugo",
        "lat": "49.3539197",
        "lon": "0.5143179",
        "type": "BSB",
        "picture": "https://delivrez.fr/public/posts/img.672f48da48883.png"
      }
    },
    {
      "type": "Feature",
      "geometry": {
        "type": "Point",
        "coordinates": [
          1.439864,
          49.731122
        ]
      },
      "properties": {
        "title": "Place du 8 Mai",
        "lat": "49.7311225",
        "lon": "1.4398639",
        "type": "BSB",
        "observation": "à l'entrée du parc saint Pierre",
        "picture": "https://delivrez.fr/public/posts/img.6723c77441545.png"
      }
    },
    {
      "type": "Feature",
      "geometry": {
        "type": "Point",
        "coordinates": [
          1.07187,
          49.463141
        ]
      },
      "properties": {
        "title": "place Colbert",
        "lat": "49.4631415",
        "lon": "1.0718703",
        "type": "BSB",
        "observation": "près du cinéma Ariel",
        "picture": "https://delivrez.fr/public/posts/img.6723af0011a5d.png"
      }
    },
    {
      "type": "Feature",
      "geometry": {
        "type": "Point",
        "coordinates": [
          1.072277,
          49.462779
        ]
      },
      "properties": {
        "title": "esplanade Andrée Chedid",
        "lat": "49.4627791",
        "lon": "1.0722767",
        "type": "BSB",
        "observation": "cabine de téléphone. londonienne",
        "picture": "https://delivrez.fr/public/posts/img.6723ab31bcea3.png"
      }
    },
    {
      "type": "Feature",
      "geometry": {
        "type": "Point",
        "coordinates": [
          -0.453748,
          49.334659
        ]
      },
      "properties": {
        "title": "Avenue de la Combattante",
        "lat": "49.3346588",
        "lon": "-0.4537475",
        "type": "BSB"
      }
    },
    {
      "type": "Feature",
      "geometry": {
        "type": "Point",
        "coordinates": [
          -1.578996,
          49.095103
        ]
      },
      "properties": {
        "title": "Rue de la Garenne",
        "lat": "49.0951026",
        "lon": "-1.5789961",
        "type": "BSB",
        "observation": "ancien frigo",
        "picture": "https://delivrez.fr/public/posts/img.671ba88b4bc50.png"
      }
    },
    {
      "type": "Feature",
      "geometry": {
        "type": "Point",
        "coordinates": [
          -1.446667,
          49.047464
        ]
      },
      "properties": {
        "title": "Rue Quesnel Canveaux",
        "lat": "49.0474637",
        "lon": "-1.4466669",
        "type": "BSB",
        "observation": "A l'entrée du jardin des plantes",
        "picture": "https://delivrez.fr/public/posts/img.671a447fabb90.png"
      }
    },
    {
      "type": "Feature",
      "geometry": {
        "type": "Point",
        "coordinates": [
          0.67071,
          49.507894
        ]
      },
      "properties": {
        "title": "St wandrille",
        "lat": "49.507894",
        "lon": "0.6707102",
        "type": "BSB",
        "observation": "près eglise"
      }
    },
    {
      "type": "Feature",
      "geometry": {
        "type": "Point",
        "coordinates": [
          1.324994,
          49.794296
        ]
      },
      "properties": {
        "title": "Route de Neufchâtel",
        "lat": "49.7942957",
        "lon": "1.3249939",
        "type": "BSB"
      }
    },
    {
      "type": "Feature",
      "geometry": {
        "type": "Point",
        "coordinates": [
          0.231864,
          49.148608
        ]
      },
      "properties": {
        "title": "Boulevard Jules Ferry",
        "lat": "49.1486076",
        "lon": "0.2318638",
        "type": "BSB",
        "picture": "https://delivrez.fr/public/posts/img.66fbe83aac1e9.png"
      }
    },
    {
      "type": "Feature",
      "geometry": {
        "type": "Point",
        "coordinates": [
          0.327707,
          49.695315
        ]
      },
      "properties": {
        "title": "Rue du Chant des Oiseaux",
        "lat": "49.6953151",
        "lon": "0.3277072",
        "type": "BSB",
        "observation": "En face de l'école",
        "picture": "https://delivrez.fr/public/posts/img.66fd19a58e4fc.png"
      }
    },
    {
      "type": "Feature",
      "geometry": {
        "type": "Point",
        "coordinates": [
          0.774913,
          49.623036
        ]
      },
      "properties": {
        "title": "Avenue René Coty",
        "lat": "49.623036",
        "lon": "0.7749126",
        "type": "BSB",
        "observation": "Devant la mairie",
        "picture": "https://delivrez.fr/public/posts/img.66eef210a233b.png"
      }
    },
    {
      "type": "Feature",
      "geometry": {
        "type": "Point",
        "coordinates": [
          0.924949,
          49.613244
        ]
      },
      "properties": {
        "title": "Grande Rue",
        "lat": "49.6132438",
        "lon": "0.9249491",
        "type": "BSB",
        "observation": "Devant la mairie",
        "picture": "https://delivrez.fr/public/posts/img.66eeec9c0e6fb.png"
      }
    },
    {
      "type": "Feature",
      "geometry": {
        "type": "Point",
        "coordinates": [
          0.483116,
          49.556634
        ]
      },
      "properties": {
        "title": "Rue du Maréchal Foch",
        "lat": "49.5566343",
        "lon": "0.4831156",
        "type": "BSB",
        "observation": "Dans une cabine téléphonique anglaise",
        "picture": "https://delivrez.fr/public/posts/img.66eadb996fa33.png"
      }
    },
    {
      "type": "Feature",
      "geometry": {
        "type": "Point",
        "coordinates": [
          0.125429,
          49.49505
        ]
      },
      "properties": {
        "title": "Rue Turenne",
        "lat": "49.4950505",
        "lon": "0.1254292",
        "type": "BSB",
        "picture": "https://delivrez.fr/public/posts/img.66e844f474f77.png"
      }
    },
    {
      "type": "Feature",
      "geometry": {
        "type": "Point",
        "coordinates": [
          0.49596,
          49.80557
        ]
      },
      "properties": {
        "title": "VIVAL ST PIERRE EN PORT",
        "lat": "49.80557",
        "lon": "0.49596",
        "type": "BSB",
        "observation": "Little Free Library",
        "picture": "https://delivrez.fr/public/posts/img.66daf1c371f1e.png"
      }
    },
    {
      "type": "Feature",
      "geometry": {
        "type": "Point",
        "coordinates": [
          1.11028,
          49.598318
        ]
      },
      "properties": {
        "title": "Place des Halles",
        "lat": "49.598318",
        "lon": "1.1102795",
        "type": "BSB"
      }
    },
    {
      "type": "Feature",
      "geometry": {
        "type": "Point",
        "coordinates": [
          1.483575,
          49.09439
        ]
      },
      "properties": {
        "title": "Rue des Écuries des Gardes",
        "lat": "49.0943904",
        "lon": "1.4835749",
        "type": "BSB",
        "picture": "https://delivrez.fr/public/posts/img.66c88d4ebd278.png"
      }
    },
    {
      "type": "Feature",
      "geometry": {
        "type": "Point",
        "coordinates": [
          -1.444764,
          49.039103
        ]
      },
      "properties": {
        "title": "1 Rue de la Gare",
        "lat": "49.0391031",
        "lon": "-1.4447641",
        "type": "BSB",
        "observation": "En face de l école primaire par rapport à la route.",
        "picture": "https://delivrez.fr/public/posts/img.66cb45e76da49.png"
      }
    },
    {
      "type": "Feature",
      "geometry": {
        "type": "Point",
        "coordinates": [
          -0.139262,
          49.282116
        ]
      },
      "properties": {
        "title": "Voie Communale Ancienne Route de Caen",
        "lat": "49.282116",
        "lon": "-0.1392624",
        "type": "BSB",
        "observation": "Petite boîte type maisonnette",
        "picture": "https://delivrez.fr/public/posts/img.66c0c20d74857.png"
      }
    },
    {
      "type": "Feature",
      "geometry": {
        "type": "Point",
        "coordinates": [
          1.437908,
          49.248524
        ]
      },
      "properties": {
        "title": "Intermarché les Andelys",
        "lat": "49.248524",
        "lon": "1.4379083",
        "type": "BSB",
        "observation": "au fond du magasin espace lecture",
        "picture": "https://delivrez.fr/public/posts/img.66bf6dd02ad62.png"
      }
    },
    {
      "type": "Feature",
      "geometry": {
        "type": "Point",
        "coordinates": [
          -0.027886,
          49.306767
        ]
      },
      "properties": {
        "title": "boîte à lire",
        "lat": "49.3067666",
        "lon": "-0.0278859",
        "type": "BSB",
        "picture": "https://delivrez.fr/public/posts/img.66bb7d671107d.png"
      }
    },
    {
      "type": "Feature",
      "geometry": {
        "type": "Point",
        "coordinates": [
          0.768955,
          49.281189
        ]
      },
      "properties": {
        "title": "devant la mairie",
        "lat": "49.2811894",
        "lon": "0.7689549",
        "type": "BSB"
      }
    },
    {
      "type": "Feature",
      "geometry": {
        "type": "Point",
        "coordinates": [
          -0.003184,
          49.278489
        ]
      },
      "properties": {
        "title": "Rue Saint-Lubin",
        "lat": "49.278489",
        "lon": "-0.0031843",
        "type": "BSB",
        "observation": "1 pour les adultes et 1 pour les enfant côté à cote"
      }
    },
    {
      "type": "Feature",
      "geometry": {
        "type": "Point",
        "coordinates": [
          0.834237,
          48.385053
        ]
      },
      "properties": {
        "title": "Place Lorrain Cruse",
        "lat": "48.3850534",
        "lon": "0.8342366",
        "type": "BSB",
        "observation": "devant l'église",
        "picture": "https://delivrez.fr/public/posts/img.66b8846070704.png"
      }
    },
    {
      "type": "Feature",
      "geometry": {
        "type": "Point",
        "coordinates": [
          0.612378,
          48.478315
        ]
      },
      "properties": {
        "title": "Rue de l'Église",
        "lat": "48.478315",
        "lon": "0.6123783",
        "type": "BSB",
        "observation": "au début de la rue, dans une ancienne cabine téléphonique",
        "picture": "https://delivrez.fr/public/posts/img.66b770fc7e0d2.png"
      }
    },
    {
      "type": "Feature",
      "geometry": {
        "type": "Point",
        "coordinates": [
          -1.361182,
          48.687707
        ]
      },
      "properties": {
        "title": "Rue de Geôle",
        "lat": "48.6877073",
        "lon": "-1.3611818",
        "type": "BSB",
        "observation": "Jardin Hortus",
        "picture": "https://delivrez.fr/public/posts/img.66b733decf7a7.png"
      }
    },
    {
      "type": "Feature",
      "geometry": {
        "type": "Point",
        "coordinates": [
          0.353507,
          48.512451
        ]
      },
      "properties": {
        "title": "Place de la Mairie",
        "lat": "48.5124509",
        "lon": "0.3535074",
        "type": "BSB",
        "picture": "https://delivrez.fr/public/posts/img.66b7405dee667.png"
      }
    },
    {
      "type": "Feature",
      "geometry": {
        "type": "Point",
        "coordinates": [
          0.376587,
          49.247909
        ]
      },
      "properties": {
        "title": "Place du Général de Gaulle",
        "lat": "49.2479091",
        "lon": "0.3765866",
        "type": "BSB",
        "picture": "https://delivrez.fr/public/posts/img.66ba3b47d5c0a.png"
      }
    },
    {
      "type": "Feature",
      "geometry": {
        "type": "Point",
        "coordinates": [
          0.731152,
          49.317519
        ]
      },
      "properties": {
        "title": "Le Gardin Huley",
        "lat": "49.3175188",
        "lon": "0.7311523",
        "type": "BSB",
        "observation": "dans l'arrêt de car"
      }
    },
    {
      "type": "Feature",
      "geometry": {
        "type": "Point",
        "coordinates": [
          0.718235,
          49.319727
        ]
      },
      "properties": {
        "title": "Hameau du Karouge",
        "lat": "49.3197265",
        "lon": "0.7182354",
        "type": "BSB",
        "observation": "dans l'arrêt de car"
      }
    },
    {
      "type": "Feature",
      "geometry": {
        "type": "Point",
        "coordinates": [
          0.701904,
          49.314093
        ]
      },
      "properties": {
        "title": "D91",
        "lat": "49.3140934",
        "lon": "0.7019036",
        "type": "BSB",
        "observation": "dans l'arrêt de car"
      }
    },
    {
      "type": "Feature",
      "geometry": {
        "type": "Point",
        "coordinates": [
          1.444317,
          49.726685
        ]
      },
      "properties": {
        "title": "Rue Saint-Andre",
        "lat": "49.7266852",
        "lon": "1.4443171",
        "type": "BSB",
        "observation": "boite contre la poste"
      }
    },
    {
      "type": "Feature",
      "geometry": {
        "type": "Point",
        "coordinates": [
          0.808216,
          49.265489
        ]
      },
      "properties": {
        "title": "Route nationale",
        "lat": "49.2654889",
        "lon": "0.8082157",
        "type": "BSB",
        "observation": "à côté de la mairie"
      }
    },
    {
      "type": "Feature",
      "geometry": {
        "type": "Point",
        "coordinates": [
          -1.047098,
          49.388948
        ]
      },
      "properties": {
        "title": "Quai Henri Chéron",
        "lat": "49.3889484",
        "lon": "-1.0470978",
        "type": "BSB",
        "picture": "https://delivrez.fr/public/posts/img.66b3d211ce60f.png"
      }
    },
    {
      "type": "Feature",
      "geometry": {
        "type": "Point",
        "coordinates": [
          -1.045202,
          49.388019
        ]
      },
      "properties": {
        "title": "Rue des Écoles",
        "lat": "49.3880189",
        "lon": "-1.0452021",
        "type": "BSB",
        "picture": "https://delivrez.fr/public/posts/img.66b3cb33c4457.png"
      }
    },
    {
      "type": "Feature",
      "geometry": {
        "type": "Point",
        "coordinates": [
          0.697457,
          48.671276
        ]
      },
      "properties": {
        "title": "Le Bourg",
        "lat": "48.6712762",
        "lon": "0.6974568",
        "type": "BSB",
        "observation": "A côté du portail de l'école .",
        "picture": "https://delivrez.fr/public/posts/img.66af7c28d7327.png"
      }
    },
    {
      "type": "Feature",
      "geometry": {
        "type": "Point",
        "coordinates": [
          0.515888,
          49.326284
        ]
      },
      "properties": {
        "title": "Route de Siglas",
        "lat": "49.3262837",
        "lon": "0.5158884",
        "type": "BSB"
      }
    },
    {
      "type": "Feature",
      "geometry": {
        "type": "Point",
        "coordinates": [
          1.340574,
          49.164274
        ]
      },
      "properties": {
        "title": "Rue Roland Roche",
        "lat": "49.1642741",
        "lon": "1.3405737",
        "type": "BSB",
        "picture": "https://delivrez.fr/public/posts/img.66a3840ec4ee3.png"
      }
    },
    {
      "type": "Feature",
      "geometry": {
        "type": "Point",
        "coordinates": [
          1.370143,
          49.181459
        ]
      },
      "properties": {
        "title": "Résidence les Cigales",
        "lat": "49.181459",
        "lon": "1.370143",
        "type": "BSB",
        "observation": "dans le parc",
        "picture": "https://delivrez.fr/public/posts/img.66a36c2011f42.png"
      }
    },
    {
      "type": "Feature",
      "geometry": {
        "type": "Point",
        "coordinates": [
          1.399998,
          49.225661
        ]
      },
      "properties": {
        "title": "Rue Jean Bequet",
        "lat": "49.2256613",
        "lon": "1.3999982",
        "type": "BSB",
        "observation": "a côté de la mairie",
        "picture": "https://delivrez.fr/public/posts/img.66a217119a5f8.png"
      }
    },
    {
      "type": "Feature",
      "geometry": {
        "type": "Point",
        "coordinates": [
          1.220844,
          49.232398
        ]
      },
      "properties": {
        "title": "Grande Rue",
        "lat": "49.2323984",
        "lon": "1.2208439",
        "type": "BSB",
        "observation": "a gauche de la mairie",
        "picture": "https://delivrez.fr/public/posts/img.66a0eab092e54.png"
      }
    },
    {
      "type": "Feature",
      "geometry": {
        "type": "Point",
        "coordinates": [
          1.396056,
          49.427785
        ]
      },
      "properties": {
        "title": "Rue de l'Église",
        "lat": "49.4277855",
        "lon": "1.3960562",
        "type": "BSB",
        "observation": "a l'entrée du parking",
        "picture": "https://delivrez.fr/public/posts/img.669e4a4eb236e.png"
      }
    },
    {
      "type": "Feature",
      "geometry": {
        "type": "Point",
        "coordinates": [
          1.38041,
          49.444212
        ]
      },
      "properties": {
        "title": "Rue de la Gare",
        "lat": "49.444212",
        "lon": "1.38041",
        "type": "BSB",
        "observation": "a côté de Céline fleurs",
        "picture": "https://delivrez.fr/public/posts/img.669e48e040615.png"
      }
    },
    {
      "type": "Feature",
      "geometry": {
        "type": "Point",
        "coordinates": [
          1.344586,
          49.472498
        ]
      },
      "properties": {
        "title": "Place Gustave Flaubert",
        "lat": "49.4724979",
        "lon": "1.3445857",
        "type": "BSB",
        "picture": "https://delivrez.fr/public/posts/img.669e3e4c833fd.png"
      }
    },
    {
      "type": "Feature",
      "geometry": {
        "type": "Point",
        "coordinates": [
          1.318562,
          49.310601
        ]
      },
      "properties": {
        "title": "Rue de la Mairie",
        "lat": "49.3106011",
        "lon": "1.3185622",
        "type": "BSB",
        "observation": "a droite de la mairie",
        "picture": "https://delivrez.fr/public/posts/img.669cca2bbb7d4.png"
      }
    },
    {
      "type": "Feature",
      "geometry": {
        "type": "Point",
        "coordinates": [
          -0.103928,
          49.295865
        ]
      },
      "properties": {
        "title": "Residence Cap Cabourg",
        "lat": "49.2958646",
        "lon": "-0.1039278",
        "type": "BSB",
        "picture": "https://delivrez.fr/public/posts/img.669cc9f4c6867.png"
      }
    },
    {
      "type": "Feature",
      "geometry": {
        "type": "Point",
        "coordinates": [
          -0.094788,
          49.291291
        ]
      },
      "properties": {
        "title": "Jorge Semprun",
        "lat": "49.2912911",
        "lon": "-0.0947878",
        "type": "BSB",
        "picture": "https://delivrez.fr/public/posts/img.66991671a8d48.png"
      }
    },
    {
      "type": "Feature",
      "geometry": {
        "type": "Point",
        "coordinates": [
          -0.098501,
          49.286951
        ]
      },
      "properties": {
        "title": "Rue d'Hastings",
        "lat": "49.2869514",
        "lon": "-0.0985014",
        "type": "BSB",
        "picture": "https://delivrez.fr/public/posts/img.66990942aa011.png"
      }
    },
    {
      "type": "Feature",
      "geometry": {
        "type": "Point",
        "coordinates": [
          -0.044758,
          49.231038
        ]
      },
      "properties": {
        "title": "Place de la Mairie",
        "lat": "49.2310377",
        "lon": "-0.0447583",
        "type": "BSB",
        "picture": "https://delivrez.fr/public/posts/img.6698eb2f4ad9f.png"
      }
    },
    {
      "type": "Feature",
      "geometry": {
        "type": "Point",
        "coordinates": [
          0.109621,
          49.278751
        ]
      },
      "properties": {
        "title": "Place de Verdun",
        "lat": "49.2787514",
        "lon": "0.109621",
        "type": "BSB",
        "observation": "devant le passage du collège",
        "picture": "https://delivrez.fr/public/posts/img.6698ccd5a9b31.png"
      }
    },
    {
      "type": "Feature",
      "geometry": {
        "type": "Point",
        "coordinates": [
          -0.63075,
          49.020083
        ]
      },
      "properties": {
        "title": "Place de L Hôtel de ville",
        "lat": "49.0200834",
        "lon": "-0.6307503",
        "type": "BSB",
        "picture": "https://delivrez.fr/public/posts/img.6634fc1d1accb.png"
      }
    },
    {
      "type": "Feature",
      "geometry": {
        "type": "Point",
        "coordinates": [
          1.299248,
          49.338012
        ]
      },
      "properties": {
        "title": "Rue du Cardinal Amette",
        "lat": "49.3380119",
        "lon": "1.2992484",
        "type": "BSB",
        "picture": "https://delivrez.fr/public/posts/img.668a6fb5a3f9a.png"
      }
    },
    {
      "type": "Feature",
      "geometry": {
        "type": "Point",
        "coordinates": [
          -1.155963,
          48.716027
        ]
      },
      "properties": {
        "title": "boite à livre",
        "lat": "48.7160271",
        "lon": "-1.1559635",
        "type": "BSB",
        "observation": "place Victor guerinel"
      }
    },
    {
      "type": "Feature",
      "geometry": {
        "type": "Point",
        "coordinates": [
          1.381302,
          49.014252
        ]
      },
      "properties": {
        "title": "Rue Edouard Isambard",
        "lat": "49.0142518",
        "lon": "1.3813018",
        "type": "BSB",
        "picture": "https://delivrez.fr/public/posts/img.66655e60cb30d.png"
      }
    },
    {
      "type": "Feature",
      "geometry": {
        "type": "Point",
        "coordinates": [
          1.029832,
          49.898109
        ]
      },
      "properties": {
        "title": "Rue Grimaldi",
        "lat": "49.8981095",
        "lon": "1.029832",
        "type": "BSB",
        "picture": "https://delivrez.fr/public/posts/img.6664597e05717.png"
      }
    },
    {
      "type": "Feature",
      "geometry": {
        "type": "Point",
        "coordinates": [
          0.951786,
          49.881834
        ]
      },
      "properties": {
        "title": "Rue de la Mer",
        "lat": "49.8818338",
        "lon": "0.9517856",
        "type": "BSB",
        "picture": "https://delivrez.fr/public/posts/img.6664472ff15db.png"
      }
    },
    {
      "type": "Feature",
      "geometry": {
        "type": "Point",
        "coordinates": [
          -1.513508,
          48.553387
        ]
      },
      "properties": {
        "title": "Cours de la Victoire",
        "lat": "48.5533865",
        "lon": "-1.5135084",
        "type": "BSB",
        "picture": "https://delivrez.fr/public/posts/img.667a86937794a.png"
      }
    },
    {
      "type": "Feature",
      "geometry": {
        "type": "Point",
        "coordinates": [
          1.487227,
          48.947335
        ]
      },
      "properties": {
        "title": "Gr Grande Rue",
        "lat": "48.9473347",
        "lon": "1.4872268",
        "type": "BSB",
        "observation": "_",
        "picture": "https://delivrez.fr/public/posts/img.666f06e679d67.png"
      }
    },
    {
      "type": "Feature",
      "geometry": {
        "type": "Point",
        "coordinates": [
          0.32893,
          49.696635
        ]
      },
      "properties": {
        "title": "Rue de la Liberté",
        "lat": "49.6966355",
        "lon": "0.3289297",
        "type": "BSB",
        "picture": "https://delivrez.fr/public/posts/img.66631449ecf68.png"
      }
    },
    {
      "type": "Feature",
      "geometry": {
        "type": "Point",
        "coordinates": [
          0.205292,
          49.707548
        ]
      },
      "properties": {
        "title": "Place Maurice Guillard",
        "lat": "49.7075479",
        "lon": "0.2052919",
        "type": "BSB",
        "observation": "Attenante à la bibliothèque",
        "picture": "https://delivrez.fr/public/posts/img.6662c464519ea.png"
      }
    },
    {
      "type": "Feature",
      "geometry": {
        "type": "Point",
        "coordinates": [
          0.596975,
          49.852129
        ]
      },
      "properties": {
        "title": "Chemin des Tennis",
        "lat": "49.8521295",
        "lon": "0.5969749",
        "type": "BSB",
        "picture": "https://delivrez.fr/public/posts/img.6661a5b2f3df6.png"
      }
    },
    {
      "type": "Feature",
      "geometry": {
        "type": "Point",
        "coordinates": [
          1.421462,
          49.24558
        ]
      },
      "properties": {
        "title": "Boulevard Néhou",
        "lat": "49.2455802",
        "lon": "1.4214616",
        "type": "BSB",
        "observation": "école de musique sur le côté droit",
        "picture": "https://delivrez.fr/public/posts/img.665d83f7545da.png"
      }
    },
    {
      "type": "Feature",
      "geometry": {
        "type": "Point",
        "coordinates": [
          0.209425,
          49.704197
        ]
      },
      "properties": {
        "title": "Rue Guy de Maupassant",
        "lat": "49.7041973",
        "lon": "0.2094252",
        "type": "BSB",
        "observation": "école du hemin"
      }
    },
    {
      "type": "Feature",
      "geometry": {
        "type": "Point",
        "coordinates": [
          -1.220323,
          48.836883
        ]
      },
      "properties": {
        "title": "Place des Costils",
        "lat": "48.8368833",
        "lon": "-1.2203234",
        "type": "BSB"
      }
    },
    {
      "type": "Feature",
      "geometry": {
        "type": "Point",
        "coordinates": [
          0.014626,
          49.118759
        ]
      },
      "properties": {
        "title": "Route de Caen",
        "lat": "49.1187591",
        "lon": "0.0146263",
        "type": "BSB",
        "picture": "https://delivrez.fr/public/posts/img.6651f53b1a3d1.png"
      }
    },
    {
      "type": "Feature",
      "geometry": {
        "type": "Point",
        "coordinates": [
          -0.204158,
          48.895675
        ]
      },
      "properties": {
        "title": "Rue du Val d'Ante",
        "lat": "48.8956748",
        "lon": "-0.2041583",
        "type": "BSB",
        "picture": "https://delivrez.fr/public/posts/img.6644cc22da8e4.png"
      }
    },
    {
      "type": "Feature",
      "geometry": {
        "type": "Point",
        "coordinates": [
          -1.088419,
          48.541726
        ]
      },
      "properties": {
        "title": "Rue des Binotiers",
        "lat": "48.5417264",
        "lon": "-1.0884193",
        "type": "BSB",
        "observation": "sous l'abri de bus",
        "picture": "https://delivrez.fr/public/posts/img.663c7282bf329.png"
      }
    },
    {
      "type": "Feature",
      "geometry": {
        "type": "Point",
        "coordinates": [
          -1.095076,
          48.580142
        ]
      },
      "properties": {
        "title": "Rue de la Pêcherie",
        "lat": "48.5801421",
        "lon": "-1.0950756",
        "type": "BSB",
        "observation": "Sous le porche de la maison des jeunes",
        "picture": "https://delivrez.fr/public/posts/img.6635e7f398655.png"
      }
    },
    {
      "type": "Feature",
      "geometry": {
        "type": "Point",
        "coordinates": [
          -1.308382,
          48.698092
        ]
      },
      "properties": {
        "title": "Route de la Mairie",
        "lat": "48.6980924",
        "lon": "-1.3083817",
        "type": "BSB",
        "observation": "Sur le parking de la mairie",
        "picture": "https://delivrez.fr/public/posts/img.6635dfce6ca07.png"
      }
    },
    {
      "type": "Feature",
      "geometry": {
        "type": "Point",
        "coordinates": [
          1.333799,
          49.160531
        ]
      },
      "properties": {
        "title": "Place Aristide Briand",
        "lat": "49.1605315",
        "lon": "1.3337988",
        "type": "BSB",
        "picture": "https://delivrez.fr/public/posts/img.661e4bc1c96a1.png"
      }
    },
    {
      "type": "Feature",
      "geometry": {
        "type": "Point",
        "coordinates": [
          1.378907,
          49.204953
        ]
      },
      "properties": {
        "title": "Allée des Roses des Prés",
        "lat": "49.2049527",
        "lon": "1.3789074",
        "type": "BSB",
        "picture": "https://delivrez.fr/public/posts/img.6619015d6fa8f.png"
      }
    },
    {
      "type": "Feature",
      "geometry": {
        "type": "Point",
        "coordinates": [
          0.973223,
          48.951617
        ]
      },
      "properties": {
        "title": "Rue de l'Église",
        "lat": "48.9516169",
        "lon": "0.9732226",
        "type": "BSB",
        "picture": "https://delivrez.fr/public/posts/img.661a528171eaf.png"
      }
    },
    {
      "type": "Feature",
      "geometry": {
        "type": "Point",
        "coordinates": [
          1.041583,
          49.525079
        ]
      },
      "properties": {
        "title": "Cabine à livre du Parc de Malaunay",
        "lat": "49.525079",
        "lon": "1.0415835",
        "type": "BSB",
        "picture": "https://delivrez.fr/public/posts/img.660a8b915bf57.png"
      }
    },
    {
      "type": "Feature",
      "geometry": {
        "type": "Point",
        "coordinates": [
          1.094005,
          49.444589
        ]
      },
      "properties": {
        "title": "Rue Jean Lecanuet",
        "lat": "49.4445893",
        "lon": "1.0940045",
        "type": "BSB",
        "observation": "devant le musée des Beaux-Arts",
        "picture": "https://delivrez.fr/public/posts/img.65e5fd705b175.png"
      }
    },
    {
      "type": "Feature",
      "geometry": {
        "type": "Point",
        "coordinates": [
          1.201335,
          49.054572
        ]
      },
      "properties": {
        "title": "Impasse du Vallon Fleuri",
        "lat": "49.0545719",
        "lon": "1.2013355",
        "type": "BSB",
        "picture": "https://delivrez.fr/public/posts/img.65a3fed9e22a6.png"
      }
    },
    {
      "type": "Feature",
      "geometry": {
        "type": "Point",
        "coordinates": [
          1.033427,
          49.024599
        ]
      },
      "properties": {
        "title": "Chemin des Hautes Forières",
        "lat": "49.0245988",
        "lon": "1.0334267",
        "type": "BSB",
        "picture": "https://delivrez.fr/public/posts/img.6593e6a9c83de.png"
      }
    },
    {
      "type": "Feature",
      "geometry": {
        "type": "Point",
        "coordinates": [
          1.093192,
          49.010899
        ]
      },
      "properties": {
        "title": "Rue du Sentier",
        "lat": "49.0108994",
        "lon": "1.0931918",
        "type": "BSB",
        "picture": "https://delivrez.fr/public/posts/img.6593e1fcd8a46.png"
      }
    },
    {
      "type": "Feature",
      "geometry": {
        "type": "Point",
        "coordinates": [
          0.881037,
          49.516725
        ]
      },
      "properties": {
        "title": "Saint Paer",
        "lat": "49.516725",
        "lon": "0.8810371",
        "type": "BSB",
        "picture": "https://delivrez.fr/public/posts/img.65707db2f1a1e.png"
      }
    },
    {
      "type": "Feature",
      "geometry": {
        "type": "Point",
        "coordinates": [
          0.689064,
          48.264094
        ]
      },
      "properties": {
        "title": "Rue de la Cidrerie",
        "lat": "48.2640939",
        "lon": "0.689064",
        "type": "BSB",
        "picture": "https://delivrez.fr/public/posts/img.6558e100e1227.png"
      }
    },
    {
      "type": "Feature",
      "geometry": {
        "type": "Point",
        "coordinates": [
          0.605297,
          48.280372
        ]
      },
      "properties": {
        "title": "Avenue de la République",
        "lat": "48.2803717",
        "lon": "0.6052972",
        "type": "BSB",
        "picture": "https://delivrez.fr/public/posts/img.6558dd232afbd.png"
      }
    },
    {
      "type": "Feature",
      "geometry": {
        "type": "Point",
        "coordinates": [
          0.605494,
          48.280326
        ]
      },
      "properties": {
        "title": "Rue Germaine de Courson",
        "lat": "48.2803257",
        "lon": "0.6054941",
        "type": "BSB",
        "picture": "https://delivrez.fr/public/posts/img.6558db069bf92.png"
      }
    },
    {
      "type": "Feature",
      "geometry": {
        "type": "Point",
        "coordinates": [
          0.698736,
          49.697078
        ]
      },
      "properties": {
        "title": "boite à livres",
        "lat": "49.6970781",
        "lon": "0.6987364",
        "type": "BSB",
        "observation": "près du boulanger",
        "picture": "https://delivrez.fr/public/posts/img.654765c6a94ea.png"
      }
    },
    {
      "type": "Feature",
      "geometry": {
        "type": "Point",
        "coordinates": [
          -0.515041,
          49.344627
        ]
      },
      "properties": {
        "title": "Avenue Colonel Harper",
        "lat": "49.3446267",
        "lon": "-0.5150411",
        "type": "BSB",
        "observation": "a côté jeux pour enfants",
        "picture": "https://delivrez.fr/public/posts/img.6544d312ab541.png"
      }
    },
    {
      "type": "Feature",
      "geometry": {
        "type": "Point",
        "coordinates": [
          1.100348,
          49.44183
        ]
      },
      "properties": {
        "title": "rue des Faulx",
        "lat": "49.4418301",
        "lon": "1.100348",
        "type": "BSB",
        "observation": "Jardins de l’Hôtel de ville ",
        "picture": "https://delivrez.fr/public/posts/img.654245e94617f.png"
      }
    },
    {
      "type": "Feature",
      "geometry": {
        "type": "Point",
        "coordinates": [
          1.088408,
          49.443195
        ]
      },
      "properties": {
        "title": "Place du Vieux Marché",
        "lat": "49.4431949",
        "lon": "1.0884076",
        "type": "BSB",
        "observation": "au pied de la rue Cauchoise",
        "picture": "https://delivrez.fr/public/posts/img.654235691ad0b.png"
      }
    },
    {
      "type": "Feature",
      "geometry": {
        "type": "Point",
        "coordinates": [
          0.873631,
          49.299328
        ]
      },
      "properties": {
        "title": "Rue de Thuit Hébert",
        "lat": "49.2993283",
        "lon": "0.8736307",
        "type": "BSB",
        "observation": "a côté de la porte d'entrée de la mairie",
        "picture": "https://delivrez.fr/public/posts/img.653e784436bfe.png"
      }
    },
    {
      "type": "Feature",
      "geometry": {
        "type": "Point",
        "coordinates": [
          1.038326,
          49.402759
        ]
      },
      "properties": {
        "title": "la roseraie",
        "lat": "49.402759",
        "lon": "1.0383264",
        "type": "BSB",
        "observation": "dans le parc, près de la résidence A. Thiers"
      }
    },
    {
      "type": "Feature",
      "geometry": {
        "type": "Point",
        "coordinates": [
          0.726117,
          49.525349
        ]
      },
      "properties": {
        "title": "Maison des Templiers",
        "lat": "49.5253494",
        "lon": "0.7261166",
        "type": "BSB",
        "picture": "https://delivrez.fr/public/posts/img.653276d06d9e8.png"
      }
    },
    {
      "type": "Feature",
      "geometry": {
        "type": "Point",
        "coordinates": [
          1.04286,
          49.221219
        ]
      },
      "properties": {
        "title": "Rue Maure",
        "lat": "49.2212192",
        "lon": "1.0428595",
        "type": "BSB",
        "observation": "en face de la mare",
        "picture": "https://delivrez.fr/public/posts/img.6513f8022a64f.png"
      }
    },
    {
      "type": "Feature",
      "geometry": {
        "type": "Point",
        "coordinates": [
          -0.250337,
          49.284746
        ]
      },
      "properties": {
        "title": "Rue des Dunes",
        "lat": "49.2847457",
        "lon": "-0.2503368",
        "type": "BSB",
        "picture": "https://delivrez.fr/public/posts/img.650ee68c9956f.png"
      }
    },
    {
      "type": "Feature",
      "geometry": {
        "type": "Point",
        "coordinates": [
          -0.335941,
          49.154527
        ]
      },
      "properties": {
        "title": "terrain pétanque cormelle",
        "lat": "49.1545274",
        "lon": "-0.3359406",
        "type": "BSB",
        "picture": "https://delivrez.fr/public/posts/img.64fdd70a096af.png"
      }
    },
    {
      "type": "Feature",
      "geometry": {
        "type": "Point",
        "coordinates": [
          0.367597,
          49.760665
        ]
      },
      "properties": {
        "title": "Quai Berigny",
        "lat": "49.7606648",
        "lon": "0.3675967",
        "type": "BSB",
        "observation": "Boîte à livres située sur le quai",
        "picture": "https://delivrez.fr/public/posts/img.64f31a039ceaf.png"
      }
    },
    {
      "type": "Feature",
      "geometry": {
        "type": "Point",
        "coordinates": [
          0.386969,
          49.744276
        ]
      },
      "properties": {
        "title": "Avenue du Président François Mitterrand",
        "lat": "49.7442764",
        "lon": "0.3869686",
        "type": "BSB",
        "observation": "Devant l'hôpital à l'extérieur",
        "picture": "https://delivrez.fr/public/posts/img.64f07cba57921.png"
      }
    },
    {
      "type": "Feature",
      "geometry": {
        "type": "Point",
        "coordinates": [
          0.374756,
          49.762282
        ]
      },
      "properties": {
        "title": "Avenue Jean Lorrain",
        "lat": "49.7622823",
        "lon": "0.3747562",
        "type": "BSB",
        "observation": "Près du pont Gayant",
        "picture": "https://delivrez.fr/public/posts/img.64ee12481565d.png"
      }
    },
    {
      "type": "Feature",
      "geometry": {
        "type": "Point",
        "coordinates": [
          0.357756,
          49.738973
        ]
      },
      "properties": {
        "title": "Rue Victor Coviaux",
        "lat": "49.7389733",
        "lon": "0.3577557",
        "type": "BSB",
        "observation": "A côté de la mairie, dans le rond point",
        "picture": "https://delivrez.fr/public/posts/img.64eb770212fc5.png"
      }
    },
    {
      "type": "Feature",
      "geometry": {
        "type": "Point",
        "coordinates": [
          0.2824,
          49.699174
        ]
      },
      "properties": {
        "title": "Le Bourg",
        "lat": "49.6991742",
        "lon": "0.2824001",
        "type": "BSB",
        "observation": "Devant l'église",
        "picture": "https://delivrez.fr/public/posts/img.64eb744cd4dc1.png"
      }
    },
    {
      "type": "Feature",
      "geometry": {
        "type": "Point",
        "coordinates": [
          0.911603,
          49.061947
        ]
      },
      "properties": {
        "title": "Rue Saint-Etienne",
        "lat": "49.0619474",
        "lon": "0.9116034",
        "type": "BSB",
        "picture": "https://delivrez.fr/public/posts/img.64ea0e39b03d2.png"
      }
    },
    {
      "type": "Feature",
      "geometry": {
        "type": "Point",
        "coordinates": [
          -0.030822,
          49.018225
        ]
      },
      "properties": {
        "title": "Place du Marché",
        "lat": "49.0182255",
        "lon": "-0.0308219",
        "type": "BSB",
        "observation": "dans le jardin de la poste",
        "picture": "https://delivrez.fr/public/posts/img.64e37b1a0fbbe.png"
      }
    },
    {
      "type": "Feature",
      "geometry": {
        "type": "Point",
        "coordinates": [
          -0.388873,
          49.325267
        ]
      },
      "properties": {
        "title": "reviers",
        "lat": "49.3252667",
        "lon": "-0.3888733",
        "type": "BSB",
        "observation": "petite boîte à livre"
      }
    },
    {
      "type": "Feature",
      "geometry": {
        "type": "Point",
        "coordinates": [
          0.331349,
          49.740358
        ]
      },
      "properties": {
        "title": "Rue de l'Église",
        "lat": "49.740358",
        "lon": "0.3313491",
        "type": "BSB",
        "observation": "A côté de la salle polyvalente",
        "picture": "https://delivrez.fr/public/posts/img.64db756f40d5e.png"
      }
    },
    {
      "type": "Feature",
      "geometry": {
        "type": "Point",
        "coordinates": [
          1.408104,
          49.168021
        ]
      },
      "properties": {
        "title": "Grande Rue",
        "lat": "49.1680208",
        "lon": "1.4081036",
        "type": "BSB",
        "observation": "Petite Cabane"
      }
    },
    {
      "type": "Feature",
      "geometry": {
        "type": "Point",
        "coordinates": [
          1.420721,
          50.049955
        ]
      },
      "properties": {
        "title": "Rue de Clèves",
        "lat": "50.0499551",
        "lon": "1.4207212",
        "type": "BSB",
        "picture": "https://delivrez.fr/public/posts/img.64db8e7fa003e.png"
      }
    },
    {
      "type": "Feature",
      "geometry": {
        "type": "Point",
        "coordinates": [
          1.407747,
          49.244517
        ]
      },
      "properties": {
        "title": "Parc Nicolas Poussin",
        "lat": "49.2445172",
        "lon": "1.4077471",
        "type": "BSB",
        "picture": "https://delivrez.fr/public/posts/img.64d88cc53e389.png"
      }
    },
    {
      "type": "Feature",
      "geometry": {
        "type": "Point",
        "coordinates": [
          -1.222131,
          48.841791
        ]
      },
      "properties": {
        "title": "Jardin public",
        "lat": "48.8417912",
        "lon": "-1.2221307",
        "type": "BSB",
        "observation": "Bibliothèque de rue - au centre",
        "picture": "https://delivrez.fr/public/posts/img.64d61e9e5b092.png"
      }
    },
    {
      "type": "Feature",
      "geometry": {
        "type": "Point",
        "coordinates": [
          1.418237,
          50.048926
        ]
      },
      "properties": {
        "title": "Rue Jean Duhornay",
        "lat": "50.0489255",
        "lon": "1.4182374",
        "type": "BSB",
        "picture": "https://delivrez.fr/public/posts/img.64d4f5754f661.png"
      }
    },
    {
      "type": "Feature",
      "geometry": {
        "type": "Point",
        "coordinates": [
          1.419066,
          50.050018
        ]
      },
      "properties": {
        "title": "Boulevard Hélène",
        "lat": "50.0500177",
        "lon": "1.4190659",
        "type": "BSB",
        "picture": "https://delivrez.fr/public/posts/img.64d4f4b752a45.png"
      }
    },
    {
      "type": "Feature",
      "geometry": {
        "type": "Point",
        "coordinates": [
          1.420344,
          50.052057
        ]
      },
      "properties": {
        "title": "Boulevard Hélène",
        "lat": "50.052057",
        "lon": "1.4203445",
        "type": "BSB",
        "picture": "https://delivrez.fr/public/posts/img.64d4f37470dca.png"
      }
    },
    {
      "type": "Feature",
      "geometry": {
        "type": "Point",
        "coordinates": [
          -0.481922,
          48.98952
        ]
      },
      "properties": {
        "title": "Place de la Gare",
        "lat": "48.98952",
        "lon": "-0.4819217",
        "type": "BSB",
        "picture": "https://delivrez.fr/public/posts/img.64d4b4c175cb0.png"
      }
    },
    {
      "type": "Feature",
      "geometry": {
        "type": "Point",
        "coordinates": [
          -0.650187,
          48.588917
        ]
      },
      "properties": {
        "title": "a côté du camping",
        "lat": "48.5889167",
        "lon": "-0.6501867",
        "type": "BSB",
        "picture": "https://delivrez.fr/public/posts/img.64d24d12176c4.png"
      }
    },
    {
      "type": "Feature",
      "geometry": {
        "type": "Point",
        "coordinates": [
          -0.005277,
          49.323323
        ]
      },
      "properties": {
        "title": "Place Mermoz",
        "lat": "49.3233225",
        "lon": "-0.0052773",
        "type": "BSB",
        "observation": "devant le Normandie immobilier",
        "picture": "https://delivrez.fr/public/posts/img.64d13d13f314c.png"
      }
    },
    {
      "type": "Feature",
      "geometry": {
        "type": "Point",
        "coordinates": [
          0.513225,
          49.355277
        ]
      },
      "properties": {
        "title": "Place Louis Gillain",
        "lat": "49.3552775",
        "lon": "0.5132252",
        "type": "BSB",
        "picture": "https://delivrez.fr/public/posts/img.64cfa3d62ae08.png"
      }
    },
    {
      "type": "Feature",
      "geometry": {
        "type": "Point",
        "coordinates": [
          0.048086,
          48.389983
        ]
      },
      "properties": {
        "title": "Sainte-James",
        "lat": "48.3899831",
        "lon": "0.0480855",
        "type": "BSB",
        "observation": "Tonneau",
        "picture": "https://delivrez.fr/public/posts/img.64ce246bd91e9.png"
      }
    },
    {
      "type": "Feature",
      "geometry": {
        "type": "Point",
        "coordinates": [
          0.118936,
          49.338023
        ]
      },
      "properties": {
        "title": "Chemin du Calvaire",
        "lat": "49.3380229",
        "lon": "0.1189359",
        "type": "BSB",
        "picture": "https://delivrez.fr/public/posts/img.64c691a5daa9f.png"
      }
    },
    {
      "type": "Feature",
      "geometry": {
        "type": "Point",
        "coordinates": [
          -1.371422,
          49.56241
        ]
      },
      "properties": {
        "title": "Rue Bechot",
        "lat": "49.56241",
        "lon": "-1.3714222",
        "type": "BSB"
      }
    },
    {
      "type": "Feature",
      "geometry": {
        "type": "Point",
        "coordinates": [
          0.371308,
          49.753555
        ]
      },
      "properties": {
        "title": "Carrefour",
        "lat": "49.7535554",
        "lon": "0.3713076",
        "type": "BSB",
        "observation": "A l'entrée de Carrefour",
        "picture": "https://delivrez.fr/public/posts/img.64a448794f976.png"
      }
    },
    {
      "type": "Feature",
      "geometry": {
        "type": "Point",
        "coordinates": [
          0.776157,
          48.706982
        ]
      },
      "properties": {
        "title": "gourmand le guerin",
        "lat": "48.706982",
        "lon": "0.7761574",
        "type": "BSB",
        "observation": "face à l'église",
        "picture": "https://delivrez.fr/public/posts/img.64a0297a73645.png"
      }
    },
    {
      "type": "Feature",
      "geometry": {
        "type": "Point",
        "coordinates": [
          0.741181,
          48.784526
        ]
      },
      "properties": {
        "title": "chéronvilliers",
        "lat": "48.7845265",
        "lon": "0.7411809",
        "type": "BSB",
        "observation": "angle de la rue Résidence des Parcs",
        "picture": "https://delivrez.fr/public/posts/img.649f3342de93e.png"
      }
    },
    {
      "type": "Feature",
      "geometry": {
        "type": "Point",
        "coordinates": [
          0.678172,
          48.790363
        ]
      },
      "properties": {
        "title": "saint Martin l'ecublé",
        "lat": "48.7903634",
        "lon": "0.6781718",
        "type": "BSB",
        "observation": "entre l'église et la mairie",
        "picture": "https://delivrez.fr/public/posts/img.649f32e4bf702.png"
      }
    },
    {
      "type": "Feature",
      "geometry": {
        "type": "Point",
        "coordinates": [
          0.381865,
          49.756203
        ]
      },
      "properties": {
        "title": "Hôtel de ville",
        "lat": "49.7562027",
        "lon": "0.3818648",
        "type": "BSB",
        "observation": "Devant le bureau de l'emploi",
        "picture": "https://delivrez.fr/public/posts/img.649ef928ddb4b.png"
      }
    },
    {
      "type": "Feature",
      "geometry": {
        "type": "Point",
        "coordinates": [
          0.368096,
          49.748266
        ]
      },
      "properties": {
        "title": "Le Ramponneau",
        "lat": "49.7482662",
        "lon": "0.3680957",
        "type": "BSB",
        "observation": "Devant la maison de quartier du Ramponneau",
        "picture": "https://delivrez.fr/public/posts/img.649ed9b63dc8e.png"
      }
    },
    {
      "type": "Feature",
      "geometry": {
        "type": "Point",
        "coordinates": [
          0.730418,
          48.815424
        ]
      },
      "properties": {
        "title": "Rue de L’Eglise",
        "lat": "48.815424",
        "lon": "0.7304181",
        "type": "BSB",
        "observation": "en face de la salle des fêtes",
        "picture": "https://delivrez.fr/public/posts/img.649c69483589b.png"
      }
    },
    {
      "type": "Feature",
      "geometry": {
        "type": "Point",
        "coordinates": [
          0.343395,
          48.775524
        ]
      },
      "properties": {
        "title": "Le Bourg",
        "lat": "48.7755244",
        "lon": "0.3433949",
        "type": "BSB",
        "observation": "rue du cimetière",
        "picture": "https://delivrez.fr/public/posts/img.649c46565e553.png"
      }
    },
    {
      "type": "Feature",
      "geometry": {
        "type": "Point",
        "coordinates": [
          0.360948,
          49.75905
        ]
      },
      "properties": {
        "title": "Boulevard Albert 1er",
        "lat": "49.7590503",
        "lon": "0.3609478",
        "type": "BSB",
        "observation": "Devant les sauveteurs en mer",
        "picture": "https://delivrez.fr/public/posts/img.64971e875ca03.png"
      }
    },
    {
      "type": "Feature",
      "geometry": {
        "type": "Point",
        "coordinates": [
          0.930814,
          49.35205
        ]
      },
      "properties": {
        "title": "Quai Hector Malot",
        "lat": "49.3520497",
        "lon": "0.9308143",
        "type": "BSB",
        "observation": "je prends, je lis, je partage",
        "picture": "https://delivrez.fr/public/posts/img.648ad58f0762b.png"
      }
    },
    {
      "type": "Feature",
      "geometry": {
        "type": "Point",
        "coordinates": [
          -0.524223,
          49.16711
        ]
      },
      "properties": {
        "title": "Rue des Marquises",
        "lat": "49.1671095",
        "lon": "-0.5242234",
        "type": "BSB",
        "observation": "Sur la place, en face de la boulangerie",
        "picture": "https://delivrez.fr/public/posts/img.647c5ea809e9a.png"
      }
    },
    {
      "type": "Feature",
      "geometry": {
        "type": "Point",
        "coordinates": [
          -0.486848,
          48.916267
        ]
      },
      "properties": {
        "title": "Rue des Jardins",
        "lat": "48.9162673",
        "lon": "-0.4868483",
        "type": "BSB",
        "picture": "https://delivrez.fr/public/posts/img.64747217aa309.png"
      }
    },
    {
      "type": "Feature",
      "geometry": {
        "type": "Point",
        "coordinates": [
          1.745685,
          49.482202
        ]
      },
      "properties": {
        "title": "Rue Charles Gervais",
        "lat": "49.4822015",
        "lon": "1.7456846",
        "type": "BSB",
        "observation": "boite enfants et adultes",
        "picture": "https://delivrez.fr/public/posts/img.6477671abb018.png"
      }
    },
    {
      "type": "Feature",
      "geometry": {
        "type": "Point",
        "coordinates": [
          1.512453,
          49.316699
        ]
      },
      "properties": {
        "title": "Rue Saint-Adrien",
        "lat": "49.3166985",
        "lon": "1.5124535",
        "type": "BSB",
        "observation": "Mairie",
        "picture": "https://delivrez.fr/public/posts/img.64732b06c0fcb.png"
      }
    },
    {
      "type": "Feature",
      "geometry": {
        "type": "Point",
        "coordinates": [
          2.6e-05,
          49.325629
        ]
      },
      "properties": {
        "title": "Avenue de la République",
        "lat": "49.3256294",
        "lon": "2.62E-5",
        "type": "BSB",
        "observation": "pres du poste de secours et derrière le restaurant la digue"
      }
    },
    {
      "type": "Feature",
      "geometry": {
        "type": "Point",
        "coordinates": [
          1.25093,
          49.409178
        ]
      },
      "properties": {
        "title": "Rue de Bois l'Évêque",
        "lat": "49.4091782",
        "lon": "1.2509302",
        "type": "BSB",
        "observation": "Face à la pharmacie",
        "picture": "https://delivrez.fr/public/posts/img.644fbf0f130aa.png"
      }
    },
    {
      "type": "Feature",
      "geometry": {
        "type": "Point",
        "coordinates": [
          1.13225,
          49.421943
        ]
      },
      "properties": {
        "title": "Rue François Herr",
        "lat": "49.4219433",
        "lon": "1.1322499",
        "type": "BSB",
        "observation": "À côté École Notre Dame de Nazareth",
        "picture": "https://delivrez.fr/public/posts/img.644e710fbae01.png"
      }
    },
    {
      "type": "Feature",
      "geometry": {
        "type": "Point",
        "coordinates": [
          1.138572,
          49.412307
        ]
      },
      "properties": {
        "title": "Place du Général de Gaulle",
        "lat": "49.4123066",
        "lon": "1.1385719",
        "type": "BSB",
        "observation": "Face Mairie du Mesnil-Esnard",
        "picture": "https://delivrez.fr/public/posts/img.644e6e744a077.png"
      }
    },
    {
      "type": "Feature",
      "geometry": {
        "type": "Point",
        "coordinates": [
          0.885269,
          49.461908
        ]
      },
      "properties": {
        "title": "Rue Monseigneur Lemonnier",
        "lat": "49.4619079",
        "lon": "0.8852686",
        "type": "BSB",
        "observation": "_",
        "picture": "https://delivrez.fr/public/posts/img.64108b687d417.png"
      }
    },
    {
      "type": "Feature",
      "geometry": {
        "type": "Point",
        "coordinates": [
          0.930958,
          49.502174
        ]
      },
      "properties": {
        "title": "Route du Paulu",
        "lat": "49.5021742",
        "lon": "0.9309577",
        "type": "BSB",
        "observation": "_",
        "picture": "https://delivrez.fr/public/posts/img.63d7a3741aee9.png"
      }
    },
    {
      "type": "Feature",
      "geometry": {
        "type": "Point",
        "coordinates": [
          0.893044,
          49.561407
        ]
      },
      "properties": {
        "title": "Rue du Château",
        "lat": "49.5614072",
        "lon": "0.8930439",
        "type": "BSB",
        "observation": "_",
        "picture": "https://delivrez.fr/public/posts/img.63972db3575d1.png"
      }
    },
    {
      "type": "Feature",
      "geometry": {
        "type": "Point",
        "coordinates": [
          0.885319,
          49.461925
        ]
      },
      "properties": {
        "title": "Anneville-Ambourville",
        "lat": "49.4619254",
        "lon": "0.8853187",
        "type": "BSB",
        "observation": "_",
        "picture": "https://delivrez.fr/public/posts/img.6374e1f47fb37.png"
      }
    },
    {
      "type": "Feature",
      "geometry": {
        "type": "Point",
        "coordinates": [
          0.892941,
          49.356233
        ]
      },
      "properties": {
        "title": "Route nationale",
        "lat": "49.3562327",
        "lon": "0.8929411",
        "type": "BSB",
        "observation": "Sur la place de la Mairie",
        "picture": "https://delivrez.fr/public/posts/img.642d9d3b1601d.png"
      }
    },
    {
      "type": "Feature",
      "geometry": {
        "type": "Point",
        "coordinates": [
          0.888618,
          49.35666
        ]
      },
      "properties": {
        "title": "Route nationale",
        "lat": "49.3566596",
        "lon": "0.8886178",
        "type": "BSB",
        "observation": "Près du Lidl",
        "picture": "https://delivrez.fr/public/posts/img.642d9ba35e733.png"
      }
    },
    {
      "type": "Feature",
      "geometry": {
        "type": "Point",
        "coordinates": [
          1.254144,
          49.981294
        ]
      },
      "properties": {
        "title": "Rue de l'Église",
        "lat": "49.9812937",
        "lon": "1.2541437",
        "type": "BSB",
        "observation": "_"
      }
    },
    {
      "type": "Feature",
      "geometry": {
        "type": "Point",
        "coordinates": [
          -1.358205,
          48.677365
        ]
      },
      "properties": {
        "title": "Rue Barbey d'Aurevilly",
        "lat": "48.6773646",
        "lon": "-1.3582051",
        "type": "BSB",
        "observation": "_",
        "picture": "https://delivrez.fr/public/posts/img.63d4f774b0a38.png"
      }
    },
    {
      "type": "Feature",
      "geometry": {
        "type": "Point",
        "coordinates": [
          -1.35789,
          48.688168
        ]
      },
      "properties": {
        "title": "Place du Marché",
        "lat": "48.688168",
        "lon": "-1.3578898",
        "type": "BSB",
        "observation": "Sur la place du marché",
        "picture": "https://delivrez.fr/public/posts/img.63d0ff0d70838.png"
      }
    },
    {
      "type": "Feature",
      "geometry": {
        "type": "Point",
        "coordinates": [
          -1.342294,
          48.684954
        ]
      },
      "properties": {
        "title": "Rue de l'Eglise",
        "lat": "48.6849541",
        "lon": "-1.3422944",
        "type": "BSB",
        "observation": "Devant la mairie",
        "picture": "https://delivrez.fr/public/posts/img.63cf883adec05.png"
      }
    },
    {
      "type": "Feature",
      "geometry": {
        "type": "Point",
        "coordinates": [
          0.772,
          49.481849
        ]
      },
      "properties": {
        "title": "Rue de la République",
        "lat": "49.4818491",
        "lon": "0.7720003",
        "type": "BSB",
        "observation": "_",
        "picture": "https://delivrez.fr/public/posts/img.635947cdd2ef7.png"
      }
    },
    {
      "type": "Feature",
      "geometry": {
        "type": "Point",
        "coordinates": [
          0.876757,
          49.48149
        ]
      },
      "properties": {
        "title": "Boîte à livre Lions France",
        "lat": "49.4814899",
        "lon": "0.8767566",
        "type": "BSB",
        "observation": "_",
        "picture": "https://delivrez.fr/public/posts/img.633de433d3dee.png"
      }
    },
    {
      "type": "Feature",
      "geometry": {
        "type": "Point",
        "coordinates": [
          0.790194,
          49.82845
        ]
      },
      "properties": {
        "title": "Rue de la Motte",
        "lat": "49.8284504",
        "lon": "0.790194",
        "type": "BSB",
        "observation": "_",
        "picture": "https://delivrez.fr/public/posts/img.6300badf4df2f.png"
      }
    },
    {
      "type": "Feature",
      "geometry": {
        "type": "Point",
        "coordinates": [
          0.927436,
          48.739798
        ]
      },
      "properties": {
        "title": "Rue des Trois Maillets",
        "lat": "48.7397977",
        "lon": "0.9274365",
        "type": "BSB",
        "observation": "Magasin Mam'zelle savon"
      }
    },
    {
      "type": "Feature",
      "geometry": {
        "type": "Point",
        "coordinates": [
          -0.36831,
          48.701826
        ]
      },
      "properties": {
        "title": "Briouze",
        "lat": "48.7018256",
        "lon": "-0.3683102",
        "type": "BSB",
        "observation": "_",
        "picture": "https://delivrez.fr/public/posts/img.62fdf821af537.png"
      }
    },
    {
      "type": "Feature",
      "geometry": {
        "type": "Point",
        "coordinates": [
          1.189554,
          49.355494
        ]
      },
      "properties": {
        "title": "Rue du Fresnay",
        "lat": "49.3554943",
        "lon": "1.1895541",
        "type": "BSB",
        "observation": "devant l'école"
      }
    },
    {
      "type": "Feature",
      "geometry": {
        "type": "Point",
        "coordinates": [
          -0.54862,
          48.844662
        ]
      },
      "properties": {
        "title": "Rue Iberthe Bertoux",
        "lat": "48.8446618",
        "lon": "-0.5486201",
        "type": "BSB",
        "observation": "_",
        "picture": "https://delivrez.fr/public/posts/img.62fa6756cc065.png"
      }
    },
    {
      "type": "Feature",
      "geometry": {
        "type": "Point",
        "coordinates": [
          0.076139,
          48.419434
        ]
      },
      "properties": {
        "title": "BAL St Germains",
        "lat": "48.4194336",
        "lon": "0.0761389",
        "type": "BSB",
        "observation": "Près de la résidence Escalys, à côté de Carrefour Market.",
        "picture": "https://delivrez.fr/public/posts/img.62fa4d9fc4064.png"
      }
    },
    {
      "type": "Feature",
      "geometry": {
        "type": "Point",
        "coordinates": [
          1.030439,
          49.192573
        ]
      },
      "properties": {
        "title": "Ruelle Picard",
        "lat": "49.192573",
        "lon": "1.0304388",
        "type": "BSB",
        "observation": "à côté de l'enclos des poules@@__ancienne cabine téléphonique",
        "picture": "https://delivrez.fr/public/posts/img.62ea35f652a02.png"
      }
    },
    {
      "type": "Feature",
      "geometry": {
        "type": "Point",
        "coordinates": [
          1.05312,
          49.211389
        ]
      },
      "properties": {
        "title": "Rue des Champs",
        "lat": "49.2113893",
        "lon": "1.0531205",
        "type": "BSB",
        "observation": "besoin d'une porte@@__à côté de l'arrêt de bus",
        "picture": "https://delivrez.fr/public/posts/img.62ea3336b2bad.png"
      }
    },
    {
      "type": "Feature",
      "geometry": {
        "type": "Point",
        "coordinates": [
          1.065643,
          49.223587
        ]
      },
      "properties": {
        "title": "Place de la Mairie",
        "lat": "49.2235869",
        "lon": "1.0656426",
        "type": "BSB",
        "observation": "a droite de la pharmacie",
        "picture": "https://delivrez.fr/public/posts/img.62e8e23341cbf.png"
      }
    },
    {
      "type": "Feature",
      "geometry": {
        "type": "Point",
        "coordinates": [
          1.089436,
          49.236061
        ]
      },
      "properties": {
        "title": "Rue des Forrières",
        "lat": "49.236061",
        "lon": "1.0894364",
        "type": "BSB",
        "observation": "entre l'école et la salle des fêtes",
        "picture": "https://delivrez.fr/public/posts/img.62e8e4cad0099.png"
      }
    },
    {
      "type": "Feature",
      "geometry": {
        "type": "Point",
        "coordinates": [
          -1.526918,
          48.951507
        ]
      },
      "properties": {
        "title": "Jolie boîte devant la poste",
        "lat": "48.9515075",
        "lon": "-1.526918",
        "type": "BSB",
        "observation": "_"
      }
    },
    {
      "type": "Feature",
      "geometry": {
        "type": "Point",
        "coordinates": [
          0.033522,
          49.335942
        ]
      },
      "properties": {
        "title": "Rue de l'Hermitage",
        "lat": "49.3359423",
        "lon": "0.0335221",
        "type": "BSB",
        "observation": "_",
        "picture": "https://delivrez.fr/public/posts/img.62d83e7ea8eed.png"
      }
    },
    {
      "type": "Feature",
      "geometry": {
        "type": "Point",
        "coordinates": [
          0.800131,
          49.87261
        ]
      },
      "properties": {
        "title": "Rue Docteur Pierre Girard",
        "lat": "49.8726098",
        "lon": "0.8001306",
        "type": "BSB",
        "observation": "_",
        "picture": "https://delivrez.fr/public/posts/img.62d12007249a3.png"
      }
    },
    {
      "type": "Feature",
      "geometry": {
        "type": "Point",
        "coordinates": [
          1.362669,
          50.035473
        ]
      },
      "properties": {
        "title": "Rue des Pommiers",
        "lat": "50.0354731",
        "lon": "1.3626692",
        "type": "BSB",
        "observation": "_",
        "picture": "https://delivrez.fr/public/posts/img.629f4f5d27730.png"
      }
    },
    {
      "type": "Feature",
      "geometry": {
        "type": "Point",
        "coordinates": [
          1.072757,
          49.323359
        ]
      },
      "properties": {
        "title": "bato livre",
        "lat": "49.3233591",
        "lon": "1.0727566",
        "type": "BSB",
        "observation": "_",
        "picture": "https://delivrez.fr/public/posts/img.6277a95d3257b.png"
      }
    },
    {
      "type": "Feature",
      "geometry": {
        "type": "Point",
        "coordinates": [
          0.61369,
          48.692289
        ]
      },
      "properties": {
        "title": "Les Hermitages",
        "lat": "48.6922892",
        "lon": "0.6136904",
        "type": "BSB",
        "observation": "sur le parking de covoiturage",
        "picture": "https://delivrez.fr/public/posts/img.626ae72c16c89.png"
      }
    },
    {
      "type": "Feature",
      "geometry": {
        "type": "Point",
        "coordinates": [
          0.648587,
          49.310437
        ]
      },
      "properties": {
        "title": "Le Bourg",
        "lat": "49.3104368",
        "lon": "0.6485871",
        "type": "BSB",
        "observation": "_",
        "picture": "https://delivrez.fr/public/posts/img.625c3633a481e.png"
      }
    },
    {
      "type": "Feature",
      "geometry": {
        "type": "Point",
        "coordinates": [
          1.077708,
          49.301293
        ]
      },
      "properties": {
        "title": "Elbeuf le Buquet",
        "lat": "49.3012932",
        "lon": "1.0777079",
        "type": "BSB",
        "observation": "à côté de l'entrée de l'école"
      }
    },
    {
      "type": "Feature",
      "geometry": {
        "type": "Point",
        "coordinates": [
          1.087805,
          49.437126
        ]
      },
      "properties": {
        "title": "Pont Jeanne d'Arc",
        "lat": "49.4371255",
        "lon": "1.0878048",
        "type": "BSB",
        "observation": "Sous le pont, près de l'aire de jeux"
      }
    },
    {
      "type": "Feature",
      "geometry": {
        "type": "Point",
        "coordinates": [
          0.774997,
          48.431949
        ]
      },
      "properties": {
        "title": "Avenue Albert de Mun",
        "lat": "48.4319491",
        "lon": "0.7749969",
        "type": "BSB",
        "observation": "_"
      }
    },
    {
      "type": "Feature",
      "geometry": {
        "type": "Point",
        "coordinates": [
          1.23604,
          49.980436
        ]
      },
      "properties": {
        "title": "Rue des Hares",
        "lat": "49.9804361",
        "lon": "1.2360399",
        "type": "BSB",
        "observation": "_",
        "picture": "https://delivrez.fr/public/posts/img.618e52168177e.png"
      }
    },
    {
      "type": "Feature",
      "geometry": {
        "type": "Point",
        "coordinates": [
          0.574831,
          49.527503
        ]
      },
      "properties": {
        "title": "Rue Félix Faure",
        "lat": "49.5275028",
        "lon": "0.5748307",
        "type": "BSB",
        "observation": "_"
      }
    },
    {
      "type": "Feature",
      "geometry": {
        "type": "Point",
        "coordinates": [
          0.4997,
          49.614942
        ]
      },
      "properties": {
        "title": "D149",
        "lat": "49.6149417",
        "lon": "0.4997",
        "type": "BSB",
        "observation": "_"
      }
    },
    {
      "type": "Feature",
      "geometry": {
        "type": "Point",
        "coordinates": [
          1.077538,
          49.420825
        ]
      },
      "properties": {
        "title": "Avenue des Martyrs de la Résistance",
        "lat": "49.4208249",
        "lon": "1.0775378",
        "type": "BSB",
        "observation": "_"
      }
    },
    {
      "type": "Feature",
      "geometry": {
        "type": "Point",
        "coordinates": [
          1.242406,
          49.109069
        ]
      },
      "properties": {
        "title": "Rue de la Motte",
        "lat": "49.1090692",
        "lon": "1.2424062",
        "type": "BSB",
        "observation": "avec la jardinière et décorée@@__@@__"
      }
    },
    {
      "type": "Feature",
      "geometry": {
        "type": "Point",
        "coordinates": [
          -1.828534,
          49.488718
        ]
      },
      "properties": {
        "title": "Bourg LE ROZEL",
        "lat": "49.4887184",
        "lon": "-1.8285337",
        "type": "BSB",
        "observation": "Boîte bien entretenue et pourvue"
      }
    },
    {
      "type": "Feature",
      "geometry": {
        "type": "Point",
        "coordinates": [
          -0.561376,
          49.211037
        ]
      },
      "properties": {
        "title": "Route d'Audrieu",
        "lat": "49.2110371",
        "lon": "-0.5613763",
        "type": "BSB",
        "observation": "_"
      }
    },
    {
      "type": "Feature",
      "geometry": {
        "type": "Point",
        "coordinates": [
          0.470298,
          49.576228
        ]
      },
      "properties": {
        "title": "Route de Mirville",
        "lat": "49.5762278",
        "lon": "0.4702976",
        "type": "BSB",
        "observation": "val au grès Mjc"
      }
    },