{
  "type": "FeatureCollection",
  "features": [
    {
      "type": "Feature",
      "geometry": {
        "type": "Point",
        "coordinates": [
          0.444194,
          45.612549
        ]
      },
      "properties": {
        "title": "Rue du Faubourg Saint-Martin",
        "lat": "45.6125487",
        "lon": "0.4441939",
        "type": "BSB",
        "picture": "https://delivrez.fr/public/posts/img.68d69f0043d14.png"
      }
    },
    {
      "type": "Feature",
      "geometry": {
        "type": "Point",
        "coordinates": [
          -0.374534,
          44.686592
        ]
      },
      "properties": {
        "title": "Place de Beguey",
        "lat": "44.6865922",
        "lon": "-0.3745335",
        "type": "BSB"
      }
    },
    {
      "type": "Feature",
      "geometry": {
        "type": "Point",
        "coordinates": [
          -0.153072,
          44.52043
        ]
      },
      "properties": {
        "title": "Le Bourg",
        "lat": "44.5204304",
        "lon": "-0.1530718",
        "type": "BSB",
        "picture": "https://delivrez.fr/public/posts/img.68cbbfa6e931d.png"
      }
    },
    {
      "type": "Feature",
      "geometry": {
        "type": "Point",
        "coordinates": [
          -1.399541,
          43.359172
        ]
      },
      "properties": {
        "title": "Cambo Les Bains 1",
        "lat": "43.3591716",
        "lon": "-1.3995412",
        "type": "BSB",
        "observation": "derrière  l’aire de jeux",
        "picture": "https://delivrez.fr/public/posts/img.68c53986bd4ae.png"
      }
    },
    {
      "type": "Feature",
      "geometry": {
        "type": "Point",
        "coordinates": [
          -0.322758,
          46.532762
        ]
      },
      "properties": {
        "title": "place des marronniers",
        "lat": "46.5327619",
        "lon": "-0.3227584",
        "type": "BSB",
        "observation": "contre l'église",
        "picture": "https://delivrez.fr/public/posts/img.68c070d423157.png"
      }
    },
    {
      "type": "Feature",
      "geometry": {
        "type": "Point",
        "coordinates": [
          0.58175,
          44.896567
        ]
      },
      "properties": {
        "title": "Route du Viraillot",
        "lat": "44.8965673",
        "lon": "0.5817503",
        "type": "BSB",
        "picture": "https://delivrez.fr/public/posts/img.68c1692443857.png"
      }
    },
    {
      "type": "Feature",
      "geometry": {
        "type": "Point",
        "coordinates": [
          -0.617443,
          44.882964
        ]
      },
      "properties": {
        "title": "Avenue de Verdun",
        "lat": "44.8829636",
        "lon": "-0.6174425",
        "type": "BSB",
        "observation": "Parc Treulon",
        "picture": "https://delivrez.fr/public/posts/img.68b851b957185.png"
      }
    },
    {
      "type": "Feature",
      "geometry": {
        "type": "Point",
        "coordinates": [
          0.544777,
          44.90636
        ]
      },
      "properties": {
        "title": "Route des Penauds",
        "lat": "44.90636",
        "lon": "0.5447767",
        "type": "BSB",
        "observation": "devant la mairie",
        "picture": "https://delivrez.fr/public/posts/img.68b9801ea44ff.png"
      }
    },
    {
      "type": "Feature",
      "geometry": {
        "type": "Point",
        "coordinates": [
          -1.406318,
          43.334371
        ]
      },
      "properties": {
        "title": "Mairie d’Itsaxou",
        "lat": "43.3343706",
        "lon": "-1.4063178",
        "type": "BSB",
        "observation": "Près de l’espace France Services",
        "picture": "https://delivrez.fr/public/posts/img.68b8159e47cc9.png"
      }
    },
    {
      "type": "Feature",
      "geometry": {
        "type": "Point",
        "coordinates": [
          1.13316,
          45.796211
        ]
      },
      "properties": {
        "title": "Avenue Pasteur",
        "lat": "45.7962115",
        "lon": "1.1331603",
        "type": "BSB",
        "picture": "https://delivrez.fr/public/posts/img.68b311d65b867.png"
      }
    },
    {
      "type": "Feature",
      "geometry": {
        "type": "Point",
        "coordinates": [
          -0.985889,
          45.583688
        ]
      },
      "properties": {
        "title": "Avenue de Suzac",
        "lat": "45.5836876",
        "lon": "-0.9858895",
        "type": "BSB",
        "picture": "https://delivrez.fr/public/posts/img.68b1a9463ad06.png"
      }
    },
    {
      "type": "Feature",
      "geometry": {
        "type": "Point",
        "coordinates": [
          1.259143,
          44.774769
        ]
      },
      "properties": {
        "title": "Chemin de la Pierre de la Lune",
        "lat": "44.7747693",
        "lon": "1.2591425",
        "type": "BSB",
        "picture": "https://delivrez.fr/public/posts/img.68aed3f8e3517.png"
      }
    },
    {
      "type": "Feature",
      "geometry": {
        "type": "Point",
        "coordinates": [
          2.04695,
          45.406101
        ]
      },
      "properties": {
        "title": "Rue Joseph Vialaneix",
        "lat": "45.4061005",
        "lon": "2.0469501",
        "type": "BSB",
        "observation": "dure a ouvrir",
        "picture": "https://delivrez.fr/public/posts/img.68ab33b02cb76.png"
      }
    },
    {
      "type": "Feature",
      "geometry": {
        "type": "Point",
        "coordinates": [
          2.17108,
          45.372128
        ]
      },
      "properties": {
        "title": "Place de la Mairie",
        "lat": "45.3721277",
        "lon": "2.1710804",
        "type": "BSB",
        "observation": "petite",
        "picture": "https://delivrez.fr/public/posts/img.68ab2a8a7e992.png"
      }
    },
    {
      "type": "Feature",
      "geometry": {
        "type": "Point",
        "coordinates": [
          1.18427,
          44.82497
        ]
      },
      "properties": {
        "title": "Promenade de la Batellerie",
        "lat": "44.8249704",
        "lon": "1.1842703",
        "type": "BSB"
      }
    },
    {
      "type": "Feature",
      "geometry": {
        "type": "Point",
        "coordinates": [
          1.165246,
          44.834096
        ]
      },
      "properties": {
        "title": "Place Regis Magnol",
        "lat": "44.834096",
        "lon": "1.1652461",
        "type": "BSB",
        "picture": "https://delivrez.fr/public/posts/img.68a84b04decd8.png"
      }
    },
    {
      "type": "Feature",
      "geometry": {
        "type": "Point",
        "coordinates": [
          -1.165134,
          44.395983
        ]
      },
      "properties": {
        "title": "Place Marsan",
        "lat": "44.3959829",
        "lon": "-1.1651342",
        "type": "BSB"
      }
    },
    {
      "type": "Feature",
      "geometry": {
        "type": "Point",
        "coordinates": [
          0.859217,
          44.905572
        ]
      },
      "properties": {
        "title": "Ruelle Roger Barnalier",
        "lat": "44.9055724",
        "lon": "0.8592168",
        "type": "BSB",
        "observation": "dur la place de la mairie dans un petit kiosque avec un toit",
        "picture": "https://delivrez.fr/public/posts/img.68a724998059c.png"
      }
    },
    {
      "type": "Feature",
      "geometry": {
        "type": "Point",
        "coordinates": [
          -0.867215,
          44.550721
        ]
      },
      "properties": {
        "title": "Rue Va aux Champs",
        "lat": "44.5507213",
        "lon": "-0.8672151",
        "type": "BSB"
      }
    },
    {
      "type": "Feature",
      "geometry": {
        "type": "Point",
        "coordinates": [
          -0.128533,
          45.015892
        ]
      },
      "properties": {
        "title": "Rue du Cheminot",
        "lat": "45.0158922",
        "lon": "-0.128533",
        "type": "BSB"
      }
    },
    {
      "type": "Feature",
      "geometry": {
        "type": "Point",
        "coordinates": [
          -0.063147,
          44.998041
        ]
      },
      "properties": {
        "title": "Route Du Camping",
        "lat": "44.9980412",
        "lon": "-0.063147",
        "type": "BSB"
      }
    },
    {
      "type": "Feature",
      "geometry": {
        "type": "Point",
        "coordinates": [
          -0.006791,
          44.94536
        ]
      },
      "properties": {
        "title": "Impasse de l'Église Saint Martin de Francs",
        "lat": "44.9453602",
        "lon": "-0.0067913",
        "type": "BSB",
        "observation": "cabane a livres"
      }
    },
    {
      "type": "Feature",
      "geometry": {
        "type": "Point",
        "coordinates": [
          -0.010115,
          44.953523
        ]
      },
      "properties": {
        "title": "Route du Bois de la Tour",
        "lat": "44.9535233",
        "lon": "-0.0101145",
        "type": "BSB",
        "observation": "cabane à livres",
        "picture": "https://delivrez.fr/public/posts/img.68a4612f1b1b0.png"
      }
    },
    {
      "type": "Feature",
      "geometry": {
        "type": "Point",
        "coordinates": [
          -0.064336,
          44.981476
        ]
      },
      "properties": {
        "title": "Route des Artigues de Lussac",
        "lat": "44.981476",
        "lon": "-0.0643358",
        "type": "BSB"
      }
    },
    {
      "type": "Feature",
      "geometry": {
        "type": "Point",
        "coordinates": [
          -1.167659,
          44.429614
        ]
      },
      "properties": {
        "title": "Chemin de Navarrosse",
        "lat": "44.4296145",
        "lon": "-1.1676594",
        "type": "BSB"
      }
    },
    {
      "type": "Feature",
      "geometry": {
        "type": "Point",
        "coordinates": [
          1.50938,
          45.191035
        ]
      },
      "properties": {
        "title": "Avenue des Écoles",
        "lat": "45.1910352",
        "lon": "1.5093796",
        "type": "BSB",
        "picture": "https://delivrez.fr/public/posts/img.689d9c390f2c9.png"
      }
    },
    {
      "type": "Feature",
      "geometry": {
        "type": "Point",
        "coordinates": [
          -1.190232,
          45.081956
        ]
      },
      "properties": {
        "title": "Avenue des Sables",
        "lat": "45.0819562",
        "lon": "-1.1902315",
        "type": "BSB",
        "picture": "https://delivrez.fr/public/posts/img.689f794d5e560.png"
      }
    },
    {
      "type": "Feature",
      "geometry": {
        "type": "Point",
        "coordinates": [
          -0.054737,
          47.011826
        ]
      },
      "properties": {
        "title": "Rue des Vignes",
        "lat": "47.0118261",
        "lon": "-0.0547368",
        "type": "BSB",
        "picture": "https://delivrez.fr/public/posts/img.689cd861d8486.png"
      }
    },
    {
      "type": "Feature",
      "geometry": {
        "type": "Point",
        "coordinates": [
          -1.025454,
          45.25339
        ]
      },
      "properties": {
        "title": "Place du Onze Novembre",
        "lat": "45.2533899",
        "lon": "-1.0254543",
        "type": "BSB",
        "picture": "https://delivrez.fr/public/posts/img.689c9fc15bf83.png"
      }
    },
    {
      "type": "Feature",
      "geometry": {
        "type": "Point",
        "coordinates": [
          -1.004378,
          45.625166
        ]
      },
      "properties": {
        "title": "Marne",
        "lat": "45.625166",
        "lon": "-1.0043783",
        "type": "BSB",
        "picture": "https://delivrez.fr/public/posts/img.689af094cd987.png"
      }
    },
    {
      "type": "Feature",
      "geometry": {
        "type": "Point",
        "coordinates": [
          1.698609,
          45.376139
        ]
      },
      "properties": {
        "title": "Boulevard de la Plage",
        "lat": "45.3761387",
        "lon": "1.6986094",
        "type": "BSB",
        "picture": "https://delivrez.fr/public/posts/img.689617750a5bb.png"
      }
    },
    {
      "type": "Feature",
      "geometry": {
        "type": "Point",
        "coordinates": [
          -0.942807,
          45.307538
        ]
      },
      "properties": {
        "title": "Rue Pierre Curie",
        "lat": "45.307538",
        "lon": "-0.942807",
        "type": "BSB",
        "picture": "https://delivrez.fr/public/posts/img.6898865776b69.png"
      }
    },
    {
      "type": "Feature",
      "geometry": {
        "type": "Point",
        "coordinates": [
          -0.590822,
          44.813037
        ]
      },
      "properties": {
        "title": "Rue Camille Pelletan",
        "lat": "44.8130367",
        "lon": "-0.5908217",
        "type": "BSB",
        "observation": "La boite à l'entrée du parc Pineau qui fait face au rond point.",
        "picture": "https://delivrez.fr/public/posts/img.68935a249d0cd.png"
      }
    },
    {
      "type": "Feature",
      "geometry": {
        "type": "Point",
        "coordinates": [
          -0.465999,
          44.879033
        ]
      },
      "properties": {
        "title": "Avenue des Tabernottes",
        "lat": "44.8790325",
        "lon": "-0.4659994",
        "type": "BSB",
        "observation": "Devant le city stade et le pump track",
        "picture": "https://delivrez.fr/public/posts/img.68936ff77e8f2.png"
      }
    },
    {
      "type": "Feature",
      "geometry": {
        "type": "Point",
        "coordinates": [
          -1.201675,
          45.003763
        ]
      },
      "properties": {
        "title": "Boulevard de la Plage",
        "lat": "45.0037629",
        "lon": "-1.2016752",
        "type": "BSB",
        "observation": "Plage Centrale",
        "picture": "https://delivrez.fr/public/posts/img.689318eae8c17.png"
      }
    },
    {
      "type": "Feature",
      "geometry": {
        "type": "Point",
        "coordinates": [
          0.176442,
          45.850094
        ]
      },
      "properties": {
        "title": "Rue Basse",
        "lat": "45.8500937",
        "lon": "0.1764421",
        "type": "BSB",
        "observation": "A l'ombre, sous l'arbre",
        "picture": "https://delivrez.fr/public/posts/img.688f2e6ae63ec.png"
      }
    },
    {
      "type": "Feature",
      "geometry": {
        "type": "Point",
        "coordinates": [
          -0.619674,
          44.873274
        ]
      },
      "properties": {
        "title": "Bois du Bouscat",
        "lat": "44.873274",
        "lon": "-0.6196736",
        "type": "BSB",
        "observation": "Dans le parc",
        "picture": "https://delivrez.fr/public/posts/img.688f7ea5ce31e.png"
      }
    },
    {
      "type": "Feature",
      "geometry": {
        "type": "Point",
        "coordinates": [
          -1.034448,
          45.427151
        ]
      },
      "properties": {
        "title": "Cours Pierre Lassalle",
        "lat": "45.4271514",
        "lon": "-1.0344477",
        "type": "BSB",
        "picture": "https://delivrez.fr/public/posts/img.688b8d1936e01.png"
      }
    },
    {
      "type": "Feature",
      "geometry": {
        "type": "Point",
        "coordinates": [
          -1.035982,
          45.431212
        ]
      },
      "properties": {
        "title": "Place de la Brigade Carnot",
        "lat": "45.4312122",
        "lon": "-1.0359818",
        "type": "BSB",
        "picture": "https://delivrez.fr/public/posts/img.688b8bc11d3c1.png"
      }
    },
    {
      "type": "Feature",
      "geometry": {
        "type": "Point",
        "coordinates": [
          -1.057193,
          45.472093
        ]
      },
      "properties": {
        "title": "Route du Bourg",
        "lat": "45.4720934",
        "lon": "-1.0571933",
        "type": "BSB",
        "picture": "https://delivrez.fr/public/posts/img.688b893578f5e.png"
      }
    },
    {
      "type": "Feature",
      "geometry": {
        "type": "Point",
        "coordinates": [
          -0.492811,
          44.759732
        ]
      },
      "properties": {
        "title": "Lieu dit Lestange",
        "lat": "44.7597318",
        "lon": "-0.4928106",
        "type": "BSB",
        "observation": "petite boîte à livres",
        "picture": "https://delivrez.fr/public/posts/img.688b51e0bf8ed.png"
      }
    },
    {
      "type": "Feature",
      "geometry": {
        "type": "Point",
        "coordinates": [
          -0.610187,
          44.866934
        ]
      },
      "properties": {
        "title": "Boite à lire Cheneraie",
        "lat": "44.8669343",
        "lon": "-0.6101871",
        "type": "BSB",
        "observation": "Parc de la Cheneraie",
        "picture": "https://delivrez.fr/public/posts/img.688a3c9117902.png"
      }
    },
    {
      "type": "Feature",
      "geometry": {
        "type": "Point",
        "coordinates": [
          -0.113114,
          44.828751
        ]
      },
      "properties": {
        "title": "Église - Sainte-Terre",
        "lat": "44.828751",
        "lon": "-0.113114",
        "type": "BSB",
        "picture": "https://delivrez.fr/public/posts/img.6888f335c42fd.png"
      }
    },
    {
      "type": "Feature",
      "geometry": {
        "type": "Point",
        "coordinates": [
          -0.135402,
          44.819738
        ]
      },
      "properties": {
        "title": "Jardin de la Lamproie - Sainte-Terre",
        "lat": "44.8197375",
        "lon": "-0.1354015",
        "type": "BSB",
        "picture": "https://delivrez.fr/public/posts/img.6888ede2152a7.png"
      }
    },
    {
      "type": "Feature",
      "geometry": {
        "type": "Point",
        "coordinates": [
          -0.902576,
          45.288324
        ]
      },
      "properties": {
        "title": "Route des Marceaux",
        "lat": "45.2883242",
        "lon": "-0.9025763",
        "type": "BSB",
        "picture": "https://delivrez.fr/public/posts/img.6888c3b69b0a5.png"
      }
    },
    {
      "type": "Feature",
      "geometry": {
        "type": "Point",
        "coordinates": [
          -1.080296,
          45.260047
        ]
      },
      "properties": {
        "title": "Route des Lacs",
        "lat": "45.2600472",
        "lon": "-1.0802961",
        "type": "BSB",
        "picture": "https://delivrez.fr/public/posts/img.68874933bddb4.png"
      }
    },
    {
      "type": "Feature",
      "geometry": {
        "type": "Point",
        "coordinates": [
          -0.59513,
          43.371598
        ]
      },
      "properties": {
        "title": "Rue Charles Moureu",
        "lat": "43.3715985",
        "lon": "-0.5951303",
        "type": "BSB",
        "picture": "https://delivrez.fr/public/posts/img.68861804c860e.png"
      }
    },
    {
      "type": "Feature",
      "geometry": {
        "type": "Point",
        "coordinates": [
          -1.10327,
          45.269851
        ]
      },
      "properties": {
        "title": "Route du Pin Sec",
        "lat": "45.2698509",
        "lon": "-1.1032697",
        "type": "BSB",
        "picture": "https://delivrez.fr/public/posts/img.68838dd603852.png"
      }
    },
    {
      "type": "Feature",
      "geometry": {
        "type": "Point",
        "coordinates": [
          -0.944789,
          45.2765
        ]
      },
      "properties": {
        "title": "Route de Plassan",
        "lat": "45.2764997",
        "lon": "-0.9447885",
        "type": "BSB",
        "picture": "https://delivrez.fr/public/posts/img.68823db63bc07.png"
      }
    },
    {
      "type": "Feature",
      "geometry": {
        "type": "Point",
        "coordinates": [
          0.332613,
          46.574957
        ]
      },
      "properties": {
        "title": "Jardin des anglais (Blossac)",
        "lat": "46.574957",
        "lon": "0.3326132",
        "type": "BSB",
        "picture": "https://delivrez.fr/public/posts/img.68807fa338392.png"
      }
    },
    {
      "type": "Feature",
      "geometry": {
        "type": "Point",
        "coordinates": [
          -0.888172,
          45.271631
        ]
      },
      "properties": {
        "title": "la cabine d'Artiguillon",
        "lat": "45.2716315",
        "lon": "-0.8881717",
        "type": "BSB",
        "picture": "https://delivrez.fr/public/posts/img.687fe1c7caeb2.png"
      }
    },
    {
      "type": "Feature",
      "geometry": {
        "type": "Point",
        "coordinates": [
          -0.82195,
          45.146014
        ]
      },
      "properties": {
        "title": "Rue Saint-Exupéry",
        "lat": "45.146014",
        "lon": "-0.8219497",
        "type": "BSB",
        "observation": "La poste",
        "picture": "https://delivrez.fr/public/posts/img.687fc8072fccd.png"
      }
    },
    {
      "type": "Feature",
      "geometry": {
        "type": "Point",
        "coordinates": [
          -1.002253,
          45.248552
        ]
      },
      "properties": {
        "title": "Rue de Saint-Laurent",
        "lat": "45.248552",
        "lon": "-1.002253",
        "type": "BSB",
        "picture": "https://delivrez.fr/public/posts/img.687d0a7bb1ccc.png"
      }
    },
    {
      "type": "Feature",
      "geometry": {
        "type": "Point",
        "coordinates": [
          -1.064078,
          45.186196
        ]
      },
      "properties": {
        "title": "ancienne gare Hourtin",
        "lat": "45.1861963",
        "lon": "-1.0640775",
        "type": "BSB",
        "picture": "https://delivrez.fr/public/posts/img.687cfe97b0a59.png"
      }
    },
    {
      "type": "Feature",
      "geometry": {
        "type": "Point",
        "coordinates": [
          -0.795588,
          45.476623
        ]
      },
      "properties": {
        "title": "Place Parias",
        "lat": "45.4766228",
        "lon": "-0.7955882",
        "type": "BSB",
        "observation": "Mise en place par la Municipalité.",
        "picture": "https://delivrez.fr/public/posts/img.686ac86e1f316.png"
      }
    },
    {
      "type": "Feature",
      "geometry": {
        "type": "Point",
        "coordinates": [
          -1.105445,
          44.742718
        ]
      },
      "properties": {
        "title": "Boulevard de la Plage",
        "lat": "44.7427181",
        "lon": "-1.1054446",
        "type": "BSB",
        "picture": "https://delivrez.fr/public/posts/img.68764c02ec09b.png"
      }
    },
    {
      "type": "Feature",
      "geometry": {
        "type": "Point",
        "coordinates": [
          -1.101536,
          44.740392
        ]
      },
      "properties": {
        "title": "Allée Gambetta",
        "lat": "44.7403922",
        "lon": "-1.1015359",
        "type": "BSB",
        "picture": "https://delivrez.fr/public/posts/img.687640fcd4774.png"
      }
    },
    {
      "type": "Feature",
      "geometry": {
        "type": "Point",
        "coordinates": [
          -1.017816,
          44.640122
        ]
      },
      "properties": {
        "title": "Rue du Port",
        "lat": "44.6401225",
        "lon": "-1.0178159",
        "type": "BSB",
        "picture": "https://delivrez.fr/public/posts/img.6874d5c8a3f10.png"
      }
    },
    {
      "type": "Feature",
      "geometry": {
        "type": "Point",
        "coordinates": [
          1.713801,
          45.367463
        ]
      },
      "properties": {
        "title": "Avenue Jean Vinatier",
        "lat": "45.3674633",
        "lon": "1.7138005",
        "type": "BSB",
        "picture": "https://delivrez.fr/public/posts/img.687112c61843e.png"
      }
    },
    {
      "type": "Feature",
      "geometry": {
        "type": "Point",
        "coordinates": [
          -0.678543,
          45.040813
        ]
      },
      "properties": {
        "title": "Avenue Jeanne d'Arc",
        "lat": "45.0408134",
        "lon": "-0.6785433",
        "type": "BSB",
        "picture": "https://delivrez.fr/public/posts/img.686a425522de1.png"
      }
    },
    {
      "type": "Feature",
      "geometry": {
        "type": "Point",
        "coordinates": [
          -0.369262,
          46.313413
        ]
      },
      "properties": {
        "title": "Rue de Boussantin",
        "lat": "46.3134128",
        "lon": "-0.3692622",
        "type": "BSB",
        "observation": "derrière la mairie aux abords du Parc",
        "picture": "https://delivrez.fr/public/posts/img.686a233d5d40f.png"
      }
    },
    {
      "type": "Feature",
      "geometry": {
        "type": "Point",
        "coordinates": [
          -1.002634,
          45.599437
        ]
      },
      "properties": {
        "title": "Allée de l'Estuaire",
        "lat": "45.5994373",
        "lon": "-1.0026338",
        "type": "BSB",
        "picture": "https://delivrez.fr/public/posts/img.68694c8db161b.png"
      }
    },
    {
      "type": "Feature",
      "geometry": {
        "type": "Point",
        "coordinates": [
          1.714255,
          45.366333
        ]
      },
      "properties": {
        "title": "Avenue nationale",
        "lat": "45.3663332",
        "lon": "1.7142545",
        "type": "BSB",
        "picture": "https://delivrez.fr/public/posts/img.68501cc01aa3d.png"
      }
    },
    {
      "type": "Feature",
      "geometry": {
        "type": "Point",
        "coordinates": [
          -0.830631,
          45.583477
        ]
      },
      "properties": {
        "title": "Allée des Soupirs",
        "lat": "45.5834771",
        "lon": "-0.830631",
        "type": "BSB",
        "observation": "a la bibliothèque municipale",
        "picture": "https://delivrez.fr/public/posts/img.684050cf9595d.png"
      }
    },
    {
      "type": "Feature",
      "geometry": {
        "type": "Point",
        "coordinates": [
          0.538871,
          45.021363
        ]
      },
      "properties": {
        "title": "Avenue Edouard Dupuy",
        "lat": "45.0213633",
        "lon": "0.5388707",
        "type": "BSB",
        "observation": "sur le mur de la communauté de communes",
        "picture": "https://delivrez.fr/public/posts/img.684589afdb555.png"
      }
    },
    {
      "type": "Feature",
      "geometry": {
        "type": "Point",
        "coordinates": [
          0.541271,
          45.021858
        ]
      },
      "properties": {
        "title": "Rue Gabriel Reymond",
        "lat": "45.0218581",
        "lon": "0.541271",
        "type": "BSB",
        "observation": "dans le renfoncement du magasin Ptites fripes",
        "picture": "https://delivrez.fr/public/posts/img.6845848e83a78.png"
      }
    },
    {
      "type": "Feature",
      "geometry": {
        "type": "Point",
        "coordinates": [
          2.550742,
          46.176179
        ]
      },
      "properties": {
        "title": "Le Bourg",
        "lat": "46.176179",
        "lon": "2.550742",
        "type": "BSB",
        "observation": "En face l'auberge",
        "picture": "https://delivrez.fr/public/posts/img.683c57aae1714.png"
      }
    },
    {
      "type": "Feature",
      "geometry": {
        "type": "Point",
        "coordinates": [
          2.424951,
          46.188569
        ]
      },
      "properties": {
        "title": "Rue de la Couture",
        "lat": "46.1885693",
        "lon": "2.4249508",
        "type": "BSB"
      }
    },
    {
      "type": "Feature",
      "geometry": {
        "type": "Point",
        "coordinates": [
          1.272684,
          46.136452
        ]
      },
      "properties": {
        "title": "La Josnière",
        "lat": "46.1364524",
        "lon": "1.2726835",
        "type": "BSB",
        "observation": "Après caserne des pompiers"
      }
    },
    {
      "type": "Feature",
      "geometry": {
        "type": "Point",
        "coordinates": [
          1.201354,
          46.038219
        ]
      },
      "properties": {
        "title": "Avenue des Erables",
        "lat": "46.0382195",
        "lon": "1.2013543",
        "type": "BSB",
        "observation": "Bascule"
      }
    },
    {
      "type": "Feature",
      "geometry": {
        "type": "Point",
        "coordinates": [
          0.840061,
          45.419038
        ]
      },
      "properties": {
        "title": "Rue de la Mairie",
        "lat": "45.4190384",
        "lon": "0.8400611",
        "type": "BSB"
      }
    },
    {
      "type": "Feature",
      "geometry": {
        "type": "Point",
        "coordinates": [
          0.83907,
          45.419321
        ]
      },
      "properties": {
        "title": "Rue du Vieux Puits",
        "lat": "45.4193209",
        "lon": "0.8390696",
        "type": "BSB"
      }
    },
    {
      "type": "Feature",
      "geometry": {
        "type": "Point",
        "coordinates": [
          0.992535,
          45.342377
        ]
      },
      "properties": {
        "title": "Rue André Dumas",
        "lat": "45.3423772",
        "lon": "0.9925354",
        "type": "BSB",
        "observation": "près du monument aux morts"
      }
    },
    {
      "type": "Feature",
      "geometry": {
        "type": "Point",
        "coordinates": [
          0.724813,
          44.80375
        ]
      },
      "properties": {
        "title": "Rue Yvon Dumain",
        "lat": "44.8037503",
        "lon": "0.724813",
        "type": "BSB",
        "picture": "https://delivrez.fr/public/posts/img.683b14519079d.png"
      }
    },
    {
      "type": "Feature",
      "geometry": {
        "type": "Point",
        "coordinates": [
          0.591855,
          44.87781
        ]
      },
      "properties": {
        "title": "La Junie",
        "lat": "44.8778104",
        "lon": "0.5918547",
        "type": "BSB",
        "observation": "prendre le chemin à pied suite à l'impasse",
        "picture": "https://delivrez.fr/public/posts/img.6839635f6f700.png"
      }
    },
    {
      "type": "Feature",
      "geometry": {
        "type": "Point",
        "coordinates": [
          0.287912,
          45.847168
        ]
      },
      "properties": {
        "title": "Cr Marchande",
        "lat": "45.8471677",
        "lon": "0.2879118",
        "type": "BSB",
        "observation": "Juste à côté de la maison de santé",
        "picture": "https://delivrez.fr/public/posts/img.6837328c981d4.png"
      }
    },
    {
      "type": "Feature",
      "geometry": {
        "type": "Point",
        "coordinates": [
          0.585203,
          44.86898
        ]
      },
      "properties": {
        "title": "Route de Terrefort",
        "lat": "44.8689803",
        "lon": "0.5852029",
        "type": "BSB",
        "observation": "Ecole"
      }
    },
    {
      "type": "Feature",
      "geometry": {
        "type": "Point",
        "coordinates": [
          -1.181583,
          45.689468
        ]
      },
      "properties": {
        "title": "Les Tremières",
        "lat": "45.6894676",
        "lon": "-1.1815829",
        "type": "BSB",
        "picture": "https://delivrez.fr/public/posts/img.6829a6cd93407.png"
      }
    },
    {
      "type": "Feature",
      "geometry": {
        "type": "Point",
        "coordinates": [
          0.362504,
          45.263336
        ]
      },
      "properties": {
        "title": "Place de la Liberté",
        "lat": "45.263336",
        "lon": "0.3625044",
        "type": "BSB",
        "picture": "https://delivrez.fr/public/posts/img.6828e5f11d977.png"
      }
    },
    {
      "type": "Feature",
      "geometry": {
        "type": "Point",
        "coordinates": [
          -0.621782,
          44.857853
        ]
      },
      "properties": {
        "title": "Avenue du Maréchal de Lattre de Tassigny",
        "lat": "44.8578533",
        "lon": "-0.6217822",
        "type": "BSB",
        "observation": "Au niveau de l'arrêt de tram \"Stade Stéhélin\"",
        "picture": "https://delivrez.fr/public/posts/img.681de31208687.png"
      }
    },
    {
      "type": "Feature",
      "geometry": {
        "type": "Point",
        "coordinates": [
          -0.60092,
          45.053842
        ]
      },
      "properties": {
        "title": "Le Bourg-Sud",
        "lat": "45.0538418",
        "lon": "-0.6009197",
        "type": "BSB"
      }
    },
    {
      "type": "Feature",
      "geometry": {
        "type": "Point",
        "coordinates": [
          0.682125,
          44.925796
        ]
      },
      "properties": {
        "title": "Le Bourg",
        "lat": "44.925796",
        "lon": "0.6821254",
        "type": "BSB",
        "observation": "sous le grand porche de la mairie",
        "picture": "https://delivrez.fr/public/posts/img.681a30e3d93ea.png"
      }
    },
    {
      "type": "Feature",
      "geometry": {
        "type": "Point",
        "coordinates": [
          0.507434,
          45.850761
        ]
      },
      "properties": {
        "title": "Place de L’Eglise",
        "lat": "45.8507606",
        "lon": "0.5074336",
        "type": "BSB",
        "picture": "https://delivrez.fr/public/posts/img.681371160ce25.png"
      }
    },
    {
      "type": "Feature",
      "geometry": {
        "type": "Point",
        "coordinates": [
          -0.496495,
          44.848244
        ]
      },
      "properties": {
        "title": "Avenue de l'Île de France",
        "lat": "44.8482435",
        "lon": "-0.496495",
        "type": "BSB",
        "observation": "Devant l'école Joséphine Baker",
        "picture": "https://delivrez.fr/public/posts/img.681240cfe916a.png"
      }
    },
    {
      "type": "Feature",
      "geometry": {
        "type": "Point",
        "coordinates": [
          -0.019828,
          45.367639
        ]
      },
      "properties": {
        "title": "Livres",
        "lat": "45.3676394",
        "lon": "-0.0198276",
        "type": "BSB",
        "observation": "Mairie de sainte-souline"
      }
    },
    {
      "type": "Feature",
      "geometry": {
        "type": "Point",
        "coordinates": [
          0.651604,
          44.842584
        ]
      },
      "properties": {
        "title": "Route de Bergerac",
        "lat": "44.8425843",
        "lon": "0.6516036",
        "type": "BSB",
        "picture": "https://delivrez.fr/public/posts/img.67e167e577f10.png"
      }
    },
    {
      "type": "Feature",
      "geometry": {
        "type": "Point",
        "coordinates": [
          0.211627,
          45.861339
        ]
      },
      "properties": {
        "title": "Grand Rue",
        "lat": "45.8613392",
        "lon": "0.2116269",
        "type": "BSB",
        "observation": "A l'entrée de l'école",
        "picture": "https://delivrez.fr/public/posts/img.67e2bc918784a.png"
      }
    },
    {
      "type": "Feature",
      "geometry": {
        "type": "Point",
        "coordinates": [
          -0.647419,
          45.103901
        ]
      },
      "properties": {
        "title": "Route de l'Estuaire",
        "lat": "45.1039008",
        "lon": "-0.6474185",
        "type": "BSB",
        "picture": "https://delivrez.fr/public/posts/img.67fbea46c74e2.png"
      }
    },
    {
      "type": "Feature",
      "geometry": {
        "type": "Point",
        "coordinates": [
          -0.056647,
          45.014841
        ]
      },
      "properties": {
        "title": "Esplanade du 18 Juin",
        "lat": "45.0148406",
        "lon": "-0.056647",
        "type": "BSB",
        "observation": "La boite est située juste à côté de la Mairie ! C'est une cabine téléphonique Rouge !",
        "picture": "https://delivrez.fr/public/posts/img.67e5648bcf17d.png"
      }
    },
    {
      "type": "Feature",
      "geometry": {
        "type": "Point",
        "coordinates": [
          0.67365,
          46.01536
        ]
      },
      "properties": {
        "title": "Place Henri Dezaphie",
        "lat": "46.0153597",
        "lon": "0.6736504",
        "type": "BSB",
        "picture": "https://delivrez.fr/public/posts/img.680668d795baf.png"
      }
    },
    {
      "type": "Feature",
      "geometry": {
        "type": "Point",
        "coordinates": [
          0.67247,
          46.014691
        ]
      },
      "properties": {
        "title": "Rue des Orgues",
        "lat": "46.0146913",
        "lon": "0.6724697",
        "type": "BSB",
        "picture": "https://delivrez.fr/public/posts/img.680666ced3229.png"
      }
    },
    {
      "type": "Feature",
      "geometry": {
        "type": "Point",
        "coordinates": [
          2.214772,
          46.348133
        ]
      },
      "properties": {
        "title": "Place de L Hôtel de ville",
        "lat": "46.3481329",
        "lon": "2.2147719",
        "type": "BSB",
        "picture": "https://delivrez.fr/public/posts/img.68063ba727478.png"
      }
    },
    {
      "type": "Feature",
      "geometry": {
        "type": "Point",
        "coordinates": [
          -1.352887,
          46.016029
        ]
      },
      "properties": {
        "title": "Rue de Saint-Denis",
        "lat": "46.0160292",
        "lon": "-1.352887",
        "type": "BSB",
        "picture": "https://delivrez.fr/public/posts/img.68051950cf2b2.png"
      }
    },
    {
      "type": "Feature",
      "geometry": {
        "type": "Point",
        "coordinates": [
          -0.434519,
          45.4447
        ]
      },
      "properties": {
        "title": "Rue James Sclafer",
        "lat": "45.4447004",
        "lon": "-0.4345187",
        "type": "BSB",
        "picture": "https://delivrez.fr/public/posts/img.67fa7106c329e.png"
      }
    },
    {
      "type": "Feature",
      "geometry": {
        "type": "Point",
        "coordinates": [
          -0.475547,
          45.152414
        ]
      },
      "properties": {
        "title": "Moulin Blanc",
        "lat": "45.1524143",
        "lon": "-0.4755473",
        "type": "BSB",
        "picture": "https://delivrez.fr/public/posts/img.67f938e44c28a.png"
      }
    },
    {
      "type": "Feature",
      "geometry": {
        "type": "Point",
        "coordinates": [
          0.105687,
          45.825374
        ]
      },
      "properties": {
        "title": "Rue Principale",
        "lat": "45.8253738",
        "lon": "0.1056866",
        "type": "BSB",
        "observation": "à l'entrée d'un petit jardin",
        "picture": "https://delivrez.fr/public/posts/img.67f4d5ca3bde8.png"
      }
    },
    {
      "type": "Feature",
      "geometry": {
        "type": "Point",
        "coordinates": [
          -0.837479,
          45.742464
        ]
      },
      "properties": {
        "title": "Route de l'Océan",
        "lat": "45.7424641",
        "lon": "-0.8374787",
        "type": "BSB",
        "observation": "vers salle des fêtes",
        "picture": "https://delivrez.fr/public/posts/img.67ee9ef6cb411.png"
      }
    },
    {
      "type": "Feature",
      "geometry": {
        "type": "Point",
        "coordinates": [
          -0.887906,
          45.719126
        ]
      },
      "properties": {
        "title": "Boîte a livre",
        "lat": "45.7191256",
        "lon": "-0.8879058",
        "type": "BSB",
        "observation": "Entre la mairie et l'école",
        "picture": "https://delivrez.fr/public/posts/img.67ee9c1d2b5af.png"
      }
    },
    {
      "type": "Feature",
      "geometry": {
        "type": "Point",
        "coordinates": [
          -0.94436,
          45.726513
        ]
      },
      "properties": {
        "title": "Rue Samuel Champlain",
        "lat": "45.7265132",
        "lon": "-0.9443598",
        "type": "BSB",
        "observation": "A côté de la poste",
        "picture": "https://delivrez.fr/public/posts/img.67ee98c7983a7.png"
      }
    },
    {
      "type": "Feature",
      "geometry": {
        "type": "Point",
        "coordinates": [
          0.16572,
          45.91763
        ]
      },
      "properties": {
        "title": "Rue du Stade",
        "lat": "45.9176296",
        "lon": "0.1657198",
        "type": "BSB",
        "observation": "dans le petit abri au bord de la route",
        "picture": "https://delivrez.fr/public/posts/img.67ed5bece52cc.png"
      }
    },
    {
      "type": "Feature",
      "geometry": {
        "type": "Point",
        "coordinates": [
          1.794951,
          45.537045
        ]
      },
      "properties": {
        "title": "Place de la Mairie",
        "lat": "45.5370453",
        "lon": "1.7949506",
        "type": "BSB",
        "observation": "sous la Halle",
        "picture": "https://delivrez.fr/public/posts/img.67ea864120596.png"
      }
    },
    {
      "type": "Feature",
      "geometry": {
        "type": "Point",
        "coordinates": [
          0.792419,
          45.370195
        ]
      },
      "properties": {
        "title": "Place de la mairie",
        "lat": "45.3701949",
        "lon": "0.7924188",
        "type": "BSB",
        "observation": "Devant la salle des fêtes",
        "picture": "https://delivrez.fr/public/posts/img.67debd9529f01.png"
      }
    },
    {
      "type": "Feature",
      "geometry": {
        "type": "Point",
        "coordinates": [
          0.571135,
          45.150642
        ]
      },
      "properties": {
        "title": "Avenue de Bordeaux",
        "lat": "45.1506417",
        "lon": "0.5711351",
        "type": "BSB",
        "observation": "près de l'école - Montanceix",
        "picture": "https://delivrez.fr/public/posts/img.67e587d1e3387.png"
      }
    },
    {
      "type": "Feature",
      "geometry": {
        "type": "Point",
        "coordinates": [
          0.729899,
          45.184322
        ]
      },
      "properties": {
        "title": "Rue Gabriel Lacueille",
        "lat": "45.1843222",
        "lon": "0.7298991",
        "type": "BSB",
        "picture": "https://delivrez.fr/public/posts/img.67e6d17528b0d.png"
      }
    },
    {
      "type": "Feature",
      "geometry": {
        "type": "Point",
        "coordinates": [
          0.984673,
          45.126919
        ]
      },
      "properties": {
        "title": "boîte à livres",
        "lat": "45.1269186",
        "lon": "0.9846733",
        "type": "BSB",
        "observation": "Fossemagne - à côté de la salle",
        "picture": "https://delivrez.fr/public/posts/img.67e7f979c1f71.png"
      }
    },
    {
      "type": "Feature",
      "geometry": {
        "type": "Point",
        "coordinates": [
          1.069672,
          45.139968
        ]
      },
      "properties": {
        "title": "Rue Emile Zola",
        "lat": "45.1399683",
        "lon": "1.0696719",
        "type": "BSB",
        "observation": "juste à côté du panneau sens interdit",
        "picture": "https://delivrez.fr/public/posts/img.67e7fce7e64f1.png"
      }
    },
    {
      "type": "Feature",
      "geometry": {
        "type": "Point",
        "coordinates": [
          1.326296,
          45.130069
        ]
      },
      "properties": {
        "title": "Rue André Citroën",
        "lat": "45.1300694",
        "lon": "1.3262963",
        "type": "BSB",
        "observation": "à l'intérieur de Auchan",
        "picture": "https://delivrez.fr/public/posts/img.67e81d1b12028.png"
      }
    },
    {
      "type": "Feature",
      "geometry": {
        "type": "Point",
        "coordinates": [
          0.715247,
          45.18532
        ]
      },
      "properties": {
        "title": "Place Louis Magne",
        "lat": "45.1853199",
        "lon": "0.7152469",
        "type": "BSB",
        "observation": "en face du cardiologue sur la place",
        "picture": "https://delivrez.fr/public/posts/img.67e6bd79af42a.png"
      }
    },
    {
      "type": "Feature",
      "geometry": {
        "type": "Point",
        "coordinates": [
          0.728878,
          45.178977
        ]
      },
      "properties": {
        "title": "Rue Haute Saint-Georges",
        "lat": "45.1789771",
        "lon": "0.7288782",
        "type": "BSB",
        "observation": "a côté de l'église",
        "picture": "https://delivrez.fr/public/posts/img.67e6ce0d0a021.png"
      }
    },
    {
      "type": "Feature",
      "geometry": {
        "type": "Point",
        "coordinates": [
          0.721222,
          45.184411
        ]
      },
      "properties": {
        "title": "Rue Haute Saint-Georges",
        "lat": "45.1844107",
        "lon": "0.721222",
        "type": "BSB",
        "observation": "halle du Coderc",
        "picture": "https://delivrez.fr/public/posts/img.67e6c83cb6217.png"
      }
    },
    {
      "type": "Feature",
      "geometry": {
        "type": "Point",
        "coordinates": [
          0.603065,
          45.163769
        ]
      },
      "properties": {
        "title": "Avenue des Platanes",
        "lat": "45.1637693",
        "lon": "0.6030647",
        "type": "BSB",
        "observation": "devant le restaurant d'enfants",
        "picture": "https://delivrez.fr/public/posts/img.67e6867b2be0e.png"
      }
    },
    {
      "type": "Feature",
      "geometry": {
        "type": "Point",
        "coordinates": [
          -0.199363,
          44.932074
        ]
      },
      "properties": {
        "title": "Rue de Tropchaud Pomerol",
        "lat": "44.9320743",
        "lon": "-0.1993631",
        "type": "BSB",
        "observation": "Salle polyvalente - à côté de l'abri bus",
        "picture": "https://delivrez.fr/public/posts/img.67e52ebc04436.png"
      }
    },
    {
      "type": "Feature",
      "geometry": {
        "type": "Point",
        "coordinates": [
          -0.244305,
          44.913241
        ]
      },
      "properties": {
        "title": "Rue Etienne Sabatié",
        "lat": "44.9132407",
        "lon": "-0.2443052",
        "type": "BSB",
        "observation": "boite dans le jardin",
        "picture": "https://delivrez.fr/public/posts/img.67e42cd035242.png"
      }
    },
    {
      "type": "Feature",
      "geometry": {
        "type": "Point",
        "coordinates": [
          -0.63093,
          44.84556
        ]
      },
      "properties": {
        "title": "Rue Erik Satie",
        "lat": "44.8455605",
        "lon": "-0.6309303",
        "type": "BSB",
        "observation": "Devant MJC CL2V",
        "picture": "https://delivrez.fr/public/posts/img.67dee3ddd3bc8.png"
      }
    },
    {
      "type": "Feature",
      "geometry": {
        "type": "Point",
        "coordinates": [
          -0.580079,
          44.841502
        ]
      },
      "properties": {
        "title": "Place Gambetta",
        "lat": "44.8415022",
        "lon": "-0.580079",
        "type": "BSB",
        "observation": "en face de la bouquinerie",
        "picture": "https://delivrez.fr/public/posts/img.67dac68ca8ee1.png"
      }
    },
    {
      "type": "Feature",
      "geometry": {
        "type": "Point",
        "coordinates": [
          1.149488,
          45.259494
        ]
      },
      "properties": {
        "title": "Place Marquis Jacques François",
        "lat": "45.2594936",
        "lon": "1.1494881",
        "type": "BSB",
        "observation": "bien fournie"
      }
    },
    {
      "type": "Feature",
      "geometry": {
        "type": "Point",
        "coordinates": [
          0.664919,
          44.180949
        ]
      },
      "properties": {
        "title": "Entrée médiathèque",
        "lat": "44.1809487",
        "lon": "0.6649193",
        "type": "BSB"
      }
    },
    {
      "type": "Feature",
      "geometry": {
        "type": "Point",
        "coordinates": [
          -0.332349,
          45.698957
        ]
      },
      "properties": {
        "title": "Place du Solencon",
        "lat": "45.6989574",
        "lon": "-0.3323492",
        "type": "BSB",
        "observation": "boite en verre"
      }
    },
    {
      "type": "Feature",
      "geometry": {
        "type": "Point",
        "coordinates": [
          0.183817,
          44.67647
        ]
      },
      "properties": {
        "title": "Place du 8 Mai 1945",
        "lat": "44.6764702",
        "lon": "0.1838169",
        "type": "BSB",
        "observation": "elle est murale et rouge",
        "picture": "https://delivrez.fr/public/posts/img.67cc1f81ea39e.png"
      }
    },
    {
      "type": "Feature",
      "geometry": {
        "type": "Point",
        "coordinates": [
          0.559249,
          44.175652
        ]
      },
      "properties": {
        "title": "Place du 8 Mai 1945",
        "lat": "44.1756521",
        "lon": "0.5592488",
        "type": "BSB",
        "picture": "https://delivrez.fr/public/posts/img.67cfdcb8683ff.png"
      }
    },
    {
      "type": "Feature",
      "geometry": {
        "type": "Point",
        "coordinates": [
          -1.008541,
          45.926395
        ]
      },
      "properties": {
        "title": "Place de Verdun",
        "lat": "45.9263947",
        "lon": "-1.008541",
        "type": "BSB",
        "observation": "maison des associations - Soubise",
        "picture": "https://delivrez.fr/public/posts/img.67d0386bd0434.png"
      }
    },
    {
      "type": "Feature",
      "geometry": {
        "type": "Point",
        "coordinates": [
          0.621505,
          44.207953
        ]
      },
      "properties": {
        "title": "Villa de l'hermitage",
        "lat": "44.2079526",
        "lon": "0.6215051",
        "type": "BSB",
        "picture": "https://delivrez.fr/public/posts/img.67cfe5953abb9.png"
      }
    },
    {
      "type": "Feature",
      "geometry": {
        "type": "Point",
        "coordinates": [
          -0.966182,
          45.938436
        ]
      },
      "properties": {
        "title": "Avenue Marie-François Sadi Carnot",
        "lat": "45.9384364",
        "lon": "-0.9661824",
        "type": "BSB",
        "observation": "devant le square Parat",
        "picture": "https://delivrez.fr/public/posts/img.67cf0dba3829b.png"
      }
    },
    {
      "type": "Feature",
      "geometry": {
        "type": "Point",
        "coordinates": [
          -1.051238,
          45.935937
        ]
      },
      "properties": {
        "title": "boîte à livres",
        "lat": "45.9359372",
        "lon": "-1.0512383",
        "type": "BSB",
        "observation": "façade de la mairie",
        "picture": "https://delivrez.fr/public/posts/img.67cf250358a0d.png"
      }
    },
    {
      "type": "Feature",
      "geometry": {
        "type": "Point",
        "coordinates": [
          0.614331,
          44.206874
        ]
      },
      "properties": {
        "title": "Impasse Scaliger",
        "lat": "44.2068743",
        "lon": "0.6143314",
        "type": "BSB"
      }
    },
    {
      "type": "Feature",
      "geometry": {
        "type": "Point",
        "coordinates": [
          0.268656,
          44.785338
        ]
      },
      "properties": {
        "title": "Route de Pineuilh",
        "lat": "44.7853384",
        "lon": "0.2686559",
        "type": "BSB",
        "observation": "dans cabane en pierre",
        "picture": "https://delivrez.fr/public/posts/img.67cc1aaddadca.png"
      }
    },
    {
      "type": "Feature",
      "geometry": {
        "type": "Point",
        "coordinates": [
          -1.368898,
          46.203085
        ]
      },
      "properties": {
        "title": "Rue du Docteur Kemmerer",
        "lat": "46.2030847",
        "lon": "-1.3688982",
        "type": "BSB",
        "observation": "sous préau, place Anatole France",
        "picture": "https://delivrez.fr/public/posts/img.67c9c61b76031.png"
      }
    },
    {
      "type": "Feature",
      "geometry": {
        "type": "Point",
        "coordinates": [
          -0.638976,
          45.61961
        ]
      },
      "properties": {
        "title": "Boite a Livres",
        "lat": "45.6196096",
        "lon": "-0.638976",
        "type": "BSB",
        "observation": "dans l'abribus a coté de la mairie"
      }
    },
    {
      "type": "Feature",
      "geometry": {
        "type": "Point",
        "coordinates": [
          -1.504129,
          43.504346
        ]
      },
      "properties": {
        "title": "Allée de la Maison Forestière",
        "lat": "43.5043458",
        "lon": "-1.5041295",
        "type": "BSB",
        "observation": "dans petit square",
        "picture": "https://delivrez.fr/public/posts/img.67c2f24fedd79.png"
      }
    },
    {
      "type": "Feature",
      "geometry": {
        "type": "Point",
        "coordinates": [
          -1.503695,
          43.492026
        ]
      },
      "properties": {
        "title": "Rue d'Euskadi",
        "lat": "43.4920257",
        "lon": "-1.5036948",
        "type": "BSB",
        "observation": "dans square",
        "picture": "https://delivrez.fr/public/posts/img.67c302b18c8e1.png"
      }
    },
    {
      "type": "Feature",
      "geometry": {
        "type": "Point",
        "coordinates": [
          -1.50001,
          43.512112
        ]
      },
      "properties": {
        "title": "Allée des Couralins",
        "lat": "43.5121121",
        "lon": "-1.5000105",
        "type": "BSB",
        "picture": "https://delivrez.fr/public/posts/img.67c2ee477365c.png"
      }
    },
    {
      "type": "Feature",
      "geometry": {
        "type": "Point",
        "coordinates": [
          1.059887,
          44.99396
        ]
      },
      "properties": {
        "title": "boute à livres",
        "lat": "44.9939597",
        "lon": "1.059887",
        "type": "BSB",
        "observation": "place de l ehlise St Robert",
        "picture": "https://delivrez.fr/public/posts/img.67c1cf0d76bf4.png"
      }
    },
    {
      "type": "Feature",
      "geometry": {
        "type": "Point",
        "coordinates": [
          -0.502079,
          44.895228
        ]
      },
      "properties": {
        "title": "Avenue André Vignau Anglade",
        "lat": "44.8952284",
        "lon": "-0.5020787",
        "type": "BSB",
        "observation": "Devant l'école",
        "picture": "https://delivrez.fr/public/posts/img.67c1840540518.png"
      }
    },
    {
      "type": "Feature",
      "geometry": {
        "type": "Point",
        "coordinates": [
          -0.013735,
          46.001807
        ]
      },
      "properties": {
        "title": "Rue des Rosilières",
        "lat": "46.0018073",
        "lon": "-0.0137345",
        "type": "BSB",
        "observation": "Juste devant l'entrée de la mairie. Un banc abrité sous un arbre permet de lire au calme",
        "picture": "https://delivrez.fr/public/posts/img.67b3473a9a4a8.png"
      }
    },
    {
      "type": "Feature",
      "geometry": {
        "type": "Point",
        "coordinates": [
          -0.534357,
          44.850129
        ]
      },
      "properties": {
        "title": "Rue Marcel Sembat",
        "lat": "44.8501287",
        "lon": "-0.5343569",
        "type": "BSB",
        "picture": "https://delivrez.fr/public/posts/img.67b58ff4ef11c.png"
      }
    },
    {
      "type": "Feature",
      "geometry": {
        "type": "Point",
        "coordinates": [
          0.888849,
          44.882716
        ]
      },
      "properties": {
        "title": "Rue du Port",
        "lat": "44.8827159",
        "lon": "0.888849",
        "type": "BSB",
        "observation": "dans une petite cabane en pierre dans le parc de parc de la mairie",
        "picture": "https://delivrez.fr/public/posts/img.67b1f07ddc21e.png"
      }
    },
    {
      "type": "Feature",
      "geometry": {
        "type": "Point",
        "coordinates": [
          0.285657,
          44.803525
        ]
      },
      "properties": {
        "title": "boite à livres",
        "lat": "44.8035255",
        "lon": "0.2856567",
        "type": "BSB",
        "observation": "dans une cabine téléphonique place St Barthélémy",
        "picture": "https://delivrez.fr/public/posts/img.67ab6cae2a59f.png"
      }
    },
    {
      "type": "Feature",
      "geometry": {
        "type": "Point",
        "coordinates": [
          -0.611496,
          44.832594
        ]
      },
      "properties": {
        "title": "Place de l'Église Saint-Augustin",
        "lat": "44.8325945",
        "lon": "-0.6114962",
        "type": "BSB",
        "observation": "En face de l'église",
        "picture": "https://delivrez.fr/public/posts/img.67a846548d3fa.png"
      }
    },
    {
      "type": "Feature",
      "geometry": {
        "type": "Point",
        "coordinates": [
          -0.477753,
          44.811136
        ]
      },
      "properties": {
        "title": "Rue de l'Artigotte",
        "lat": "44.8111363",
        "lon": "-0.4777531",
        "type": "BSB",
        "observation": "Au milieu du bosquet d'arbres",
        "picture": "https://delivrez.fr/public/posts/img.67a1c52dcd892.png"
      }
    },
    {
      "type": "Feature",
      "geometry": {
        "type": "Point",
        "coordinates": [
          0.570418,
          45.164393
        ]
      },
      "properties": {
        "title": "Rue de l'Isle",
        "lat": "45.1643927",
        "lon": "0.5704181",
        "type": "BSB",
        "picture": "https://delivrez.fr/public/posts/img.679b8ebfe465b.png"
      }
    },
    {
      "type": "Feature",
      "geometry": {
        "type": "Point",
        "coordinates": [
          0.567001,
          45.161425
        ]
      },
      "properties": {
        "title": "Route des Ecluses",
        "lat": "45.1614248",
        "lon": "0.5670006",
        "type": "BSB",
        "picture": "https://delivrez.fr/public/posts/img.679b8f0cc1253.png"
      }
    },
    {
      "type": "Feature",
      "geometry": {
        "type": "Point",
        "coordinates": [
          1.547184,
          45.160278
        ]
      },
      "properties": {
        "title": "Avenue Léo Lagrange",
        "lat": "45.1602777",
        "lon": "1.5471841",
        "type": "BSB",
        "observation": "Devant le skatepark",
        "picture": "https://delivrez.fr/public/posts/img.679f643dd0cf6.png"
      }
    },
    {
      "type": "Feature",
      "geometry": {
        "type": "Point",
        "coordinates": [
          1.540293,
          45.160619
        ]
      },
      "properties": {
        "title": "Boulevard Voltaire",
        "lat": "45.1606187",
        "lon": "1.5402926",
        "type": "BSB",
        "observation": "Devant la piscine",
        "picture": "https://delivrez.fr/public/posts/img.679f7be1df162.png"
      }
    },
    {
      "type": "Feature",
      "geometry": {
        "type": "Point",
        "coordinates": [
          -0.56183,
          44.760591
        ]
      },
      "properties": {
        "title": "Chemin de Couhins",
        "lat": "44.7605914",
        "lon": "-0.5618297",
        "type": "BSB",
        "observation": "Dans l'espace vert",
        "picture": "https://delivrez.fr/public/posts/img.678f93f06104a.png"
      }
    },
    {
      "type": "Feature",
      "geometry": {
        "type": "Point",
        "coordinates": [
          -0.540398,
          44.77138
        ]
      },
      "properties": {
        "title": "place marc dulout",
        "lat": "44.7713795",
        "lon": "-0.5403979",
        "type": "BSB",
        "picture": "https://delivrez.fr/public/posts/img.678517703c5c7.png"
      }
    },
    {
      "type": "Feature",
      "geometry": {
        "type": "Point",
        "coordinates": [
          -1.422965,
          46.194298
        ]
      },
      "properties": {
        "title": "Impasse de la Grange",
        "lat": "46.1942976",
        "lon": "-1.4229646",
        "type": "BSB",
        "observation": "a l'entrée de la bibliothèque, accessible tout le temps",
        "picture": "https://delivrez.fr/public/posts/img.677421e3d2bdb.png"
      }
    },
    {
      "type": "Feature",
      "geometry": {
        "type": "Point",
        "coordinates": [
          0.600776,
          45.165227
        ]
      },
      "properties": {
        "title": "Rue de Bordeaux",
        "lat": "45.1652265",
        "lon": "0.6007759",
        "type": "BSB",
        "picture": "https://delivrez.fr/public/posts/img.676ea7432dc8b.png"
      }
    },
    {
      "type": "Feature",
      "geometry": {
        "type": "Point",
        "coordinates": [
          0.601432,
          45.164205
        ]
      },
      "properties": {
        "title": "Avenue des Platanes",
        "lat": "45.1642054",
        "lon": "0.6014324",
        "type": "BSB",
        "observation": "Devant la mairie",
        "picture": "https://delivrez.fr/public/posts/img.676ea6ac6b6be.png"
      }
    },
    {
      "type": "Feature",
      "geometry": {
        "type": "Point",
        "coordinates": [
          0.489662,
          44.857358
        ]
      },
      "properties": {
        "title": "boite à livres",
        "lat": "44.8573585",
        "lon": "0.4896621",
        "type": "BSB",
        "observation": "dans le hall de la gare"
      }
    },
    {
      "type": "Feature",
      "geometry": {
        "type": "Point",
        "coordinates": [
          1.84781,
          46.182985
        ]
      },
      "properties": {
        "title": "aire des Monts de Guéret",
        "lat": "46.1829845",
        "lon": "1.8478096",
        "type": "BSB"
      }
    },
    {
      "type": "Feature",
      "geometry": {
        "type": "Point",
        "coordinates": [
          -0.481498,
          44.870333
        ]
      },
      "properties": {
        "title": "Avenue de la Ferme",
        "lat": "44.8703327",
        "lon": "-0.4814978",
        "type": "BSB",
        "picture": "https://delivrez.fr/public/posts/img.6763d8f33764b.png"
      }
    },
    {
      "type": "Feature",
      "geometry": {
        "type": "Point",
        "coordinates": [
          -0.637962,
          44.794418
        ]
      },
      "properties": {
        "title": "avenue bougnard école Jeanne d'Arc",
        "lat": "44.7944183",
        "lon": "-0.6379624",
        "type": "BSB",
        "observation": "au rond point contre l'école"
      }
    },
    {
      "type": "Feature",
      "geometry": {
        "type": "Point",
        "coordinates": [
          0.585484,
          45.084503
        ]
      },
      "properties": {
        "title": "D4",
        "lat": "45.0845033",
        "lon": "0.5854837",
        "type": "BSB",
        "observation": "à côté de l'école",
        "picture": "https://delivrez.fr/public/posts/img.675aea697deb4.png"
      }
    },
    {
      "type": "Feature",
      "geometry": {
        "type": "Point",
        "coordinates": [
          0.485357,
          44.935171
        ]
      },
      "properties": {
        "title": "place de la liberté devant l eglise",
        "lat": "44.9351711",
        "lon": "0.4853575",
        "type": "BSB",
        "picture": "https://delivrez.fr/public/posts/img.675ae0c621d15.png"
      }
    },
    {
      "type": "Feature",
      "geometry": {
        "type": "Point",
        "coordinates": [
          1.492288,
          45.837745
        ]
      },
      "properties": {
        "title": "Place du Champ de Mars",
        "lat": "45.837745",
        "lon": "1.4922881",
        "type": "BSB",
        "picture": "https://delivrez.fr/public/posts/img.672ca456d72c1.png"
      }
    },
    {
      "type": "Feature",
      "geometry": {
        "type": "Point",
        "coordinates": [
          -1.170418,
          44.660725
        ]
      },
      "properties": {
        "title": "Place Lucien de Gracia",
        "lat": "44.6607253",
        "lon": "-1.1704179",
        "type": "BSB",
        "observation": "Dans le parc à côté de la mairie",
        "picture": "https://delivrez.fr/public/posts/img.67310903dc42c.png"
      }
    },
    {
      "type": "Feature",
      "geometry": {
        "type": "Point",
        "coordinates": [
          0.594102,
          44.855132
        ]
      },
      "properties": {
        "title": "Rue de la Salmoniculture",
        "lat": "44.8551316",
        "lon": "0.5941017",
        "type": "BSB",
        "picture": "https://delivrez.fr/public/posts/img.6755b9e590a19.png"
      }
    },
    {
      "type": "Feature",
      "geometry": {
        "type": "Point",
        "coordinates": [
          0.666254,
          45.207236
        ]
      },
      "properties": {
        "title": "Place de l'Abbaye",
        "lat": "45.207236",
        "lon": "0.6662544",
        "type": "BSB",
        "picture": "https://delivrez.fr/public/posts/img.6751939c86b1f.png"
      }
    },
    {
      "type": "Feature",
      "geometry": {
        "type": "Point",
        "coordinates": [
          0.144691,
          44.535747
        ]
      },
      "properties": {
        "title": "Rue de l'Ecole",
        "lat": "44.5357466",
        "lon": "0.1446914",
        "type": "BSB",
        "observation": "Devant la maison médicale",
        "picture": "https://delivrez.fr/public/posts/img.674b396b67a87.png"
      }
    },
    {
      "type": "Feature",
      "geometry": {
        "type": "Point",
        "coordinates": [
          0.616205,
          44.195558
        ]
      },
      "properties": {
        "title": "Rue du Maréchal Juin",
        "lat": "44.1955581",
        "lon": "0.6162047",
        "type": "BSB"
      }
    },
    {
      "type": "Feature",
      "geometry": {
        "type": "Point",
        "coordinates": [
          -1.202024,
          44.641459
        ]
      },
      "properties": {
        "title": "Avenue Notre Dame des Passes",
        "lat": "44.6414586",
        "lon": "-1.2020243",
        "type": "BSB",
        "picture": "https://delivrez.fr/public/posts/img.6730b64baa9d4.png"
      }
    },
    {
      "type": "Feature",
      "geometry": {
        "type": "Point",
        "coordinates": [
          -0.124854,
          44.778527
        ]
      },
      "properties": {
        "title": "Rue de L Hôpital",
        "lat": "44.7785273",
        "lon": "-0.1248538",
        "type": "BSB",
        "observation": "devant l'école à côté de la mairie"
      }
    },
    {
      "type": "Feature",
      "geometry": {
        "type": "Point",
        "coordinates": [
          0.124008,
          45.553109
        ]
      },
      "properties": {
        "title": "Place du Champ de Foire",
        "lat": "45.5531086",
        "lon": "0.1240085",
        "type": "BSB",
        "picture": "https://delivrez.fr/public/posts/img.6731f8d021e66.png"
      }
    },
    {
      "type": "Feature",
      "geometry": {
        "type": "Point",
        "coordinates": [
          -1.251721,
          44.444565
        ]
      },
      "properties": {
        "title": "Place de la Fontaine",
        "lat": "44.4445651",
        "lon": "-1.251721",
        "type": "BSB",
        "picture": "https://delivrez.fr/public/posts/img.672fa8c32b11f.png"
      }
    },
    {
      "type": "Feature",
      "geometry": {
        "type": "Point",
        "coordinates": [
          -0.473289,
          44.819033
        ]
      },
      "properties": {
        "title": "Route de Tresses",
        "lat": "44.8190332",
        "lon": "-0.4732888",
        "type": "BSB",
        "observation": "Derrière l'arrêt de bus à côté du stade.",
        "picture": "https://delivrez.fr/public/posts/img.672b6fdd033ba.png"
      }
    },
    {
      "type": "Feature",
      "geometry": {
        "type": "Point",
        "coordinates": [
          0.220919,
          44.842979
        ]
      },
      "properties": {
        "title": "Rue de la République",
        "lat": "44.8429789",
        "lon": "0.2209187",
        "type": "BSB",
        "observation": "dans un petit parc",
        "picture": "https://delivrez.fr/public/posts/img.6724d474df632.png"
      }
    },
    {
      "type": "Feature",
      "geometry": {
        "type": "Point",
        "coordinates": [
          2.230343,
          46.248247
        ]
      },
      "properties": {
        "title": "Ventenat Trois Fonds",
        "lat": "46.248247",
        "lon": "2.2303427",
        "type": "BSB",
        "observation": "Face à la mairie"
      }
    },
    {
      "type": "Feature",
      "geometry": {
        "type": "Point",
        "coordinates": [
          0.640231,
          44.194483
        ]
      },
      "properties": {
        "title": "Rue Tapie",
        "lat": "44.1944828",
        "lon": "0.6402312",
        "type": "BSB",
        "observation": "Au pied de l'immeuble"
      }
    },
    {
      "type": "Feature",
      "geometry": {
        "type": "Point",
        "coordinates": [
          -1.660685,
          43.389184
        ]
      },
      "properties": {
        "title": "Place du Collège",
        "lat": "43.389184",
        "lon": "-1.6606854",
        "type": "BSB",
        "observation": "Sur la place du collège, à proximité d'un des bancs, devant le magasin Larralde, une des boîtes à lire municipales vous attend - et elle est souvent remplie !",
        "picture": "https://delivrez.fr/public/posts/img.670e934e612c5.png"
      }
    },
    {
      "type": "Feature",
      "geometry": {
        "type": "Point",
        "coordinates": [
          0.819401,
          44.38853
        ]
      },
      "properties": {
        "title": "Place Gambetta",
        "lat": "44.3885303",
        "lon": "0.8194007",
        "type": "BSB",
        "observation": "Comment recycler un ancienne cabine téléphonique ? En y déposant des livres de toute sorte  de l'Avare à Marc Lévy. Chacun y trouvera son bonheur... Bonne lecture !",
        "picture": "https://delivrez.fr/public/posts/img.6718bf62e7411.png"
      }
    },
    {
      "type": "Feature",
      "geometry": {
        "type": "Point",
        "coordinates": [
          0.612341,
          44.201661
        ]
      },
      "properties": {
        "title": "Centre médical",
        "lat": "44.201661",
        "lon": "0.6123407",
        "type": "BSB",
        "observation": "A l'accueil"
      }
    },
    {
      "type": "Feature",
      "geometry": {
        "type": "Point",
        "coordinates": [
          0.603804,
          44.185875
        ]
      },
      "properties": {
        "title": "Rue Albert Schweitzer",
        "lat": "44.1858746",
        "lon": "0.6038043",
        "type": "BSB"
      }
    },
    {
      "type": "Feature",
      "geometry": {
        "type": "Point",
        "coordinates": [
          2.062832,
          45.421305
        ]
      },
      "properties": {
        "title": "Route de la Plage",
        "lat": "45.4213048",
        "lon": "2.0628318",
        "type": "BSB",
        "observation": "autour du lac",
        "picture": "https://delivrez.fr/public/posts/img.670d2f38efa27.png"
      }
    },
    {
      "type": "Feature",
      "geometry": {
        "type": "Point",
        "coordinates": [
          -1.398313,
          43.785534
        ]
      },
      "properties": {
        "title": "Rue des Écoles",
        "lat": "43.7855336",
        "lon": "-1.3983135",
        "type": "BSB",
        "picture": "https://delivrez.fr/public/posts/img.66fe931b1eb14.png"
      }
    },
    {
      "type": "Feature",
      "geometry": {
        "type": "Point",
        "coordinates": [
          0.293893,
          45.851644
        ]
      },
      "properties": {
        "title": "Rue des Mosellans",
        "lat": "45.8516444",
        "lon": "0.2938925",
        "type": "BSB",
        "picture": "https://delivrez.fr/public/posts/img.66fcfd844f0b4.png"
      }
    },
    {
      "type": "Feature",
      "geometry": {
        "type": "Point",
        "coordinates": [
          0.248626,
          45.60296
        ]
      },
      "properties": {
        "title": "Route de Torsac",
        "lat": "45.6029597",
        "lon": "0.248626",
        "type": "BSB",
        "observation": "Derrière l'épicerie et la boulangerie",
        "picture": "https://delivrez.fr/public/posts/img.66f582527b8b9.png"
      }
    },
    {
      "type": "Feature",
      "geometry": {
        "type": "Point",
        "coordinates": [
          0.237208,
          45.666039
        ]
      },
      "properties": {
        "title": "Place du 8 Mai 1945",
        "lat": "45.6660389",
        "lon": "0.2372081",
        "type": "BSB",
        "picture": "https://delivrez.fr/public/posts/img.66f56c894a62b.png"
      }
    },
    {
      "type": "Feature",
      "geometry": {
        "type": "Point",
        "coordinates": [
          -1.659205,
          43.387197
        ]
      },
      "properties": {
        "title": "Avenue Jaureguiberry",
        "lat": "43.3871969",
        "lon": "-1.6592051",
        "type": "BSB",
        "observation": "petite boîte à livres",
        "picture": "https://delivrez.fr/public/posts/img.66f42fe60a523.png"
      }
    },
    {
      "type": "Feature",
      "geometry": {
        "type": "Point",
        "coordinates": [
          -1.589519,
          43.439097
        ]
      },
      "properties": {
        "title": "Place Sauveur Atchoarena",
        "lat": "43.4390971",
        "lon": "-1.5895188",
        "type": "BSB",
        "picture": "https://delivrez.fr/public/posts/img.66ec1c3f14b99.png"
      }
    },
    {
      "type": "Feature",
      "geometry": {
        "type": "Point",
        "coordinates": [
          0.243064,
          46.76836
        ]
      },
      "properties": {
        "title": "Place de l'École",
        "lat": "46.7683598",
        "lon": "0.2430638",
        "type": "BSB",
        "observation": "cabine téléphonique",
        "picture": "https://delivrez.fr/public/posts/img.66e6ef114854a.png"
      }
    },
    {
      "type": "Feature",
      "geometry": {
        "type": "Point",
        "coordinates": [
          0.078611,
          45.957011
        ]
      },
      "properties": {
        "title": "Boite a livres de Besé",
        "lat": "45.9570112",
        "lon": "0.0786107",
        "type": "BSB",
        "observation": "Boîte à livres devant la salle des fêtes. Les toilettes sont juste à côté.",
        "picture": "https://delivrez.fr/public/posts/img.66e7f3302ce2f.png"
      }
    },
    {
      "type": "Feature",
      "geometry": {
        "type": "Point",
        "coordinates": [
          0.490071,
          44.852571
        ]
      },
      "properties": {
        "title": "Rue Docteur Gaston Simounet",
        "lat": "44.8525706",
        "lon": "0.4900713",
        "type": "BSB",
        "observation": "à côté du kiosque",
        "picture": "https://delivrez.fr/public/posts/img.66e832b119aa7.png"
      }
    },
    {
      "type": "Feature",
      "geometry": {
        "type": "Point",
        "coordinates": [
          0.185194,
          46.484366
        ]
      },
      "properties": {
        "title": "impasse nationale",
        "lat": "46.4843663",
        "lon": "0.1851943",
        "type": "BSB",
        "observation": "mignon parking ecole",
        "picture": "https://delivrez.fr/public/posts/img.66e6a2470d997.png"
      }
    },
    {
      "type": "Feature",
      "geometry": {
        "type": "Point",
        "coordinates": [
          -0.566344,
          44.879101
        ]
      },
      "properties": {
        "title": "Galerie marchande Auchan Lac",
        "lat": "44.8791013",
        "lon": "-0.5663439",
        "type": "BSB",
        "observation": "Entrée \"Porte des graves\"",
        "picture": "https://delivrez.fr/public/posts/img.66e41c358bccf.png"
      }
    },
    {
      "type": "Feature",
      "geometry": {
        "type": "Point",
        "coordinates": [
          -0.571804,
          44.879593
        ]
      },
      "properties": {
        "title": "Place Jean Cayrol",
        "lat": "44.8795929",
        "lon": "-0.5718043",
        "type": "BSB",
        "observation": "Près du petit pont du canal",
        "picture": "https://delivrez.fr/public/posts/img.66e3e35a27aa7.png"
      }
    },
    {
      "type": "Feature",
      "geometry": {
        "type": "Point",
        "coordinates": [
          -0.573774,
          44.844266
        ]
      },
      "properties": {
        "title": "Boîte à livres",
        "lat": "44.8442663",
        "lon": "-0.5737745",
        "type": "BSB",
        "observation": "Devant le bâtiment TBM entre les arrêts de tram",
        "picture": "https://delivrez.fr/public/posts/img.66e2b1fdd3f9a.png"
      }
    },
    {
      "type": "Feature",
      "geometry": {
        "type": "Point",
        "coordinates": [
          -1.177356,
          46.011434
        ]
      },
      "properties": {
        "title": "ile d'aix",
        "lat": "46.0114339",
        "lon": "-1.1773561",
        "type": "BSB",
        "picture": "https://delivrez.fr/public/posts/img.66d971f56a20e.png"
      }
    },
    {
      "type": "Feature",
      "geometry": {
        "type": "Point",
        "coordinates": [
          0.405485,
          46.669197
        ]
      },
      "properties": {
        "title": "Rue du Clos de l Ormeau",
        "lat": "46.6691967",
        "lon": "0.405485",
        "type": "BSB",
        "observation": "près du salon de coiffure atelier H et L",
        "picture": "https://delivrez.fr/public/posts/img.66d949dc341b4.png"
      }
    },
    {
      "type": "Feature",
      "geometry": {
        "type": "Point",
        "coordinates": [
          -0.792322,
          43.358651
        ]
      },
      "properties": {
        "title": "boite a livres",
        "lat": "43.3586511",
        "lon": "-0.7923219",
        "type": "BSB",
        "picture": "https://delivrez.fr/public/posts/img.66d353582702c.png"
      }
    },
    {
      "type": "Feature",
      "geometry": {
        "type": "Point",
        "coordinates": [
          0.366768,
          45.347325
        ]
      },
      "properties": {
        "title": "la petite bibliothèque sauvage",
        "lat": "45.3473247",
        "lon": "0.3667676",
        "type": "BSB",
        "observation": "préau de la bibliothèque",
        "picture": "https://delivrez.fr/public/posts/img.66cf38e81f209.png"
      }
    },
    {
      "type": "Feature",
      "geometry": {
        "type": "Point",
        "coordinates": [
          0.338341,
          45.248449
        ]
      },
      "properties": {
        "title": "Place Joseph Debonnière",
        "lat": "45.2484488",
        "lon": "0.3383414",
        "type": "BSB",
        "observation": "ancienne cabine téléphonique jaune !",
        "picture": "https://delivrez.fr/public/posts/img.66cf2abd53368.png"
      }
    },
    {
      "type": "Feature",
      "geometry": {
        "type": "Point",
        "coordinates": [
          -0.943101,
          43.392089
        ]
      },
      "properties": {
        "title": "Chemin de Bideren",
        "lat": "43.392089",
        "lon": "-0.9431006",
        "type": "BSB",
        "observation": "Petite mais bien remplie boîte à livres !  J'y trouve toujours mon bonheur.",
        "picture": "https://delivrez.fr/public/posts/img.66d039da95c4b.png"
      }
    },
    {
      "type": "Feature",
      "geometry": {
        "type": "Point",
        "coordinates": [
          -1.032805,
          43.327484
        ]
      },
      "properties": {
        "title": "Place de L Hôtel de ville",
        "lat": "43.3274841",
        "lon": "-1.0328046",
        "type": "BSB",
        "observation": "charmante petite boîte a livres",
        "picture": "https://delivrez.fr/public/posts/img.66c857ad88c92.png"
      }
    },
    {
      "type": "Feature",
      "geometry": {
        "type": "Point",
        "coordinates": [
          1.75656,
          45.258905
        ]
      },
      "properties": {
        "title": "Boîte à livre Tulle Gare",
        "lat": "45.2589053",
        "lon": "1.7565603",
        "type": "BSB",
        "observation": "Devant l'entrée de la gare",
        "picture": "https://delivrez.fr/public/posts/img.66cc4d76a4cca.png"
      }
    },
    {
      "type": "Feature",
      "geometry": {
        "type": "Point",
        "coordinates": [
          1.770738,
          45.266488
        ]
      },
      "properties": {
        "title": "Passerelle de Nacre",
        "lat": "45.2664878",
        "lon": "1.7707377",
        "type": "BSB",
        "observation": "En bord de rivière",
        "picture": "https://delivrez.fr/public/posts/img.66cc4fea94253.png"
      }
    },
    {
      "type": "Feature",
      "geometry": {
        "type": "Point",
        "coordinates": [
          -1.020522,
          43.452603
        ]
      },
      "properties": {
        "title": "Rue de Devant",
        "lat": "43.452603",
        "lon": "-1.0205223",
        "type": "BSB",
        "observation": "petite boîte a livres",
        "picture": "https://delivrez.fr/public/posts/img.66cb269685680.png"
      }
    },
    {
      "type": "Feature",
      "geometry": {
        "type": "Point",
        "coordinates": [
          0.345807,
          45.626897
        ]
      },
      "properties": {
        "title": "La Petitie",
        "lat": "45.6268973",
        "lon": "0.3458075",
        "type": "BSB",
        "observation": "Dans l'arrêt de bus à côté de la benne à verre",
        "picture": "https://delivrez.fr/public/posts/img.66c9ac775b3c2.png"
      }
    },
    {
      "type": "Feature",
      "geometry": {
        "type": "Point",
        "coordinates": [
          0.767811,
          44.532433
        ]
      },
      "properties": {
        "title": "Place des Arcades",
        "lat": "44.5324331",
        "lon": "0.7678107",
        "type": "BSB",
        "observation": "devant la savonnerie",
        "picture": "https://delivrez.fr/public/posts/img.66c70b4cda63f.png"
      }
    },
    {
      "type": "Feature",
      "geometry": {
        "type": "Point",
        "coordinates": [
          -0.476826,
          46.74631
        ]
      },
      "properties": {
        "title": "Route de Bressuire",
        "lat": "46.7463103",
        "lon": "-0.4768257",
        "type": "BSB",
        "observation": "place de l'église",
        "picture": "https://delivrez.fr/public/posts/img.66c70029b55c0.png"
      }
    },
    {
      "type": "Feature",
      "geometry": {
        "type": "Point",
        "coordinates": [
          -0.931759,
          43.380891
        ]
      },
      "properties": {
        "title": "Route des Pyrenees",
        "lat": "43.3808912",
        "lon": "-0.9317593",
        "type": "BSB",
        "observation": "Charmante boîte a livres",
        "picture": "https://delivrez.fr/public/posts/img.66c46db002d42.png"
      }
    },
    {
      "type": "Feature",
      "geometry": {
        "type": "Point",
        "coordinates": [
          -0.879574,
          43.343734
        ]
      },
      "properties": {
        "title": "Rue du Saison",
        "lat": "43.3437336",
        "lon": "-0.8795735",
        "type": "BSB",
        "observation": "cabine a livres 📚",
        "picture": "https://delivrez.fr/public/posts/img.66c4636cb7795.png"
      }
    },
    {
      "type": "Feature",
      "geometry": {
        "type": "Point",
        "coordinates": [
          -0.524573,
          44.883037
        ]
      },
      "properties": {
        "title": "Rue Jacques Thibaud",
        "lat": "44.8830371",
        "lon": "-0.5245727",
        "type": "BSB",
        "observation": "Sur la place devant l'église",
        "picture": "https://delivrez.fr/public/posts/img.6673d755e5f33.png"
      }
    },
    {
      "type": "Feature",
      "geometry": {
        "type": "Point",
        "coordinates": [
          -1.093831,
          46.152688
        ]
      },
      "properties": {
        "title": "Rue du Château",
        "lat": "46.1526876",
        "lon": "-1.0938312",
        "type": "BSB",
        "picture": "https://delivrez.fr/public/posts/img.66aa493468e1a.png"
      }
    },
    {
      "type": "Feature",
      "geometry": {
        "type": "Point",
        "coordinates": [
          -1.070437,
          46.149938
        ]
      },
      "properties": {
        "title": "Rue de la Rochelle",
        "lat": "46.1499379",
        "lon": "-1.0704369",
        "type": "BSB",
        "observation": "en face de l'école",
        "picture": "https://delivrez.fr/public/posts/img.66a66b8e93738.png"
      }
    },
    {
      "type": "Feature",
      "geometry": {
        "type": "Point",
        "coordinates": [
          -1.548727,
          43.335509
        ]
      },
      "properties": {
        "title": "boite à livre",
        "lat": "43.335509",
        "lon": "-1.5487269",
        "type": "BSB",
        "picture": "https://delivrez.fr/public/posts/img.669aaa1fa17e7.png"
      }
    },
    {
      "type": "Feature",
      "geometry": {
        "type": "Point",
        "coordinates": [
          -1.567621,
          43.356276
        ]
      },
      "properties": {
        "title": "Chemin Xoxotartea",
        "lat": "43.3562763",
        "lon": "-1.5676207",
        "type": "BSB",
        "observation": "dans le parc à enfants",
        "picture": "https://delivrez.fr/public/posts/img.669aa8125cfae.png"
      }
    },
    {
      "type": "Feature",
      "geometry": {
        "type": "Point",
        "coordinates": [
          -1.780371,
          43.370407
        ]
      },
      "properties": {
        "title": "Au centre du rond-point",
        "lat": "43.3704068",
        "lon": "-1.7803705",
        "type": "BSB",
        "picture": "https://delivrez.fr/public/posts/img.669a5de8c8489.png"
      }
    },
    {
      "type": "Feature",
      "geometry": {
        "type": "Point",
        "coordinates": [
          -0.886465,
          43.349487
        ]
      },
      "properties": {
        "title": "Chemin du Vieux Pont",
        "lat": "43.3494867",
        "lon": "-0.886465",
        "type": "BSB",
        "observation": "Cabine a livres de Gestas",
        "picture": "https://delivrez.fr/public/posts/img.66c4613b874ae.png"
      }
    },
    {
      "type": "Feature",
      "geometry": {
        "type": "Point",
        "coordinates": [
          0.717149,
          45.0268
        ]
      },
      "properties": {
        "title": "Place de la Halle",
        "lat": "45.0267996",
        "lon": "0.7171491",
        "type": "BSB",
        "observation": "la boîte est sous la halle",
        "picture": "https://delivrez.fr/public/posts/img.66c33dd78153c.png"
      }
    },
    {
      "type": "Feature",
      "geometry": {
        "type": "Point",
        "coordinates": [
          0.59639,
          44.896929
        ]
      },
      "properties": {
        "title": "Lotissement Val Boria",
        "lat": "44.8969291",
        "lon": "0.5963904",
        "type": "BSB",
        "observation": "petite maisonnette aux volets rouges en bord de route",
        "picture": "https://delivrez.fr/public/posts/img.66c349abb859a.png"
      }
    },
    {
      "type": "Feature",
      "geometry": {
        "type": "Point",
        "coordinates": [
          -0.175294,
          45.212136
        ]
      },
      "properties": {
        "title": "D730",
        "lat": "45.2121355",
        "lon": "-0.1752944",
        "type": "BSB"
      }
    },
    {
      "type": "Feature",
      "geometry": {
        "type": "Point",
        "coordinates": [
          0.011686,
          45.613407
        ]
      },
      "properties": {
        "title": "Place des Sports",
        "lat": "45.6134068",
        "lon": "0.0116859",
        "type": "BSB",
        "observation": "A côté de l'école primaire. Uniquement des livres pour enfants.",
        "picture": "https://delivrez.fr/public/posts/img.66c22dddae49d.png"
      }
    },
    {
      "type": "Feature",
      "geometry": {
        "type": "Point",
        "coordinates": [
          0.230446,
          46.462968
        ]
      },
      "properties": {
        "title": "Place de l'Église",
        "lat": "46.4629677",
        "lon": "0.230446",
        "type": "BSB",
        "observation": "devant l'accueil de la mairie",
        "picture": "https://delivrez.fr/public/posts/img.66c1fe7f1bded.png"
      }
    },
    {
      "type": "Feature",
      "geometry": {
        "type": "Point",
        "coordinates": [
          0.799523,
          46.258032
        ]
      },
      "properties": {
        "title": "Rue des Tilleuls",
        "lat": "46.2580317",
        "lon": "0.7995231",
        "type": "BSB",
        "picture": "https://delivrez.fr/public/posts/img.66c0b53b30107.png"
      }
    },
    {
      "type": "Feature",
      "geometry": {
        "type": "Point",
        "coordinates": [
          -0.698322,
          43.715877
        ]
      },
      "properties": {
        "title": "Saint Aubin",
        "lat": "43.7158773",
        "lon": "-0.6983221",
        "type": "BSB",
        "picture": "https://delivrez.fr/public/posts/img.66bf56ae30eba.png"
      }
    },
    {
      "type": "Feature",
      "geometry": {
        "type": "Point",
        "coordinates": [
          -0.589638,
          46.721371
        ]
      },
      "properties": {
        "title": "Avenue du Maréchal Juin",
        "lat": "46.7213711",
        "lon": "-0.5896378",
        "type": "BSB",
        "observation": "derrière la mairie",
        "picture": "https://delivrez.fr/public/posts/img.66bb183875176.png"
      }
    },
    {
      "type": "Feature",
      "geometry": {
        "type": "Point",
        "coordinates": [
          0.703769,
          44.829789
        ]
      },
      "properties": {
        "title": "Avenue de Cahors",
        "lat": "44.8297894",
        "lon": "0.7037689",
        "type": "BSB",
        "observation": "Face à la Poste",
        "picture": "https://delivrez.fr/public/posts/img.66b63c866ac2c.png"
      }
    },
    {
      "type": "Feature",
      "geometry": {
        "type": "Point",
        "coordinates": [
          -0.641149,
          44.810091
        ]
      },
      "properties": {
        "title": "Avenue Pierre Brossolette",
        "lat": "44.8100911",
        "lon": "-0.6411487",
        "type": "BSB",
        "observation": "Devant la maison municipale de Noès",
        "picture": "https://delivrez.fr/public/posts/img.66b0ee8e67d19.png"
      }
    },
    {
      "type": "Feature",
      "geometry": {
        "type": "Point",
        "coordinates": [
          -0.617784,
          43.354074
        ]
      },
      "properties": {
        "title": "rond point de l'église",
        "lat": "43.354074",
        "lon": "-0.6177839",
        "type": "BSB",
        "observation": "dans un abribus",
        "picture": "https://delivrez.fr/public/posts/img.66b33b3a2d661.png"
      }
    },
    {
      "type": "Feature",
      "geometry": {
        "type": "Point",
        "coordinates": [
          0.605271,
          44.728614
        ]
      },
      "properties": {
        "title": "Place du Foirail",
        "lat": "44.7286143",
        "lon": "0.6052711",
        "type": "BSB",
        "observation": "_",
        "picture": "https://delivrez.fr/public/posts/img.66b0fc4c25cfc.png"
      }
    },
    {
      "type": "Feature",
      "geometry": {
        "type": "Point",
        "coordinates": [
          -0.762354,
          43.11335
        ]
      },
      "properties": {
        "title": "Rue des Pyrénées",
        "lat": "43.1133497",
        "lon": "-0.7623541",
        "type": "BSB",
        "observation": "Dans une ancienne cabine téléphonique devant l'école de Lanne",
        "picture": "https://delivrez.fr/public/posts/img.66b0824d1e614.png"
      }
    },
    {
      "type": "Feature",
      "geometry": {
        "type": "Point",
        "coordinates": [
          -0.309466,
          45.83315
        ]
      },
      "properties": {
        "title": "place de la mairie",
        "lat": "45.8331498",
        "lon": "-0.3094658",
        "type": "BSB",
        "observation": "boite à livres sur le mur de la mairie"
      }
    },
    {
      "type": "Feature",
      "geometry": {
        "type": "Point",
        "coordinates": [
          -0.613971,
          44.845787
        ]
      },
      "properties": {
        "title": "Rue Pasteur",
        "lat": "44.8457873",
        "lon": "-0.6139711",
        "type": "BSB",
        "observation": "Dans le petit parc",
        "picture": "https://delivrez.fr/public/posts/img.66a78bd0de47c.png"
      }
    },
    {
      "type": "Feature",
      "geometry": {
        "type": "Point",
        "coordinates": [
          2.127689,
          45.491963
        ]
      },
      "properties": {
        "title": "Avenue de la Gare",
        "lat": "45.4919626",
        "lon": "2.1276892",
        "type": "BSB",
        "observation": "près du groupe monument aux morts",
        "picture": "https://delivrez.fr/public/posts/img.66a5f07e72a68.png"
      }
    },
    {
      "type": "Feature",
      "geometry": {
        "type": "Point",
        "coordinates": [
          2.140885,
          45.470548
        ]
      },
      "properties": {
        "title": "Avenue de la Mairie",
        "lat": "45.4705477",
        "lon": "2.1408854",
        "type": "BSB",
        "observation": "près de la boîte aux lettres",
        "picture": "https://delivrez.fr/public/posts/img.66a5f8df4d2c3.png"
      }
    },
    {
      "type": "Feature",
      "geometry": {
        "type": "Point",
        "coordinates": [
          0.63188,
          44.210284
        ]
      },
      "properties": {
        "title": "Rue Pierre-Paul de Riquet",
        "lat": "44.2102839",
        "lon": "0.6318797",
        "type": "BSB"
      }
    },
    {
      "type": "Feature",
      "geometry": {
        "type": "Point",
        "coordinates": [
          -0.432165,
          45.445445
        ]
      },
      "properties": {
        "title": "Place du Château",
        "lat": "45.445445",
        "lon": "-0.4321655",
        "type": "BSB",
        "picture": "https://delivrez.fr/public/posts/img.669e752f7a746.png"
      }
    },
    {
      "type": "Feature",
      "geometry": {
        "type": "Point",
        "coordinates": [
          0.879706,
          44.48463
        ]
      },
      "properties": {
        "title": "Place de la Liberté",
        "lat": "44.4846296",
        "lon": "0.8797064",
        "type": "BSB",
        "picture": "https://delivrez.fr/public/posts/img.669e4719d3c0a.png"
      }
    },
    {
      "type": "Feature",
      "geometry": {
        "type": "Point",
        "coordinates": [
          2.15123,
          45.534681
        ]
      },
      "properties": {
        "title": "Avenue du Gaud",
        "lat": "45.534681",
        "lon": "2.1512304",
        "type": "BSB",
        "picture": "https://delivrez.fr/public/posts/img.669cc11fc37bd.png"
      }
    },
    {
      "type": "Feature",
      "geometry": {
        "type": "Point",
        "coordinates": [
          2.206192,
          45.418597
        ]
      },
      "properties": {
        "title": "Place de la Mairie",
        "lat": "45.4185975",
        "lon": "2.2061918",
        "type": "BSB",
        "picture": "https://delivrez.fr/public/posts/img.669ca27a5402e.png"
      }
    },
    {
      "type": "Feature",
      "geometry": {
        "type": "Point",
        "coordinates": [
          0.333135,
          46.57765
        ]
      },
      "properties": {
        "title": "Rue du Doyenné",
        "lat": "46.5776502",
        "lon": "0.333135",
        "type": "BSB",
        "picture": "https://delivrez.fr/public/posts/img.669a6f93807e3.png"
      }
    },
    {
      "type": "Feature",
      "geometry": {
        "type": "Point",
        "coordinates": [
          -1.784051,
          43.371362
        ]
      },
      "properties": {
        "title": "Boulevard de la Mer",
        "lat": "43.3713621",
        "lon": "-1.7840509",
        "type": "BSB",
        "observation": "dans la galerie",
        "picture": "https://delivrez.fr/public/posts/img.669a5e4391406.png"
      }
    },
    {
      "type": "Feature",
      "geometry": {
        "type": "Point",
        "coordinates": [
          0.708988,
          44.422339
        ]
      },
      "properties": {
        "title": "route de Beaulieu",
        "lat": "44.4223385",
        "lon": "0.7089884",
        "type": "BSB",
        "observation": "Boîte à livres sur le parking de la salle des fêtes/ de l'école. La boite à livres est au niveau du portail de l'école."
      }
    },
    {
      "type": "Feature",
      "geometry": {
        "type": "Point",
        "coordinates": [
          0.08001,
          46.013878
        ]
      },
      "properties": {
        "title": "champ de foire",
        "lat": "46.0138779",
        "lon": "0.0800101",
        "type": "BSB",
        "observation": "boite a livré dans deux casiers en acier",
        "picture": "https://delivrez.fr/public/posts/img.6697d6f12b6fe.png"
      }
    },
    {
      "type": "Feature",
      "geometry": {
        "type": "Point",
        "coordinates": [
          0.342286,
          46.549826
        ]
      },
      "properties": {
        "title": "Place du 8 Mai 1945",
        "lat": "46.5498256",
        "lon": "0.3422862",
        "type": "BSB",
        "picture": "https://delivrez.fr/public/posts/img.6697cba571533.png"
      }
    },
    {
      "type": "Feature",
      "geometry": {
        "type": "Point",
        "coordinates": [
          1.013208,
          44.59059
        ]
      },
      "properties": {
        "title": "Rue du Vieux Bourg",
        "lat": "44.59059",
        "lon": "1.0132083",
        "type": "BSB",
        "picture": "https://delivrez.fr/public/posts/img.669560679c76b.png"
      }
    },
    {
      "type": "Feature",
      "geometry": {
        "type": "Point",
        "coordinates": [
          -0.239447,
          46.376195
        ]
      },
      "properties": {
        "title": "Route de l'Echalier Fontenelles",
        "lat": "46.3761953",
        "lon": "-0.2394471",
        "type": "BSB",
        "observation": "_",
        "picture": "https://delivrez.fr/public/posts/img.669151277c359.png"
      }
    },
    {
      "type": "Feature",
      "geometry": {
        "type": "Point",
        "coordinates": [
          -0.230989,
          46.379123
        ]
      },
      "properties": {
        "title": "Route de Ricou Charchenay",
        "lat": "46.3791233",
        "lon": "-0.2309894",
        "type": "BSB",
        "observation": "_",
        "picture": "https://delivrez.fr/public/posts/img.66914fac91c0f.png"
      }
    },
    {
      "type": "Feature",
      "geometry": {
        "type": "Point",
        "coordinates": [
          -0.263042,
          46.370081
        ]
      },
      "properties": {
        "title": "Rue de la Mairie",
        "lat": "46.3700805",
        "lon": "-0.263042",
        "type": "BSB",
        "observation": "à l'entrée de la garderie",
        "picture": "https://delivrez.fr/public/posts/img.66914bb1c26a3.png"
      }
    },
    {
      "type": "Feature",
      "geometry": {
        "type": "Point",
        "coordinates": [
          -0.187561,
          46.387806
        ]
      },
      "properties": {
        "title": "en haut de la laiterie",
        "lat": "46.3878063",
        "lon": "-0.1875609",
        "type": "BSB",
        "observation": "_",
        "picture": "https://delivrez.fr/public/posts/img.6691432e90ae2.png"
      }
    },
    {
      "type": "Feature",
      "geometry": {
        "type": "Point",
        "coordinates": [
          -0.235438,
          46.609146
        ]
      },
      "properties": {
        "title": "Place de la Mairie",
        "lat": "46.6091462",
        "lon": "-0.2354383",
        "type": "BSB",
        "observation": "Près de la mairie",
        "picture": "https://delivrez.fr/public/posts/img.66900a72bdfed.png"
      }
    },