<?xml version='1.0' encoding='UTF-8' standalone='yes' ?>
<gpx version="1.1" creator="Binnette" xmlns="http://www.topografix.com/GPX/1/1" xmlns:osmand="https://osmand.net" xmlns:xsi="http://www.w3.org/2001/XMLSchema-instance" xsi:schemaLocation="http://www.topografix.com/GPX/1/1 http://www.topografix.com/GPX/1/1/gpx.xsd">
  <wpt lat="45.248317" lon="-0.44429">
    <name>Le Bourg</name>
    <desc>à côté de la salle des associations</desc>
    <type>Delivrez bookcases</type>
    <extensions>
      <osmand:color>#ff5020</osmand:color>
      <osmand:background>square</osmand:background>
      <osmand:icon>public_bookcase</osmand:icon>
    </extensions>
  </wpt>
  <wpt lat="45.270932" lon="-0.396591">
    <name>lac de Montendre</name>
    <desc>à côté de l'espace de jeux, sous l'abris d'une table de pique-nique.</desc>
    <type>Delivrez bookcases</type>
    <extensions>
      <osmand:color>#ff5020</osmand:color>
      <osmand:background>square</osmand:background>
      <osmand:icon>public_bookcase</osmand:icon>
    </extensions>
  </wpt>
  <wpt lat="44.545976" lon="-0.276496">
    <name>Route de Villandraut</name>
    <desc></desc>
    <type>Delivrez bookcases</type>
    <extensions>
      <osmand:color>#ff5020</osmand:color>
      <osmand:background>square</osmand:background>
      <osmand:icon>public_bookcase</osmand:icon>
    </extensions>
  </wpt>
  <wpt lat="44.867108" lon="0.375425">
    <name>Avenue des Ducs de la Force</name>
    <desc>Adossée à la maire</desc>
    <type>Delivrez bookcases</type>
    <extensions>
      <osmand:color>#ff5020</osmand:color>
      <osmand:background>square</osmand:background>
      <osmand:icon>public_bookcase</osmand:icon>
    </extensions>
  </wpt>
  <wpt lat="44.877231" lon="-0.609266">
    <name>Allée du Brion</name>
    <desc>devant l'école</desc>
    <type>Delivrez bookcases</type>
    <extensions>
      <osmand:color>#ff5020</osmand:color>
      <osmand:background>square</osmand:background>
      <osmand:icon>public_bookcase</osmand:icon>
    </extensions>
  </wpt>
  <wpt lat="45.741349" lon="-1.124947">
    <name>16 Rue des Tilleuls, 17530 Arvert</name>
    <desc></desc>
    <type>Delivrez bookcases</type>
    <extensions>
      <osmand:color>#ff5020</osmand:color>
      <osmand:background>square</osmand:background>
      <osmand:icon>public_bookcase</osmand:icon>
    </extensions>
  </wpt>
  <wpt lat="45.218127" lon="-0.183122">
    <name>Rue de Vassiac</name>
    <desc>Devant le stade et la salle de la Plaine des sports</desc>
    <type>Delivrez bookcases</type>
    <extensions>
      <osmand:color>#ff5020</osmand:color>
      <osmand:background>square</osmand:background>
      <osmand:icon>public_bookcase</osmand:icon>
    </extensions>
  </wpt>
  <wpt lat="45.170179" lon="1.563914">
    <name>Rue Jean Jaurès</name>
    <desc></desc>
    <type>Delivrez bookcases</type>
    <extensions>
      <osmand:color>#ff5020</osmand:color>
      <osmand:background>square</osmand:background>
      <osmand:icon>public_bookcase</osmand:icon>
    </extensions>
  </wpt>
  <wpt lat="45.736082" lon="-1.10533">
    <name>espace Chaland, 1 Pl. du Marché, 17530 Arvert</name>
    <desc></desc>
    <type>Delivrez bookcases</type>
    <extensions>
      <osmand:color>#ff5020</osmand:color>
      <osmand:background>square</osmand:background>
      <osmand:icon>public_bookcase</osmand:icon>
    </extensions>
  </wpt>
  <wpt lat="45.742161" lon="-0.621611">
    <name>Rue Marcelin Berthelot</name>
    <desc></desc>
    <type>Delivrez bookcases</type>
    <extensions>
      <osmand:color>#ff5020</osmand:color>
      <osmand:background>square</osmand:background>
      <osmand:icon>public_bookcase</osmand:icon>
    </extensions>
  </wpt>
  <wpt lat="45.643435" lon="-0.789334">
    <name>Rue du Point du Jour</name>
    <desc></desc>
    <type>Delivrez bookcases</type>
    <extensions>
      <osmand:color>#ff5020</osmand:color>
      <osmand:background>square</osmand:background>
      <osmand:icon>public_bookcase</osmand:icon>
    </extensions>
  </wpt>
  <wpt lat="45.601065" lon="-0.748005">
    <name>Rue de la Seudre</name>
    <desc></desc>
    <type>Delivrez bookcases</type>
    <extensions>
      <osmand:color>#ff5020</osmand:color>
      <osmand:background>square</osmand:background>
      <osmand:icon>public_bookcase</osmand:icon>
    </extensions>
  </wpt>
  <wpt lat="45.636152" lon="-0.710107">
    <name>Place de la Mairie</name>
    <desc></desc>
    <type>Delivrez bookcases</type>
    <extensions>
      <osmand:color>#ff5020</osmand:color>
      <osmand:background>square</osmand:background>
      <osmand:icon>public_bookcase</osmand:icon>
    </extensions>
  </wpt>
  <wpt lat="44.914989" lon="0.712246">
    <name>Le Bourg E</name>
    <desc></desc>
    <type>Delivrez bookcases</type>
    <extensions>
      <osmand:color>#ff5020</osmand:color>
      <osmand:background>square</osmand:background>
      <osmand:icon>public_bookcase</osmand:icon>
    </extensions>
  </wpt>
  <wpt lat="45.049715" lon="-0.501977">
    <name>Rue des Gombauds</name>
    <desc></desc>
    <type>Delivrez bookcases</type>
    <extensions>
      <osmand:color>#ff5020</osmand:color>
      <osmand:background>square</osmand:background>
      <osmand:icon>public_bookcase</osmand:icon>
    </extensions>
  </wpt>
  <wpt lat="45.634846" lon="-0.746641">
    <name>Route de Meursac</name>
    <desc></desc>
    <type>Delivrez bookcases</type>
    <extensions>
      <osmand:color>#ff5020</osmand:color>
      <osmand:background>square</osmand:background>
      <osmand:icon>public_bookcase</osmand:icon>
    </extensions>
  </wpt>
  <wpt lat="44.851248" lon="0.462023">
    <name>Avenue Aristide Briand</name>
    <desc></desc>
    <type>Delivrez bookcases</type>
    <extensions>
      <osmand:color>#ff5020</osmand:color>
      <osmand:background>square</osmand:background>
      <osmand:icon>public_bookcase</osmand:icon>
    </extensions>
  </wpt>
  <wpt lat="44.691953" lon="0.457555">
    <name>Le Bourg Nord</name>
    <desc>dans un petit parc  avec aire de jeux</desc>
    <type>Delivrez bookcases</type>
    <extensions>
      <osmand:color>#ff5020</osmand:color>
      <osmand:background>square</osmand:background>
      <osmand:icon>public_bookcase</osmand:icon>
    </extensions>
  </wpt>
  <wpt lat="44.576536" lon="-0.144098">
    <name>Parc Castera</name>
    <desc>boîtes à livres à l'entrée du parc</desc>
    <type>Delivrez bookcases</type>
    <extensions>
      <osmand:color>#ff5020</osmand:color>
      <osmand:background>square</osmand:background>
      <osmand:icon>public_bookcase</osmand:icon>
    </extensions>
  </wpt>
  <wpt lat="44.88297" lon="-0.617393">
    <name>Avenue de Verdun</name>
    <desc>Parc Treulon</desc>
    <type>Delivrez bookcases</type>
    <extensions>
      <osmand:color>#ff5020</osmand:color>
      <osmand:background>square</osmand:background>
      <osmand:icon>public_bookcase</osmand:icon>
    </extensions>
  </wpt>
  <wpt lat="46.569742" lon="0.644335">
    <name>Rue du Moulin Saint-Léger</name>
    <desc>Dans une ancienne cabine téléphonique au coin de la mairie.</desc>
    <type>Delivrez bookcases</type>
    <extensions>
      <osmand:color>#ff5020</osmand:color>
      <osmand:background>square</osmand:background>
      <osmand:icon>public_bookcase</osmand:icon>
    </extensions>
  </wpt>
  <wpt lat="45.415444" lon="2.439038">
    <name>Bourg de Sarroux</name>
    <desc>en face la salle du foyer rural</desc>
    <type>Delivrez bookcases</type>
    <extensions>
      <osmand:color>#ff5020</osmand:color>
      <osmand:background>square</osmand:background>
      <osmand:icon>public_bookcase</osmand:icon>
    </extensions>
  </wpt>
  <wpt lat="44.374263" lon="0.240871">
    <name>D143</name>
    <desc>près de la halle</desc>
    <type>Delivrez bookcases</type>
    <extensions>
      <osmand:color>#ff5020</osmand:color>
      <osmand:background>square</osmand:background>
      <osmand:icon>public_bookcase</osmand:icon>
    </extensions>
  </wpt>
  <wpt lat="44.25682" lon="0.30613">
    <name>sur le canal</name>
    <desc>capitainerie</desc>
    <type>Delivrez bookcases</type>
    <extensions>
      <osmand:color>#ff5020</osmand:color>
      <osmand:background>square</osmand:background>
      <osmand:icon>public_bookcase</osmand:icon>
    </extensions>
  </wpt>
  <wpt lat="44.439296" lon="0.181499">
    <name>Rue Nompar de Caumont</name>
    <desc></desc>
    <type>Delivrez bookcases</type>
    <extensions>
      <osmand:color>#ff5020</osmand:color>
      <osmand:background>square</osmand:background>
      <osmand:icon>public_bookcase</osmand:icon>
    </extensions>
  </wpt>
  <wpt lat="44.461018" lon="0.140269">
    <name>Allée de Pont des Sables</name>
    <desc>canal</desc>
    <type>Delivrez bookcases</type>
    <extensions>
      <osmand:color>#ff5020</osmand:color>
      <osmand:background>square</osmand:background>
      <osmand:icon>public_bookcase</osmand:icon>
    </extensions>
  </wpt>
  <wpt lat="44.523319" lon="0.036133">
    <name>Route de Hure</name>
    <desc>canal</desc>
    <type>Delivrez bookcases</type>
    <extensions>
      <osmand:color>#ff5020</osmand:color>
      <osmand:background>square</osmand:background>
      <osmand:icon>public_bookcase</osmand:icon>
    </extensions>
  </wpt>
  <wpt lat="44.545232" lon="0.000134">
    <name>Route de Saint-Louis</name>
    <desc></desc>
    <type>Delivrez bookcases</type>
    <extensions>
      <osmand:color>#ff5020</osmand:color>
      <osmand:background>square</osmand:background>
      <osmand:icon>public_bookcase</osmand:icon>
    </extensions>
  </wpt>
  <wpt lat="44.561769" lon="-0.14921">
    <name>D226</name>
    <desc>sur le canal</desc>
    <type>Delivrez bookcases</type>
    <extensions>
      <osmand:color>#ff5020</osmand:color>
      <osmand:background>square</osmand:background>
      <osmand:icon>public_bookcase</osmand:icon>
    </extensions>
  </wpt>
  <wpt lat="45.584765" lon="0.154786">
    <name>Rue de la Mairie</name>
    <desc>mairie</desc>
    <type>Delivrez bookcases</type>
    <extensions>
      <osmand:color>#ff5020</osmand:color>
      <osmand:background>square</osmand:background>
      <osmand:icon>public_bookcase</osmand:icon>
    </extensions>
  </wpt>
  <wpt lat="46.679361" lon="0.843046">
    <name>Place de l'Étoile</name>
    <desc>boulangerie</desc>
    <type>Delivrez bookcases</type>
    <extensions>
      <osmand:color>#ff5020</osmand:color>
      <osmand:background>square</osmand:background>
      <osmand:icon>public_bookcase</osmand:icon>
    </extensions>
  </wpt>
  <wpt lat="45.642792" lon="-0.553129">
    <name>boîte à livre</name>
    <desc></desc>
    <type>Delivrez bookcases</type>
    <extensions>
      <osmand:color>#ff5020</osmand:color>
      <osmand:background>square</osmand:background>
      <osmand:icon>public_bookcase</osmand:icon>
    </extensions>
  </wpt>
  <wpt lat="44.496614" lon="-0.209955">
    <name>Le Bourg</name>
    <desc></desc>
    <type>Delivrez bookcases</type>
    <extensions>
      <osmand:color>#ff5020</osmand:color>
      <osmand:background>square</osmand:background>
      <osmand:icon>public_bookcase</osmand:icon>
    </extensions>
  </wpt>
  <wpt lat="44.414425" lon="0.67075">
    <name>Rue de la Plaine</name>
    <desc>Parc de jeux</desc>
    <type>Delivrez bookcases</type>
    <extensions>
      <osmand:color>#ff5020</osmand:color>
      <osmand:background>square</osmand:background>
      <osmand:icon>public_bookcase</osmand:icon>
    </extensions>
  </wpt>
  <wpt lat="43.312553" lon="-0.125463">
    <name>Route d'Eslourenties</name>
    <desc></desc>
    <type>Delivrez bookcases</type>
    <extensions>
      <osmand:color>#ff5020</osmand:color>
      <osmand:background>square</osmand:background>
      <osmand:icon>public_bookcase</osmand:icon>
    </extensions>
  </wpt>
  <wpt lat="46.266894" lon="-0.488284">
    <name>10 Grande rue</name>
    <desc>Abri-livres ouvert 24h /24h à l'entrée du parking de la Maison des Associations</desc>
    <type>Delivrez bookcases</type>
    <extensions>
      <osmand:color>#ff5020</osmand:color>
      <osmand:background>square</osmand:background>
      <osmand:icon>public_bookcase</osmand:icon>
    </extensions>
  </wpt>
  <wpt lat="44.899344" lon="-0.212838">
    <name>Avenue du Général de Gaulle</name>
    <desc>Devant l'école</desc>
    <type>Delivrez bookcases</type>
    <extensions>
      <osmand:color>#ff5020</osmand:color>
      <osmand:background>square</osmand:background>
      <osmand:icon>public_bookcase</osmand:icon>
    </extensions>
  </wpt>
  <wpt lat="45.612549" lon="0.444194">
    <name>Rue du Faubourg Saint-Martin</name>
    <desc></desc>
    <type>Delivrez bookcases</type>
    <extensions>
      <osmand:color>#ff5020</osmand:color>
      <osmand:background>square</osmand:background>
      <osmand:icon>public_bookcase</osmand:icon>
    </extensions>
  </wpt>
  <wpt lat="44.686592" lon="-0.374534">
    <name>Place de Beguey</name>
    <desc></desc>
    <type>Delivrez bookcases</type>
    <extensions>
      <osmand:color>#ff5020</osmand:color>
      <osmand:background>square</osmand:background>
      <osmand:icon>public_bookcase</osmand:icon>
    </extensions>
  </wpt>
  <wpt lat="44.52043" lon="-0.153072">
    <name>Le Bourg</name>
    <desc></desc>
    <type>Delivrez bookcases</type>
    <extensions>
      <osmand:color>#ff5020</osmand:color>
      <osmand:background>square</osmand:background>
      <osmand:icon>public_bookcase</osmand:icon>
    </extensions>
  </wpt>
  <wpt lat="43.359172" lon="-1.399541">
    <name>Cambo Les Bains 1</name>
    <desc>derrière  l’aire de jeux</desc>
    <type>Delivrez bookcases</type>
    <extensions>
      <osmand:color>#ff5020</osmand:color>
      <osmand:background>square</osmand:background>
      <osmand:icon>public_bookcase</osmand:icon>
    </extensions>
  </wpt>
  <wpt lat="46.532762" lon="-0.322758">
    <name>place des marronniers</name>
    <desc>contre l'église</desc>
    <type>Delivrez bookcases</type>
    <extensions>
      <osmand:color>#ff5020</osmand:color>
      <osmand:background>square</osmand:background>
      <osmand:icon>public_bookcase</osmand:icon>
    </extensions>
  </wpt>
  <wpt lat="44.896567" lon="0.58175">
    <name>Route du Viraillot</name>
    <desc></desc>
    <type>Delivrez bookcases</type>
    <extensions>
      <osmand:color>#ff5020</osmand:color>
      <osmand:background>square</osmand:background>
      <osmand:icon>public_bookcase</osmand:icon>
    </extensions>
  </wpt>
  <wpt lat="44.90636" lon="0.544777">
    <name>Route des Penauds</name>
    <desc>devant la mairie</desc>
    <type>Delivrez bookcases</type>
    <extensions>
      <osmand:color>#ff5020</osmand:color>
      <osmand:background>square</osmand:background>
      <osmand:icon>public_bookcase</osmand:icon>
    </extensions>
  </wpt>
  <wpt lat="43.334371" lon="-1.406318">
    <name>Mairie d’Itsaxou</name>
    <desc>Près de l’espace France Services</desc>
    <type>Delivrez bookcases</type>
    <extensions>
      <osmand:color>#ff5020</osmand:color>
      <osmand:background>square</osmand:background>
      <osmand:icon>public_bookcase</osmand:icon>
    </extensions>
  </wpt>
  <wpt lat="45.796211" lon="1.13316">
    <name>Avenue Pasteur</name>
    <desc></desc>
    <type>Delivrez bookcases</type>
    <extensions>
      <osmand:color>#ff5020</osmand:color>
      <osmand:background>square</osmand:background>
      <osmand:icon>public_bookcase</osmand:icon>
    </extensions>
  </wpt>
  <wpt lat="45.583688" lon="-0.985889">
    <name>Avenue de Suzac</name>
    <desc></desc>
    <type>Delivrez bookcases</type>
    <extensions>
      <osmand:color>#ff5020</osmand:color>
      <osmand:background>square</osmand:background>
      <osmand:icon>public_bookcase</osmand:icon>
    </extensions>
  </wpt>
  <wpt lat="44.774769" lon="1.259143">
    <name>Chemin de la Pierre de la Lune</name>
    <desc></desc>
    <type>Delivrez bookcases</type>
    <extensions>
      <osmand:color>#ff5020</osmand:color>
      <osmand:background>square</osmand:background>
      <osmand:icon>public_bookcase</osmand:icon>
    </extensions>
  </wpt>
  <wpt lat="45.406101" lon="2.04695">
    <name>Rue Joseph Vialaneix</name>
    <desc>dure a ouvrir</desc>
    <type>Delivrez bookcases</type>
    <extensions>
      <osmand:color>#ff5020</osmand:color>
      <osmand:background>square</osmand:background>
      <osmand:icon>public_bookcase</osmand:icon>
    </extensions>
  </wpt>
  <wpt lat="45.372128" lon="2.17108">
    <name>Place de la Mairie</name>
    <desc>petite</desc>
    <type>Delivrez bookcases</type>
    <extensions>
      <osmand:color>#ff5020</osmand:color>
      <osmand:background>square</osmand:background>
      <osmand:icon>public_bookcase</osmand:icon>
    </extensions>
  </wpt>
  <wpt lat="44.82497" lon="1.18427">
    <name>Promenade de la Batellerie</name>
    <desc></desc>
    <type>Delivrez bookcases</type>
    <extensions>
      <osmand:color>#ff5020</osmand:color>
      <osmand:background>square</osmand:background>
      <osmand:icon>public_bookcase</osmand:icon>
    </extensions>
  </wpt>
  <wpt lat="44.834096" lon="1.165246">
    <name>Place Regis Magnol</name>
    <desc></desc>
    <type>Delivrez bookcases</type>
    <extensions>
      <osmand:color>#ff5020</osmand:color>
      <osmand:background>square</osmand:background>
      <osmand:icon>public_bookcase</osmand:icon>
    </extensions>
  </wpt>
  <wpt lat="44.395983" lon="-1.165134">
    <name>Place Marsan</name>
    <desc></desc>
    <type>Delivrez bookcases</type>
    <extensions>
      <osmand:color>#ff5020</osmand:color>
      <osmand:background>square</osmand:background>
      <osmand:icon>public_bookcase</osmand:icon>
    </extensions>
  </wpt>
  <wpt lat="44.905572" lon="0.859217">
    <name>Ruelle Roger Barnalier</name>
    <desc>dur la place de la mairie dans un petit kiosque avec un toit</desc>
    <type>Delivrez bookcases</type>
    <extensions>
      <osmand:color>#ff5020</osmand:color>
      <osmand:background>square</osmand:background>
      <osmand:icon>public_bookcase</osmand:icon>
    </extensions>
  </wpt>
  <wpt lat="44.550721" lon="-0.867215">
    <name>Rue Va aux Champs</name>
    <desc></desc>
    <type>Delivrez bookcases</type>
    <extensions>
      <osmand:color>#ff5020</osmand:color>
      <osmand:background>square</osmand:background>
      <osmand:icon>public_bookcase</osmand:icon>
    </extensions>
  </wpt>
  <wpt lat="45.015892" lon="-0.128533">
    <name>Rue du Cheminot</name>
    <desc></desc>
    <type>Delivrez bookcases</type>
    <extensions>
      <osmand:color>#ff5020</osmand:color>
      <osmand:background>square</osmand:background>
      <osmand:icon>public_bookcase</osmand:icon>
    </extensions>
  </wpt>
  <wpt lat="44.998041" lon="-0.063147">
    <name>Route Du Camping</name>
    <desc></desc>
    <type>Delivrez bookcases</type>
    <extensions>
      <osmand:color>#ff5020</osmand:color>
      <osmand:background>square</osmand:background>
      <osmand:icon>public_bookcase</osmand:icon>
    </extensions>
  </wpt>
  <wpt lat="44.94536" lon="-0.006791">
    <name>Impasse de l'Église Saint Martin de Francs</name>
    <desc>cabane a livres</desc>
    <type>Delivrez bookcases</type>
    <extensions>
      <osmand:color>#ff5020</osmand:color>
      <osmand:background>square</osmand:background>
      <osmand:icon>public_bookcase</osmand:icon>
    </extensions>
  </wpt>
  <wpt lat="44.953523" lon="-0.010115">
    <name>Route du Bois de la Tour</name>
    <desc>cabane à livres</desc>
    <type>Delivrez bookcases</type>
    <extensions>
      <osmand:color>#ff5020</osmand:color>
      <osmand:background>square</osmand:background>
      <osmand:icon>public_bookcase</osmand:icon>
    </extensions>
  </wpt>
  <wpt lat="44.981476" lon="-0.064336">
    <name>Route des Artigues de Lussac</name>
    <desc></desc>
    <type>Delivrez bookcases</type>
    <extensions>
      <osmand:color>#ff5020</osmand:color>
      <osmand:background>square</osmand:background>
      <osmand:icon>public_bookcase</osmand:icon>
    </extensions>
  </wpt>
  <wpt lat="44.429614" lon="-1.167659">
    <name>Chemin de Navarrosse</name>
    <desc></desc>
    <type>Delivrez bookcases</type>
    <extensions>
      <osmand:color>#ff5020</osmand:color>
      <osmand:background>square</osmand:background>
      <osmand:icon>public_bookcase</osmand:icon>
    </extensions>
  </wpt>
  <wpt lat="45.191035" lon="1.50938">
    <name>Avenue des Écoles</name>
    <desc></desc>
    <type>Delivrez bookcases</type>
    <extensions>
      <osmand:color>#ff5020</osmand:color>
      <osmand:background>square</osmand:background>
      <osmand:icon>public_bookcase</osmand:icon>
    </extensions>
  </wpt>
  <wpt lat="45.081956" lon="-1.190232">
    <name>Avenue des Sables</name>
    <desc></desc>
    <type>Delivrez bookcases</type>
    <extensions>
      <osmand:color>#ff5020</osmand:color>
      <osmand:background>square</osmand:background>
      <osmand:icon>public_bookcase</osmand:icon>
    </extensions>
  </wpt>
  <wpt lat="47.011826" lon="-0.054737">
    <name>Rue des Vignes</name>
    <desc></desc>
    <type>Delivrez bookcases</type>
    <extensions>
      <osmand:color>#ff5020</osmand:color>
      <osmand:background>square</osmand:background>
      <osmand:icon>public_bookcase</osmand:icon>
    </extensions>
  </wpt>
  <wpt lat="45.25339" lon="-1.025454">
    <name>Place du Onze Novembre</name>
    <desc></desc>
    <type>Delivrez bookcases</type>
    <extensions>
      <osmand:color>#ff5020</osmand:color>
      <osmand:background>square</osmand:background>
      <osmand:icon>public_bookcase</osmand:icon>
    </extensions>
  </wpt>
  <wpt lat="45.625166" lon="-1.004378">
    <name>Marne</name>
    <desc></desc>
    <type>Delivrez bookcases</type>
    <extensions>
      <osmand:color>#ff5020</osmand:color>
      <osmand:background>square</osmand:background>
      <osmand:icon>public_bookcase</osmand:icon>
    </extensions>
  </wpt>
  <wpt lat="45.376139" lon="1.698609">
    <name>Boulevard de la Plage</name>
    <desc></desc>
    <type>Delivrez bookcases</type>
    <extensions>
      <osmand:color>#ff5020</osmand:color>
      <osmand:background>square</osmand:background>
      <osmand:icon>public_bookcase</osmand:icon>
    </extensions>
  </wpt>
  <wpt lat="45.307538" lon="-0.942807">
    <name>Rue Pierre Curie</name>
    <desc></desc>
    <type>Delivrez bookcases</type>
    <extensions>
      <osmand:color>#ff5020</osmand:color>
      <osmand:background>square</osmand:background>
      <osmand:icon>public_bookcase</osmand:icon>
    </extensions>
  </wpt>
  <wpt lat="44.813037" lon="-0.590822">
    <name>Rue Camille Pelletan</name>
    <desc>La boite à l'entrée du parc Pineau qui fait face au rond point.</desc>
    <type>Delivrez bookcases</type>
    <extensions>
      <osmand:color>#ff5020</osmand:color>
      <osmand:background>square</osmand:background>
      <osmand:icon>public_bookcase</osmand:icon>
    </extensions>
  </wpt>
  <wpt lat="44.879033" lon="-0.465999">
    <name>Avenue des Tabernottes</name>
    <desc>Devant le city stade et le pump track</desc>
    <type>Delivrez bookcases</type>
    <extensions>
      <osmand:color>#ff5020</osmand:color>
      <osmand:background>square</osmand:background>
      <osmand:icon>public_bookcase</osmand:icon>
    </extensions>
  </wpt>
  <wpt lat="45.003763" lon="-1.201675">
    <name>Boulevard de la Plage</name>
    <desc>Plage Centrale</desc>
    <type>Delivrez bookcases</type>
    <extensions>
      <osmand:color>#ff5020</osmand:color>
      <osmand:background>square</osmand:background>
      <osmand:icon>public_bookcase</osmand:icon>
    </extensions>
  </wpt>
  <wpt lat="45.850094" lon="0.176442">
    <name>Rue Basse</name>
    <desc>A l'ombre, sous l'arbre</desc>
    <type>Delivrez bookcases</type>
    <extensions>
      <osmand:color>#ff5020</osmand:color>
      <osmand:background>square</osmand:background>
      <osmand:icon>public_bookcase</osmand:icon>
    </extensions>
  </wpt>
  <wpt lat="44.873274" lon="-0.619674">
    <name>Bois du Bouscat</name>
    <desc>Dans le parc</desc>
    <type>Delivrez bookcases</type>
    <extensions>
      <osmand:color>#ff5020</osmand:color>
      <osmand:background>square</osmand:background>
      <osmand:icon>public_bookcase</osmand:icon>
    </extensions>
  </wpt>
  <wpt lat="45.427151" lon="-1.034448">
    <name>Cours Pierre Lassalle</name>
    <desc></desc>
    <type>Delivrez bookcases</type>
    <extensions>
      <osmand:color>#ff5020</osmand:color>
      <osmand:background>square</osmand:background>
      <osmand:icon>public_bookcase</osmand:icon>
    </extensions>
  </wpt>
  <wpt lat="45.431212" lon="-1.035982">
    <name>Place de la Brigade Carnot</name>
    <desc></desc>
    <type>Delivrez bookcases</type>
    <extensions>
      <osmand:color>#ff5020</osmand:color>
      <osmand:background>square</osmand:background>
      <osmand:icon>public_bookcase</osmand:icon>
    </extensions>
  </wpt>
  <wpt lat="45.472093" lon="-1.057193">
    <name>Route du Bourg</name>
    <desc></desc>
    <type>Delivrez bookcases</type>
    <extensions>
      <osmand:color>#ff5020</osmand:color>
      <osmand:background>square</osmand:background>
      <osmand:icon>public_bookcase</osmand:icon>
    </extensions>
  </wpt>
  <wpt lat="44.759732" lon="-0.492811">
    <name>Lieu dit Lestange</name>
    <desc>petite boîte à livres</desc>
    <type>Delivrez bookcases</type>
    <extensions>
      <osmand:color>#ff5020</osmand:color>
      <osmand:background>square</osmand:background>
      <osmand:icon>public_bookcase</osmand:icon>
    </extensions>
  </wpt>
  <wpt lat="44.866934" lon="-0.610187">
    <name>Boite à lire Cheneraie</name>
    <desc>Parc de la Cheneraie</desc>
    <type>Delivrez bookcases</type>
    <extensions>
      <osmand:color>#ff5020</osmand:color>
      <osmand:background>square</osmand:background>
      <osmand:icon>public_bookcase</osmand:icon>
    </extensions>
  </wpt>
  <wpt lat="44.828751" lon="-0.113114">
    <name>Église - Sainte-Terre</name>
    <desc></desc>
    <type>Delivrez bookcases</type>
    <extensions>
      <osmand:color>#ff5020</osmand:color>
      <osmand:background>square</osmand:background>
      <osmand:icon>public_bookcase</osmand:icon>
    </extensions>
  </wpt>
  <wpt lat="44.819738" lon="-0.135402">
    <name>Jardin de la Lamproie - Sainte-Terre</name>
    <desc></desc>
    <type>Delivrez bookcases</type>
    <extensions>
      <osmand:color>#ff5020</osmand:color>
      <osmand:background>square</osmand:background>
      <osmand:icon>public_bookcase</osmand:icon>
    </extensions>
  </wpt>
  <wpt lat="45.288324" lon="-0.902576">
    <name>Route des Marceaux</name>
    <desc></desc>
    <type>Delivrez bookcases</type>
    <extensions>
      <osmand:color>#ff5020</osmand:color>
      <osmand:background>square</osmand:background>
      <osmand:icon>public_bookcase</osmand:icon>
    </extensions>
  </wpt>
  <wpt lat="45.260047" lon="-1.080296">
    <name>Route des Lacs</name>
    <desc></desc>
    <type>Delivrez bookcases</type>
    <extensions>
      <osmand:color>#ff5020</osmand:color>
      <osmand:background>square</osmand:background>
      <osmand:icon>public_bookcase</osmand:icon>
    </extensions>
  </wpt>
  <wpt lat="43.371598" lon="-0.59513">
    <name>Rue Charles Moureu</name>
    <desc></desc>
    <type>Delivrez bookcases</type>
    <extensions>
      <osmand:color>#ff5020</osmand:color>
      <osmand:background>square</osmand:background>
      <osmand:icon>public_bookcase</osmand:icon>
    </extensions>
  </wpt>
  <wpt lat="45.269851" lon="-1.10327">
    <name>Route du Pin Sec</name>
    <desc></desc>
    <type>Delivrez bookcases</type>
    <extensions>
      <osmand:color>#ff5020</osmand:color>
      <osmand:background>square</osmand:background>
      <osmand:icon>public_bookcase</osmand:icon>
    </extensions>
  </wpt>
  <wpt lat="45.2765" lon="-0.944789">
    <name>Route de Plassan</name>
    <desc></desc>
    <type>Delivrez bookcases</type>
    <extensions>
      <osmand:color>#ff5020</osmand:color>
      <osmand:background>square</osmand:background>
      <osmand:icon>public_bookcase</osmand:icon>
    </extensions>
  </wpt>
  <wpt lat="46.574957" lon="0.332613">
    <name>Jardin des anglais (Blossac)</name>
    <desc></desc>
    <type>Delivrez bookcases</type>
    <extensions>
      <osmand:color>#ff5020</osmand:color>
      <osmand:background>square</osmand:background>
      <osmand:icon>public_bookcase</osmand:icon>
    </extensions>
  </wpt>
  <wpt lat="45.271631" lon="-0.888172">
    <name>la cabine d'Artiguillon</name>
    <desc></desc>
    <type>Delivrez bookcases</type>
    <extensions>
      <osmand:color>#ff5020</osmand:color>
      <osmand:background>square</osmand:background>
      <osmand:icon>public_bookcase</osmand:icon>
    </extensions>
  </wpt>
  <wpt lat="45.146014" lon="-0.82195">
    <name>Rue Saint-Exupéry</name>
    <desc>La poste</desc>
    <type>Delivrez bookcases</type>
    <extensions>
      <osmand:color>#ff5020</osmand:color>
      <osmand:background>square</osmand:background>
      <osmand:icon>public_bookcase</osmand:icon>
    </extensions>
  </wpt>
  <wpt lat="45.248552" lon="-1.002253">
    <name>Rue de Saint-Laurent</name>
    <desc></desc>
    <type>Delivrez bookcases</type>
    <extensions>
      <osmand:color>#ff5020</osmand:color>
      <osmand:background>square</osmand:background>
      <osmand:icon>public_bookcase</osmand:icon>
    </extensions>
  </wpt>
  <wpt lat="45.186196" lon="-1.064078">
    <name>ancienne gare Hourtin</name>
    <desc></desc>
    <type>Delivrez bookcases</type>
    <extensions>
      <osmand:color>#ff5020</osmand:color>
      <osmand:background>square</osmand:background>
      <osmand:icon>public_bookcase</osmand:icon>
    </extensions>
  </wpt>
  <wpt lat="45.476623" lon="-0.795588">
    <name>Place Parias</name>
    <desc>Mise en place par la Municipalité.</desc>
    <type>Delivrez bookcases</type>
    <extensions>
      <osmand:color>#ff5020</osmand:color>
      <osmand:background>square</osmand:background>
      <osmand:icon>public_bookcase</osmand:icon>
    </extensions>
  </wpt>
  <wpt lat="44.742718" lon="-1.105445">
    <name>Boulevard de la Plage</name>
    <desc></desc>
    <type>Delivrez bookcases</type>
    <extensions>
      <osmand:color>#ff5020</osmand:color>
      <osmand:background>square</osmand:background>
      <osmand:icon>public_bookcase</osmand:icon>
    </extensions>
  </wpt>
  <wpt lat="44.740392" lon="-1.101536">
    <name>Allée Gambetta</name>
    <desc></desc>
    <type>Delivrez bookcases</type>
    <extensions>
      <osmand:color>#ff5020</osmand:color>
      <osmand:background>square</osmand:background>
      <osmand:icon>public_bookcase</osmand:icon>
    </extensions>
  </wpt>
  <wpt lat="44.640122" lon="-1.017816">
    <name>Rue du Port</name>
    <desc></desc>
    <type>Delivrez bookcases</type>
    <extensions>
      <osmand:color>#ff5020</osmand:color>
      <osmand:background>square</osmand:background>
      <osmand:icon>public_bookcase</osmand:icon>
    </extensions>
  </wpt>
  <wpt lat="45.367463" lon="1.713801">
    <name>Avenue Jean Vinatier</name>
    <desc></desc>
    <type>Delivrez bookcases</type>
    <extensions>
      <osmand:color>#ff5020</osmand:color>
      <osmand:background>square</osmand:background>
      <osmand:icon>public_bookcase</osmand:icon>
    </extensions>
  </wpt>
  <wpt lat="45.040813" lon="-0.678543">
    <name>Avenue Jeanne d'Arc</name>
    <desc></desc>
    <type>Delivrez bookcases</type>
    <extensions>
      <osmand:color>#ff5020</osmand:color>
      <osmand:background>square</osmand:background>
      <osmand:icon>public_bookcase</osmand:icon>
    </extensions>
  </wpt>
  <wpt lat="46.313413" lon="-0.369262">
    <name>Rue de Boussantin</name>
    <desc>derrière la mairie aux abords du Parc</desc>
    <type>Delivrez bookcases</type>
    <extensions>
      <osmand:color>#ff5020</osmand:color>
      <osmand:background>square</osmand:background>
      <osmand:icon>public_bookcase</osmand:icon>
    </extensions>
  </wpt>
  <wpt lat="45.599437" lon="-1.002634">
    <name>Allée de l'Estuaire</name>
    <desc></desc>
    <type>Delivrez bookcases</type>
    <extensions>
      <osmand:color>#ff5020</osmand:color>
      <osmand:background>square</osmand:background>
      <osmand:icon>public_bookcase</osmand:icon>
    </extensions>
  </wpt>
  <wpt lat="45.366333" lon="1.714255">
    <name>Avenue nationale</name>
    <desc></desc>
    <type>Delivrez bookcases</type>
    <extensions>
      <osmand:color>#ff5020</osmand:color>
      <osmand:background>square</osmand:background>
      <osmand:icon>public_bookcase</osmand:icon>
    </extensions>
  </wpt>
  <wpt lat="45.583477" lon="-0.830631">
    <name>Allée des Soupirs</name>
    <desc>a la bibliothèque municipale</desc>
    <type>Delivrez bookcases</type>
    <extensions>
      <osmand:color>#ff5020</osmand:color>
      <osmand:background>square</osmand:background>
      <osmand:icon>public_bookcase</osmand:icon>
    </extensions>
  </wpt>
  <wpt lat="45.021363" lon="0.538871">
    <name>Avenue Edouard Dupuy</name>
    <desc>sur le mur de la communauté de communes</desc>
    <type>Delivrez bookcases</type>
    <extensions>
      <osmand:color>#ff5020</osmand:color>
      <osmand:background>square</osmand:background>
      <osmand:icon>public_bookcase</osmand:icon>
    </extensions>
  </wpt>
  <wpt lat="45.021858" lon="0.541271">
    <name>Rue Gabriel Reymond</name>
    <desc>dans le renfoncement du magasin Ptites fripes</desc>
    <type>Delivrez bookcases</type>
    <extensions>
      <osmand:color>#ff5020</osmand:color>
      <osmand:background>square</osmand:background>
      <osmand:icon>public_bookcase</osmand:icon>
    </extensions>
  </wpt>
  <wpt lat="46.176179" lon="2.550742">
    <name>Le Bourg</name>
    <desc>En face l'auberge</desc>
    <type>Delivrez bookcases</type>
    <extensions>
      <osmand:color>#ff5020</osmand:color>
      <osmand:background>square</osmand:background>
      <osmand:icon>public_bookcase</osmand:icon>
    </extensions>
  </wpt>
  <wpt lat="46.188569" lon="2.424951">
    <name>Rue de la Couture</name>
    <desc></desc>
    <type>Delivrez bookcases</type>
    <extensions>
      <osmand:color>#ff5020</osmand:color>
      <osmand:background>square</osmand:background>
      <osmand:icon>public_bookcase</osmand:icon>
    </extensions>
  </wpt>
  <wpt lat="46.136452" lon="1.272684">
    <name>La Josnière</name>
    <desc>Après caserne des pompiers</desc>
    <type>Delivrez bookcases</type>
    <extensions>
      <osmand:color>#ff5020</osmand:color>
      <osmand:background>square</osmand:background>
      <osmand:icon>public_bookcase</osmand:icon>
    </extensions>
  </wpt>
  <wpt lat="46.038219" lon="1.201354">
    <name>Avenue des Erables</name>
    <desc>Bascule</desc>
    <type>Delivrez bookcases</type>
    <extensions>
      <osmand:color>#ff5020</osmand:color>
      <osmand:background>square</osmand:background>
      <osmand:icon>public_bookcase</osmand:icon>
    </extensions>
  </wpt>
  <wpt lat="45.419038" lon="0.840061">
    <name>Rue de la Mairie</name>
    <desc></desc>
    <type>Delivrez bookcases</type>
    <extensions>
      <osmand:color>#ff5020</osmand:color>
      <osmand:background>square</osmand:background>
      <osmand:icon>public_bookcase</osmand:icon>
    </extensions>
  </wpt>
  <wpt lat="45.419321" lon="0.83907">
    <name>Rue du Vieux Puits</name>
    <desc></desc>
    <type>Delivrez bookcases</type>
    <extensions>
      <osmand:color>#ff5020</osmand:color>
      <osmand:background>square</osmand:background>
      <osmand:icon>public_bookcase</osmand:icon>
    </extensions>
  </wpt>
  <wpt lat="45.342377" lon="0.992535">
    <name>Rue André Dumas</name>
    <desc>près du monument aux morts</desc>
    <type>Delivrez bookcases</type>
    <extensions>
      <osmand:color>#ff5020</osmand:color>
      <osmand:background>square</osmand:background>
      <osmand:icon>public_bookcase</osmand:icon>
    </extensions>
  </wpt>
  <wpt lat="44.80375" lon="0.724813">
    <name>Rue Yvon Dumain</name>
    <desc></desc>
    <type>Delivrez bookcases</type>
    <extensions>
      <osmand:color>#ff5020</osmand:color>
      <osmand:background>square</osmand:background>
      <osmand:icon>public_bookcase</osmand:icon>
    </extensions>
  </wpt>
  <wpt lat="44.87781" lon="0.591855">
    <name>La Junie</name>
    <desc>prendre le chemin à pied suite à l'impasse</desc>
    <type>Delivrez bookcases</type>
    <extensions>
      <osmand:color>#ff5020</osmand:color>
      <osmand:background>square</osmand:background>
      <osmand:icon>public_bookcase</osmand:icon>
    </extensions>
  </wpt>
  <wpt lat="45.847168" lon="0.287912">
    <name>Cr Marchande</name>
    <desc>Juste à côté de la maison de santé</desc>
    <type>Delivrez bookcases</type>
    <extensions>
      <osmand:color>#ff5020</osmand:color>
      <osmand:background>square</osmand:background>
      <osmand:icon>public_bookcase</osmand:icon>
    </extensions>
  </wpt>
  <wpt lat="44.86898" lon="0.585203">
    <name>Route de Terrefort</name>
    <desc>Ecole</desc>
    <type>Delivrez bookcases</type>
    <extensions>
      <osmand:color>#ff5020</osmand:color>
      <osmand:background>square</osmand:background>
      <osmand:icon>public_bookcase</osmand:icon>
    </extensions>
  </wpt>
  <wpt lat="45.689468" lon="-1.181583">
    <name>Les Tremières</name>
    <desc></desc>
    <type>Delivrez bookcases</type>
    <extensions>
      <osmand:color>#ff5020</osmand:color>
      <osmand:background>square</osmand:background>
      <osmand:icon>public_bookcase</osmand:icon>
    </extensions>
  </wpt>
  <wpt lat="45.263336" lon="0.362504">
    <name>Place de la Liberté</name>
    <desc></desc>
    <type>Delivrez bookcases</type>
    <extensions>
      <osmand:color>#ff5020</osmand:color>
      <osmand:background>square</osmand:background>
      <osmand:icon>public_bookcase</osmand:icon>
    </extensions>
  </wpt>
  <wpt lat="44.857853" lon="-0.621782">
    <name>Avenue du Maréchal de Lattre de Tassigny</name>
    <desc>Au niveau de l'arrêt de tram "Stade Stéhélin"</desc>
    <type>Delivrez bookcases</type>
    <extensions>
      <osmand:color>#ff5020</osmand:color>
      <osmand:background>square</osmand:background>
      <osmand:icon>public_bookcase</osmand:icon>
    </extensions>
  </wpt>
  <wpt lat="45.053842" lon="-0.60092">
    <name>Le Bourg-Sud</name>
    <desc></desc>
    <type>Delivrez bookcases</type>
    <extensions>
      <osmand:color>#ff5020</osmand:color>
      <osmand:background>square</osmand:background>
      <osmand:icon>public_bookcase</osmand:icon>
    </extensions>
  </wpt>
  <wpt lat="44.925796" lon="0.682125">
    <name>Le Bourg</name>
    <desc>sous le grand porche de la mairie</desc>
    <type>Delivrez bookcases</type>
    <extensions>
      <osmand:color>#ff5020</osmand:color>
      <osmand:background>square</osmand:background>
      <osmand:icon>public_bookcase</osmand:icon>
    </extensions>
  </wpt>
  <wpt lat="45.850761" lon="0.507434">
    <name>Place de L’Eglise</name>
    <desc></desc>
    <type>Delivrez bookcases</type>
    <extensions>
      <osmand:color>#ff5020</osmand:color>
      <osmand:background>square</osmand:background>
      <osmand:icon>public_bookcase</osmand:icon>
    </extensions>
  </wpt>
  <wpt lat="44.848244" lon="-0.496495">
    <name>Avenue de l'Île de France</name>
    <desc>Devant l'école Joséphine Baker</desc>
    <type>Delivrez bookcases</type>
    <extensions>
      <osmand:color>#ff5020</osmand:color>
      <osmand:background>square</osmand:background>
      <osmand:icon>public_bookcase</osmand:icon>
    </extensions>
  </wpt>
  <wpt lat="45.367639" lon="-0.019828">
    <name>Livres</name>
    <desc>Mairie de sainte-souline</desc>
    <type>Delivrez bookcases</type>
    <extensions>
      <osmand:color>#ff5020</osmand:color>
      <osmand:background>square</osmand:background>
      <osmand:icon>public_bookcase</osmand:icon>
    </extensions>
  </wpt>
  <wpt lat="44.842584" lon="0.651604">
    <name>Route de Bergerac</name>
    <desc></desc>
    <type>Delivrez bookcases</type>
    <extensions>
      <osmand:color>#ff5020</osmand:color>
      <osmand:background>square</osmand:background>
      <osmand:icon>public_bookcase</osmand:icon>
    </extensions>
  </wpt>
  <wpt lat="45.861339" lon="0.211627">
    <name>Grand Rue</name>
    <desc>A l'entrée de l'école</desc>
    <type>Delivrez bookcases</type>
    <extensions>
      <osmand:color>#ff5020</osmand:color>
      <osmand:background>square</osmand:background>
      <osmand:icon>public_bookcase</osmand:icon>
    </extensions>
  </wpt>
  <wpt lat="45.103901" lon="-0.647419">
    <name>Route de l'Estuaire</name>
    <desc></desc>
    <type>Delivrez bookcases</type>
    <extensions>
      <osmand:color>#ff5020</osmand:color>
      <osmand:background>square</osmand:background>
      <osmand:icon>public_bookcase</osmand:icon>
    </extensions>
  </wpt>
  <wpt lat="45.014841" lon="-0.056647">
    <name>Esplanade du 18 Juin</name>
    <desc>La boite est située juste à côté de la Mairie ! C'est une cabine téléphonique Rouge !</desc>
    <type>Delivrez bookcases</type>
    <extensions>
      <osmand:color>#ff5020</osmand:color>
      <osmand:background>square</osmand:background>
      <osmand:icon>public_bookcase</osmand:icon>
    </extensions>
  </wpt>
  <wpt lat="46.01536" lon="0.67365">
    <name>Place Henri Dezaphie</name>
    <desc></desc>
    <type>Delivrez bookcases</type>
    <extensions>
      <osmand:color>#ff5020</osmand:color>
      <osmand:background>square</osmand:background>
      <osmand:icon>public_bookcase</osmand:icon>
    </extensions>
  </wpt>
  <wpt lat="46.014691" lon="0.67247">
    <name>Rue des Orgues</name>
    <desc></desc>
    <type>Delivrez bookcases</type>
    <extensions>
      <osmand:color>#ff5020</osmand:color>
      <osmand:background>square</osmand:background>
      <osmand:icon>public_bookcase</osmand:icon>
    </extensions>
  </wpt>
  <wpt lat="46.348133" lon="2.214772">
    <name>Place de L Hôtel de ville</name>
    <desc></desc>
    <type>Delivrez bookcases</type>
    <extensions>
      <osmand:color>#ff5020</osmand:color>
      <osmand:background>square</osmand:background>
      <osmand:icon>public_bookcase</osmand:icon>
    </extensions>
  </wpt>
  <wpt lat="46.016029" lon="-1.352887">
    <name>Rue de Saint-Denis</name>
    <desc></desc>
    <type>Delivrez bookcases</type>
    <extensions>
      <osmand:color>#ff5020</osmand:color>
      <osmand:background>square</osmand:background>
      <osmand:icon>public_bookcase</osmand:icon>
    </extensions>
  </wpt>
  <wpt lat="45.4447" lon="-0.434519">
    <name>Rue James Sclafer</name>
    <desc></desc>
    <type>Delivrez bookcases</type>
    <extensions>
      <osmand:color>#ff5020</osmand:color>
      <osmand:background>square</osmand:background>
      <osmand:icon>public_bookcase</osmand:icon>
    </extensions>
  </wpt>
  <wpt lat="45.152414" lon="-0.475547">
    <name>Moulin Blanc</name>
    <desc></desc>
    <type>Delivrez bookcases</type>
    <extensions>
      <osmand:color>#ff5020</osmand:color>
      <osmand:background>square</osmand:background>
      <osmand:icon>public_bookcase</osmand:icon>
    </extensions>
  </wpt>
  <wpt lat="45.825374" lon="0.105687">
    <name>Rue Principale</name>
    <desc>à l'entrée d'un petit jardin</desc>
    <type>Delivrez bookcases</type>
    <extensions>
      <osmand:color>#ff5020</osmand:color>
      <osmand:background>square</osmand:background>
      <osmand:icon>public_bookcase</osmand:icon>
    </extensions>
  </wpt>
  <wpt lat="45.742464" lon="-0.837479">
    <name>Route de l'Océan</name>
    <desc>vers salle des fêtes</desc>
    <type>Delivrez bookcases</type>
    <extensions>
      <osmand:color>#ff5020</osmand:color>
      <osmand:background>square</osmand:background>
      <osmand:icon>public_bookcase</osmand:icon>
    </extensions>
  </wpt>
  <wpt lat="45.719126" lon="-0.887906">
    <name>Boîte a livre</name>
    <desc>Entre la mairie et l'école</desc>
    <type>Delivrez bookcases</type>
    <extensions>
      <osmand:color>#ff5020</osmand:color>
      <osmand:background>square</osmand:background>
      <osmand:icon>public_bookcase</osmand:icon>
    </extensions>
  </wpt>
  <wpt lat="45.726513" lon="-0.94436">
    <name>Rue Samuel Champlain</name>
    <desc>A côté de la poste</desc>
    <type>Delivrez bookcases</type>
    <extensions>
      <osmand:color>#ff5020</osmand:color>
      <osmand:background>square</osmand:background>
      <osmand:icon>public_bookcase</osmand:icon>
    </extensions>
  </wpt>
  <wpt lat="45.91763" lon="0.16572">
    <name>Rue du Stade</name>
    <desc>dans le petit abri au bord de la route</desc>
    <type>Delivrez bookcases</type>
    <extensions>
      <osmand:color>#ff5020</osmand:color>
      <osmand:background>square</osmand:background>
      <osmand:icon>public_bookcase</osmand:icon>
    </extensions>
  </wpt>
  <wpt lat="45.537045" lon="1.794951">
    <name>Place de la Mairie</name>
    <desc>sous la Halle</desc>
    <type>Delivrez bookcases</type>
    <extensions>
      <osmand:color>#ff5020</osmand:color>
      <osmand:background>square</osmand:background>
      <osmand:icon>public_bookcase</osmand:icon>
    </extensions>
  </wpt>
  <wpt lat="45.370195" lon="0.792419">
    <name>Place de la mairie</name>
    <desc>Devant la salle des fêtes</desc>
    <type>Delivrez bookcases</type>
    <extensions>
      <osmand:color>#ff5020</osmand:color>
      <osmand:background>square</osmand:background>
      <osmand:icon>public_bookcase</osmand:icon>
    </extensions>
  </wpt>
  <wpt lat="45.150642" lon="0.571135">
    <name>Avenue de Bordeaux</name>
    <desc>près de l'école - Montanceix</desc>
    <type>Delivrez bookcases</type>
    <extensions>
      <osmand:color>#ff5020</osmand:color>
      <osmand:background>square</osmand:background>
      <osmand:icon>public_bookcase</osmand:icon>
    </extensions>
  </wpt>
  <wpt lat="45.184322" lon="0.729899">
    <name>Rue Gabriel Lacueille</name>
    <desc></desc>
    <type>Delivrez bookcases</type>
    <extensions>
      <osmand:color>#ff5020</osmand:color>
      <osmand:background>square</osmand:background>
      <osmand:icon>public_bookcase</osmand:icon>
    </extensions>
  </wpt>
  <wpt lat="45.126919" lon="0.984673">
    <name>boîte à livres</name>
    <desc>Fossemagne - à côté de la salle</desc>
    <type>Delivrez bookcases</type>
    <extensions>
      <osmand:color>#ff5020</osmand:color>
      <osmand:background>square</osmand:background>
      <osmand:icon>public_bookcase</osmand:icon>
    </extensions>
  </wpt>
  <wpt lat="45.139968" lon="1.069672">
    <name>Rue Emile Zola</name>
    <desc>juste à côté du panneau sens interdit</desc>
    <type>Delivrez bookcases</type>
    <extensions>
      <osmand:color>#ff5020</osmand:color>
      <osmand:background>square</osmand:background>
      <osmand:icon>public_bookcase</osmand:icon>
    </extensions>
  </wpt>
  <wpt lat="45.130069" lon="1.326296">
    <name>Rue André Citroën</name>
    <desc>à l'intérieur de Auchan</desc>
    <type>Delivrez bookcases</type>
    <extensions>
      <osmand:color>#ff5020</osmand:color>
      <osmand:background>square</osmand:background>
      <osmand:icon>public_bookcase</osmand:icon>
    </extensions>
  </wpt>
  <wpt lat="45.18532" lon="0.715247">
    <name>Place Louis Magne</name>
    <desc>en face du cardiologue sur la place</desc>
    <type>Delivrez bookcases</type>
    <extensions>
      <osmand:color>#ff5020</osmand:color>
      <osmand:background>square</osmand:background>
      <osmand:icon>public_bookcase</osmand:icon>
    </extensions>
  </wpt>
  <wpt lat="45.178977" lon="0.728878">
    <name>Rue Haute Saint-Georges</name>
    <desc>a côté de l'église</desc>
    <type>Delivrez bookcases</type>
    <extensions>
      <osmand:color>#ff5020</osmand:color>
      <osmand:background>square</osmand:background>
      <osmand:icon>public_bookcase</osmand:icon>
    </extensions>
  </wpt>
  <wpt lat="45.184411" lon="0.721222">
    <name>Rue Haute Saint-Georges</name>
    <desc>halle du Coderc</desc>
    <type>Delivrez bookcases</type>
    <extensions>
      <osmand:color>#ff5020</osmand:color>
      <osmand:background>square</osmand:background>
      <osmand:icon>public_bookcase</osmand:icon>
    </extensions>
  </wpt>
  <wpt lat="45.163769" lon="0.603065">
    <name>Avenue des Platanes</name>
    <desc>devant le restaurant d'enfants</desc>
    <type>Delivrez bookcases</type>
    <extensions>
      <osmand:color>#ff5020</osmand:color>
      <osmand:background>square</osmand:background>
      <osmand:icon>public_bookcase</osmand:icon>
    </extensions>
  </wpt>
  <wpt lat="44.932074" lon="-0.199363">
    <name>Rue de Tropchaud Pomerol</name>
    <desc>Salle polyvalente - à côté de l'abri bus</desc>
    <type>Delivrez bookcases</type>
    <extensions>
      <osmand:color>#ff5020</osmand:color>
      <osmand:background>square</osmand:background>
      <osmand:icon>public_bookcase</osmand:icon>
    </extensions>
  </wpt>
  <wpt lat="44.913241" lon="-0.244305">
    <name>Rue Etienne Sabatié</name>
    <desc>boite dans le jardin</desc>
    <type>Delivrez bookcases</type>
    <extensions>
      <osmand:color>#ff5020</osmand:color>
      <osmand:background>square</osmand:background>
      <osmand:icon>public_bookcase</osmand:icon>
    </extensions>
  </wpt>
  <wpt lat="44.84556" lon="-0.63093">
    <name>Rue Erik Satie</name>
    <desc>Devant MJC CL2V</desc>
    <type>Delivrez bookcases</type>
    <extensions>
      <osmand:color>#ff5020</osmand:color>
      <osmand:background>square</osmand:background>
      <osmand:icon>public_bookcase</osmand:icon>
    </extensions>
  </wpt>
  <wpt lat="44.841502" lon="-0.580079">
    <name>Place Gambetta</name>
    <desc>en face de la bouquinerie</desc>
    <type>Delivrez bookcases</type>
    <extensions>
      <osmand:color>#ff5020</osmand:color>
      <osmand:background>square</osmand:background>
      <osmand:icon>public_bookcase</osmand:icon>
    </extensions>
  </wpt>
  <wpt lat="45.259494" lon="1.149488">
    <name>Place Marquis Jacques François</name>
    <desc>bien fournie</desc>
    <type>Delivrez bookcases</type>
    <extensions>
      <osmand:color>#ff5020</osmand:color>
      <osmand:background>square</osmand:background>
      <osmand:icon>public_bookcase</osmand:icon>
    </extensions>
  </wpt>
  <wpt lat="44.180949" lon="0.664919">
    <name>Entrée médiathèque</name>
    <desc></desc>
    <type>Delivrez bookcases</type>
    <extensions>
      <osmand:color>#ff5020</osmand:color>
      <osmand:background>square</osmand:background>
      <osmand:icon>public_bookcase</osmand:icon>
    </extensions>
  </wpt>
  <wpt lat="45.698957" lon="-0.332349">
    <name>Place du Solencon</name>
    <desc>boite en verre</desc>
    <type>Delivrez bookcases</type>
    <extensions>
      <osmand:color>#ff5020</osmand:color>
      <osmand:background>square</osmand:background>
      <osmand:icon>public_bookcase</osmand:icon>
    </extensions>
  </wpt>
  <wpt lat="44.67647" lon="0.183817">
    <name>Place du 8 Mai 1945</name>
    <desc>elle est murale et rouge</desc>
    <type>Delivrez bookcases</type>
    <extensions>
      <osmand:color>#ff5020</osmand:color>
      <osmand:background>square</osmand:background>
      <osmand:icon>public_bookcase</osmand:icon>
    </extensions>
  </wpt>
  <wpt lat="44.175652" lon="0.559249">
    <name>Place du 8 Mai 1945</name>
    <desc></desc>
    <type>Delivrez bookcases</type>
    <extensions>
      <osmand:color>#ff5020</osmand:color>
      <osmand:background>square</osmand:background>
      <osmand:icon>public_bookcase</osmand:icon>
    </extensions>
  </wpt>
  <wpt lat="45.926395" lon="-1.008541">
    <name>Place de Verdun</name>
    <desc>maison des associations - Soubise</desc>
    <type>Delivrez bookcases</type>
    <extensions>
      <osmand:color>#ff5020</osmand:color>
      <osmand:background>square</osmand:background>
      <osmand:icon>public_bookcase</osmand:icon>
    </extensions>
  </wpt>
  <wpt lat="44.207953" lon="0.621505">
    <name>Villa de l'hermitage</name>
    <desc></desc>
    <type>Delivrez bookcases</type>
    <extensions>
      <osmand:color>#ff5020</osmand:color>
      <osmand:background>square</osmand:background>
      <osmand:icon>public_bookcase</osmand:icon>
    </extensions>
  </wpt>
  <wpt lat="45.938436" lon="-0.966182">
    <name>Avenue Marie-François Sadi Carnot</name>
    <desc>devant le square Parat</desc>
    <type>Delivrez bookcases</type>
    <extensions>
      <osmand:color>#ff5020</osmand:color>
      <osmand:background>square</osmand:background>
      <osmand:icon>public_bookcase</osmand:icon>
    </extensions>
  </wpt>
  <wpt lat="45.935937" lon="-1.051238">
    <name>boîte à livres</name>
    <desc>façade de la mairie</desc>
    <type>Delivrez bookcases</type>
    <extensions>
      <osmand:color>#ff5020</osmand:color>
      <osmand:background>square</osmand:background>
      <osmand:icon>public_bookcase</osmand:icon>
    </extensions>
  </wpt>
  <wpt lat="44.206874" lon="0.614331">
    <name>Impasse Scaliger</name>
    <desc></desc>
    <type>Delivrez bookcases</type>
    <extensions>
      <osmand:color>#ff5020</osmand:color>
      <osmand:background>square</osmand:background>
      <osmand:icon>public_bookcase</osmand:icon>
    </extensions>
  </wpt>
  <wpt lat="44.785338" lon="0.268656">
    <name>Route de Pineuilh</name>
    <desc>dans cabane en pierre</desc>
    <type>Delivrez bookcases</type>
    <extensions>
      <osmand:color>#ff5020</osmand:color>
      <osmand:background>square</osmand:background>
      <osmand:icon>public_bookcase</osmand:icon>
    </extensions>
  </wpt>
  <wpt lat="46.203085" lon="-1.368898">
    <name>Rue du Docteur Kemmerer</name>
    <desc>sous préau, place Anatole France</desc>
    <type>Delivrez bookcases</type>
    <extensions>
      <osmand:color>#ff5020</osmand:color>
      <osmand:background>square</osmand:background>
      <osmand:icon>public_bookcase</osmand:icon>
    </extensions>
  </wpt>
  <wpt lat="45.61961" lon="-0.638976">
    <name>Boite a Livres</name>
    <desc>dans l'abribus a coté de la mairie</desc>
    <type>Delivrez bookcases</type>
    <extensions>
      <osmand:color>#ff5020</osmand:color>
      <osmand:background>square</osmand:background>
      <osmand:icon>public_bookcase</osmand:icon>
    </extensions>
  </wpt>
  <wpt lat="43.504346" lon="-1.504129">
    <name>Allée de la Maison Forestière</name>
    <desc>dans petit square</desc>
    <type>Delivrez bookcases</type>
    <extensions>
      <osmand:color>#ff5020</osmand:color>
      <osmand:background>square</osmand:background>
      <osmand:icon>public_bookcase</osmand:icon>
    </extensions>
  </wpt>
  <wpt lat="43.492026" lon="-1.503695">
    <name>Rue d'Euskadi</name>
    <desc>dans square</desc>
    <type>Delivrez bookcases</type>
    <extensions>
      <osmand:color>#ff5020</osmand:color>
      <osmand:background>square</osmand:background>
      <osmand:icon>public_bookcase</osmand:icon>
    </extensions>
  </wpt>
  <wpt lat="43.512112" lon="-1.50001">
    <name>Allée des Couralins</name>
    <desc></desc>
    <type>Delivrez bookcases</type>
    <extensions>
      <osmand:color>#ff5020</osmand:color>
      <osmand:background>square</osmand:background>
      <osmand:icon>public_bookcase</osmand:icon>
    </extensions>
  </wpt>
  <wpt lat="44.99396" lon="1.059887">
    <name>boute à livres</name>
    <desc>place de l ehlise St Robert</desc>
    <type>Delivrez bookcases</type>
    <extensions>
      <osmand:color>#ff5020</osmand:color>
      <osmand:background>square</osmand:background>
      <osmand:icon>public_bookcase</osmand:icon>
    </extensions>
  </wpt>
  <wpt lat="44.895228" lon="-0.502079">
    <name>Avenue André Vignau Anglade</name>
    <desc>Devant l'école</desc>
    <type>Delivrez bookcases</type>
    <extensions>
      <osmand:color>#ff5020</osmand:color>
      <osmand:background>square</osmand:background>
      <osmand:icon>public_bookcase</osmand:icon>
    </extensions>
  </wpt>
  <wpt lat="46.001807" lon="-0.013735">
    <name>Rue des Rosilières</name>
    <desc>Juste devant l'entrée de la mairie. Un banc abrité sous un arbre permet de lire au calme</desc>
    <type>Delivrez bookcases</type>
    <extensions>
      <osmand:color>#ff5020</osmand:color>
      <osmand:background>square</osmand:background>
      <osmand:icon>public_bookcase</osmand:icon>
    </extensions>
  </wpt>
  <wpt lat="44.850129" lon="-0.534357">
    <name>Rue Marcel Sembat</name>
    <desc></desc>
    <type>Delivrez bookcases</type>
    <extensions>
      <osmand:color>#ff5020</osmand:color>
      <osmand:background>square</osmand:background>
      <osmand:icon>public_bookcase</osmand:icon>
    </extensions>
  </wpt>
  <wpt lat="44.882716" lon="0.888849">
    <name>Rue du Port</name>
    <desc>dans une petite cabane en pierre dans le parc de parc de la mairie</desc>
    <type>Delivrez bookcases</type>
    <extensions>
      <osmand:color>#ff5020</osmand:color>
      <osmand:background>square</osmand:background>
      <osmand:icon>public_bookcase</osmand:icon>
    </extensions>
  </wpt>
  <wpt lat="44.803525" lon="0.285657">
    <name>boite à livres</name>
    <desc>dans une cabine téléphonique place St Barthélémy</desc>
    <type>Delivrez bookcases</type>
    <extensions>
      <osmand:color>#ff5020</osmand:color>
      <osmand:background>square</osmand:background>
      <osmand:icon>public_bookcase</osmand:icon>
    </extensions>
  </wpt>
  <wpt lat="44.832594" lon="-0.611496">
    <name>Place de l'Église Saint-Augustin</name>
    <desc>En face de l'église</desc>
    <type>Delivrez bookcases</type>
    <extensions>
      <osmand:color>#ff5020</osmand:color>
      <osmand:background>square</osmand:background>
      <osmand:icon>public_bookcase</osmand:icon>
    </extensions>
  </wpt>
  <wpt lat="44.811136" lon="-0.477753">
    <name>Rue de l'Artigotte</name>
    <desc>Au milieu du bosquet d'arbres</desc>
    <type>Delivrez bookcases</type>
    <extensions>
      <osmand:color>#ff5020</osmand:color>
      <osmand:background>square</osmand:background>
      <osmand:icon>public_bookcase</osmand:icon>
    </extensions>
  </wpt>
  <wpt lat="45.164393" lon="0.570418">
    <name>Rue de l'Isle</name>
    <desc></desc>
    <type>Delivrez bookcases</type>
    <extensions>
      <osmand:color>#ff5020</osmand:color>
      <osmand:background>square</osmand:background>
      <osmand:icon>public_bookcase</osmand:icon>
    </extensions>
  </wpt>
  <wpt lat="45.161425" lon="0.567001">
    <name>Route des Ecluses</name>
    <desc></desc>
    <type>Delivrez bookcases</type>
    <extensions>
      <osmand:color>#ff5020</osmand:color>
      <osmand:background>square</osmand:background>
      <osmand:icon>public_bookcase</osmand:icon>
    </extensions>
  </wpt>
  <wpt lat="45.160278" lon="1.547184">
    <name>Avenue Léo Lagrange</name>
    <desc>Devant le skatepark</desc>
    <type>Delivrez bookcases</type>
    <extensions>
      <osmand:color>#ff5020</osmand:color>
      <osmand:background>square</osmand:background>
      <osmand:icon>public_bookcase</osmand:icon>
    </extensions>
  </wpt>
  <wpt lat="45.160619" lon="1.540293">
    <name>Boulevard Voltaire</name>
    <desc>Devant la piscine</desc>
    <type>Delivrez bookcases</type>
    <extensions>
      <osmand:color>#ff5020</osmand:color>
      <osmand:background>square</osmand:background>
      <osmand:icon>public_bookcase</osmand:icon>
    </extensions>
  </wpt>
  <wpt lat="44.760591" lon="-0.56183">
    <name>Chemin de Couhins</name>
    <desc>Dans l'espace vert</desc>
    <type>Delivrez bookcases</type>
    <extensions>
      <osmand:color>#ff5020</osmand:color>
      <osmand:background>square</osmand:background>
      <osmand:icon>public_bookcase</osmand:icon>
    </extensions>
  </wpt>
  <wpt lat="44.77138" lon="-0.540398">
    <name>place marc dulout</name>
    <desc></desc>
    <type>Delivrez bookcases</type>
    <extensions>
      <osmand:color>#ff5020</osmand:color>
      <osmand:background>square</osmand:background>
      <osmand:icon>public_bookcase</osmand:icon>
    </extensions>
  </wpt>
  <wpt lat="46.194298" lon="-1.422965">
    <name>Impasse de la Grange</name>
    <desc>a l'entrée de la bibliothèque, accessible tout le temps</desc>
    <type>Delivrez bookcases</type>
    <extensions>
      <osmand:color>#ff5020</osmand:color>
      <osmand:background>square</osmand:background>
      <osmand:icon>public_bookcase</osmand:icon>
    </extensions>
  </wpt>
  <wpt lat="45.165227" lon="0.600776">
    <name>Rue de Bordeaux</name>
    <desc></desc>
    <type>Delivrez bookcases</type>
    <extensions>
      <osmand:color>#ff5020</osmand:color>
      <osmand:background>square</osmand:background>
      <osmand:icon>public_bookcase</osmand:icon>
    </extensions>
  </wpt>
  <wpt lat="45.164205" lon="0.601432">
    <name>Avenue des Platanes</name>
    <desc>Devant la mairie</desc>
    <type>Delivrez bookcases</type>
    <extensions>
      <osmand:color>#ff5020</osmand:color>
      <osmand:background>square</osmand:background>
      <osmand:icon>public_bookcase</osmand:icon>
    </extensions>
  </wpt>
  <wpt lat="44.857358" lon="0.489662">
    <name>boite à livres</name>
    <desc>dans le hall de la gare</desc>
    <type>Delivrez bookcases</type>
    <extensions>
      <osmand:color>#ff5020</osmand:color>
      <osmand:background>square</osmand:background>
      <osmand:icon>public_bookcase</osmand:icon>
    </extensions>
  </wpt>
  <wpt lat="46.182985" lon="1.84781">
    <name>aire des Monts de Guéret</name>
    <desc></desc>
    <type>Delivrez bookcases</type>
    <extensions>
      <osmand:color>#ff5020</osmand:color>
      <osmand:background>square</osmand:background>
      <osmand:icon>public_bookcase</osmand:icon>
    </extensions>
  </wpt>
  <wpt lat="44.870333" lon="-0.481498">
    <name>Avenue de la Ferme</name>
    <desc></desc>
    <type>Delivrez bookcases</type>
    <extensions>
      <osmand:color>#ff5020</osmand:color>
      <osmand:background>square</osmand:background>
      <osmand:icon>public_bookcase</osmand:icon>
    </extensions>
  </wpt>
  <wpt lat="44.794418" lon="-0.637962">
    <name>avenue bougnard école Jeanne d'Arc</name>
    <desc>au rond point contre l'école</desc>
    <type>Delivrez bookcases</type>
    <extensions>
      <osmand:color>#ff5020</osmand:color>
      <osmand:background>square</osmand:background>
      <osmand:icon>public_bookcase</osmand:icon>
    </extensions>
  </wpt>
  <wpt lat="45.084503" lon="0.585484">
    <name>D4</name>
    <desc>à côté de l'école</desc>
    <type>Delivrez bookcases</type>
    <extensions>
      <osmand:color>#ff5020</osmand:color>
      <osmand:background>square</osmand:background>
      <osmand:icon>public_bookcase</osmand:icon>
    </extensions>
  </wpt>
  <wpt lat="44.935171" lon="0.485357">
    <name>place de la liberté devant l eglise</name>
    <desc></desc>
    <type>Delivrez bookcases</type>
    <extensions>
      <osmand:color>#ff5020</osmand:color>
      <osmand:background>square</osmand:background>
      <osmand:icon>public_bookcase</osmand:icon>
    </extensions>
  </wpt>
  <wpt lat="45.837745" lon="1.492288">
    <name>Place du Champ de Mars</name>
    <desc></desc>
    <type>Delivrez bookcases</type>
    <extensions>
      <osmand:color>#ff5020</osmand:color>
      <osmand:background>square</osmand:background>
      <osmand:icon>public_bookcase</osmand:icon>
    </extensions>
  </wpt>
  <wpt lat="44.660725" lon="-1.170418">
    <name>Place Lucien de Gracia</name>
    <desc>Dans le parc à côté de la mairie</desc>
    <type>Delivrez bookcases</type>
    <extensions>
      <osmand:color>#ff5020</osmand:color>
      <osmand:background>square</osmand:background>
      <osmand:icon>public_bookcase</osmand:icon>
    </extensions>
  </wpt>
  <wpt lat="44.855132" lon="0.594102">
    <name>Rue de la Salmoniculture</name>
    <desc></desc>
    <type>Delivrez bookcases</type>
    <extensions>
      <osmand:color>#ff5020</osmand:color>
      <osmand:background>square</osmand:background>
      <osmand:icon>public_bookcase</osmand:icon>
    </extensions>
  </wpt>
  <wpt lat="45.207236" lon="0.666254">
    <name>Place de l'Abbaye</name>
    <desc></desc>
    <type>Delivrez bookcases</type>
    <extensions>
      <osmand:color>#ff5020</osmand:color>
      <osmand:background>square</osmand:background>
      <osmand:icon>public_bookcase</osmand:icon>
    </extensions>
  </wpt>
  <wpt lat="44.535747" lon="0.144691">
    <name>Rue de l'Ecole</name>
    <desc>Devant la maison médicale</desc>
    <type>Delivrez bookcases</type>
    <extensions>
      <osmand:color>#ff5020</osmand:color>
      <osmand:background>square</osmand:background>
      <osmand:icon>public_bookcase</osmand:icon>
    </extensions>
  </wpt>
  <wpt lat="44.195558" lon="0.616205">
    <name>Rue du Maréchal Juin</name>
    <desc></desc>
    <type>Delivrez bookcases</type>
    <extensions>
      <osmand:color>#ff5020</osmand:color>
      <osmand:background>square</osmand:background>
      <osmand:icon>public_bookcase</osmand:icon>
    </extensions>
  </wpt>
  <wpt lat="44.641459" lon="-1.202024">
    <name>Avenue Notre Dame des Passes</name>
    <desc></desc>
    <type>Delivrez bookcases</type>
    <extensions>
      <osmand:color>#ff5020</osmand:color>
      <osmand:background>square</osmand:background>
      <osmand:icon>public_bookcase</osmand:icon>
    </extensions>
  </wpt>
  <wpt lat="44.778527" lon="-0.124854">
    <name>Rue de L Hôpital</name>
    <desc>devant l'école à côté de la mairie</desc>
    <type>Delivrez bookcases</type>
    <extensions>
      <osmand:color>#ff5020</osmand:color>
      <osmand:background>square</osmand:background>
      <osmand:icon>public_bookcase</osmand:icon>
    </extensions>
  </wpt>
  <wpt lat="45.553109" lon="0.124008">
    <name>Place du Champ de Foire</name>
    <desc></desc>
    <type>Delivrez bookcases</type>
    <extensions>
      <osmand:color>#ff5020</osmand:color>
      <osmand:background>square</osmand:background>
      <osmand:icon>public_bookcase</osmand:icon>
    </extensions>
  </wpt>
  <wpt lat="44.444565" lon="-1.251721">
    <name>Place de la Fontaine</name>
    <desc></desc>
    <type>Delivrez bookcases</type>
    <extensions>
      <osmand:color>#ff5020</osmand:color>
      <osmand:background>square</osmand:background>
      <osmand:icon>public_bookcase</osmand:icon>
    </extensions>
  </wpt>
  <wpt lat="44.819033" lon="-0.473289">
    <name>Route de Tresses</name>
    <desc>Derrière l'arrêt de bus à côté du stade.</desc>
    <type>Delivrez bookcases</type>
    <extensions>
      <osmand:color>#ff5020</osmand:color>
      <osmand:background>square</osmand:background>
      <osmand:icon>public_bookcase</osmand:icon>
    </extensions>
  </wpt>
  <wpt lat="44.842979" lon="0.220919">
    <name>Rue de la République</name>
    <desc>dans un petit parc</desc>
    <type>Delivrez bookcases</type>
    <extensions>
      <osmand:color>#ff5020</osmand:color>
      <osmand:background>square</osmand:background>
      <osmand:icon>public_bookcase</osmand:icon>
    </extensions>
  </wpt>
  <wpt lat="46.248247" lon="2.230343">
    <name>Ventenat Trois Fonds</name>
    <desc>Face à la mairie</desc>
    <type>Delivrez bookcases</type>
    <extensions>
      <osmand:color>#ff5020</osmand:color>
      <osmand:background>square</osmand:background>
      <osmand:icon>public_bookcase</osmand:icon>
    </extensions>
  </wpt>
  <wpt lat="44.194483" lon="0.640231">
    <name>Rue Tapie</name>
    <desc>Au pied de l'immeuble</desc>
    <type>Delivrez bookcases</type>
    <extensions>
      <osmand:color>#ff5020</osmand:color>
      <osmand:background>square</osmand:background>
      <osmand:icon>public_bookcase</osmand:icon>
    </extensions>
  </wpt>
  <wpt lat="43.389184" lon="-1.660685">
    <name>Place du Collège</name>
    <desc>Sur la place du collège, à proximité d'un des bancs, devant le magasin Larralde, une des boîtes à lire municipales vous attend - et elle est souvent remplie !</desc>
    <type>Delivrez bookcases</type>
    <extensions>
      <osmand:color>#ff5020</osmand:color>
      <osmand:background>square</osmand:background>
      <osmand:icon>public_bookcase</osmand:icon>
    </extensions>
  </wpt>
  <wpt lat="44.38853" lon="0.819401">
    <name>Place Gambetta</name>
    <desc>Comment recycler un ancienne cabine téléphonique ? En y déposant des livres de toute sorte  de l'Avare à Marc Lévy. Chacun y trouvera son bonheur... Bonne lecture !</desc>
    <type>Delivrez bookcases</type>
    <extensions>
      <osmand:color>#ff5020</osmand:color>
      <osmand:background>square</osmand:background>
      <osmand:icon>public_bookcase</osmand:icon>
    </extensions>
  </wpt>
  <wpt lat="44.201661" lon="0.612341">
    <name>Centre médical</name>
    <desc>A l'accueil</desc>
    <type>Delivrez bookcases</type>
    <extensions>
      <osmand:color>#ff5020</osmand:color>
      <osmand:background>square</osmand:background>
      <osmand:icon>public_bookcase</osmand:icon>
    </extensions>
  </wpt>
  <wpt lat="44.185875" lon="0.603804">
    <name>Rue Albert Schweitzer</name>
    <desc></desc>
    <type>Delivrez bookcases</type>
    <extensions>
      <osmand:color>#ff5020</osmand:color>
      <osmand:background>square</osmand:background>
      <osmand:icon>public_bookcase</osmand:icon>
    </extensions>
  </wpt>
  <wpt lat="45.421305" lon="2.062832">
    <name>Route de la Plage</name>
    <desc>autour du lac</desc>
    <type>Delivrez bookcases</type>
    <extensions>
      <osmand:color>#ff5020</osmand:color>
      <osmand:background>square</osmand:background>
      <osmand:icon>public_bookcase</osmand:icon>
    </extensions>
  </wpt>
  <wpt lat="43.785534" lon="-1.398313">
    <name>Rue des Écoles</name>
    <desc></desc>
    <type>Delivrez bookcases</type>
    <extensions>
      <osmand:color>#ff5020</osmand:color>
      <osmand:background>square</osmand:background>
      <osmand:icon>public_bookcase</osmand:icon>
    </extensions>
  </wpt>
  <wpt lat="45.851644" lon="0.293893">
    <name>Rue des Mosellans</name>
    <desc></desc>
    <type>Delivrez bookcases</type>
    <extensions>
      <osmand:color>#ff5020</osmand:color>
      <osmand:background>square</osmand:background>
      <osmand:icon>public_bookcase</osmand:icon>
    </extensions>
  </wpt>
  <wpt lat="45.60296" lon="0.248626">
    <name>Route de Torsac</name>
    <desc>Derrière l'épicerie et la boulangerie</desc>
    <type>Delivrez bookcases</type>
    <extensions>
      <osmand:color>#ff5020</osmand:color>
      <osmand:background>square</osmand:background>
      <osmand:icon>public_bookcase</osmand:icon>
    </extensions>
  </wpt>
  <wpt lat="45.666039" lon="0.237208">
    <name>Place du 8 Mai 1945</name>
    <desc></desc>
    <type>Delivrez bookcases</type>
    <extensions>
      <osmand:color>#ff5020</osmand:color>
      <osmand:background>square</osmand:background>
      <osmand:icon>public_bookcase</osmand:icon>
    </extensions>
  </wpt>
  <wpt lat="43.387197" lon="-1.659205">
    <name>Avenue Jaureguiberry</name>
    <desc>petite boîte à livres</desc>
    <type>Delivrez bookcases</type>
    <extensions>
      <osmand:color>#ff5020</osmand:color>
      <osmand:background>square</osmand:background>
      <osmand:icon>public_bookcase</osmand:icon>
    </extensions>
  </wpt>
  <wpt lat="43.439097" lon="-1.589519">
    <name>Place Sauveur Atchoarena</name>
    <desc></desc>
    <type>Delivrez bookcases</type>
    <extensions>
      <osmand:color>#ff5020</osmand:color>
      <osmand:background>square</osmand:background>
      <osmand:icon>public_bookcase</osmand:icon>
    </extensions>
  </wpt>
  <wpt lat="46.76836" lon="0.243064">
    <name>Place de l'École</name>
    <desc>cabine téléphonique</desc>
    <type>Delivrez bookcases</type>
    <extensions>
      <osmand:color>#ff5020</osmand:color>
      <osmand:background>square</osmand:background>
      <osmand:icon>public_bookcase</osmand:icon>
    </extensions>
  </wpt>
  <wpt lat="45.957011" lon="0.078611">
    <name>Boite a livres de Besé</name>
    <desc>Boîte à livres devant la salle des fêtes. Les toilettes sont juste à côté.</desc>
    <type>Delivrez bookcases</type>
    <extensions>
      <osmand:color>#ff5020</osmand:color>
      <osmand:background>square</osmand:background>
      <osmand:icon>public_bookcase</osmand:icon>
    </extensions>
  </wpt>
  <wpt lat="44.852571" lon="0.490071">
    <name>Rue Docteur Gaston Simounet</name>
    <desc>à côté du kiosque</desc>
    <type>Delivrez bookcases</type>
    <extensions>
      <osmand:color>#ff5020</osmand:color>
      <osmand:background>square</osmand:background>
      <osmand:icon>public_bookcase</osmand:icon>
    </extensions>
  </wpt>
  <wpt lat="46.484366" lon="0.185194">
    <name>impasse nationale</name>
    <desc>mignon parking ecole</desc>
    <type>Delivrez bookcases</type>
    <extensions>
      <osmand:color>#ff5020</osmand:color>
      <osmand:background>square</osmand:background>
      <osmand:icon>public_bookcase</osmand:icon>
    </extensions>
  </wpt>
  <wpt lat="44.879101" lon="-0.566344">
    <name>Galerie marchande Auchan Lac</name>
    <desc>Entrée "Porte des graves"</desc>
    <type>Delivrez bookcases</type>
    <extensions>
      <osmand:color>#ff5020</osmand:color>
      <osmand:background>square</osmand:background>
      <osmand:icon>public_bookcase</osmand:icon>
    </extensions>
  </wpt>
  <wpt lat="44.879593" lon="-0.571804">
    <name>Place Jean Cayrol</name>
    <desc>Près du petit pont du canal</desc>
    <type>Delivrez bookcases</type>
    <extensions>
      <osmand:color>#ff5020</osmand:color>
      <osmand:background>square</osmand:background>
      <osmand:icon>public_bookcase</osmand:icon>
    </extensions>
  </wpt>
  <wpt lat="44.844266" lon="-0.573774">
    <name>Boîte à livres</name>
    <desc>Devant le bâtiment TBM entre les arrêts de tram</desc>
    <type>Delivrez bookcases</type>
    <extensions>
      <osmand:color>#ff5020</osmand:color>
      <osmand:background>square</osmand:background>
      <osmand:icon>public_bookcase</osmand:icon>
    </extensions>
  </wpt>
  <wpt lat="46.011434" lon="-1.177356">
    <name>ile d'aix</name>
    <desc></desc>
    <type>Delivrez bookcases</type>
    <extensions>
      <osmand:color>#ff5020</osmand:color>
      <osmand:background>square</osmand:background>
      <osmand:icon>public_bookcase</osmand:icon>
    </extensions>
  </wpt>
  <wpt lat="46.669197" lon="0.405485">
    <name>Rue du Clos de l Ormeau</name>
    <desc>près du salon de coiffure atelier H et L</desc>
    <type>Delivrez bookcases</type>
    <extensions>
      <osmand:color>#ff5020</osmand:color>
      <osmand:background>square</osmand:background>
      <osmand:icon>public_bookcase</osmand:icon>
    </extensions>
  </wpt>
  <wpt lat="43.358651" lon="-0.792322">
    <name>boite a livres</name>
    <desc></desc>
    <type>Delivrez bookcases</type>
    <extensions>
      <osmand:color>#ff5020</osmand:color>
      <osmand:background>square</osmand:background>
      <osmand:icon>public_bookcase</osmand:icon>
    </extensions>
  </wpt>
  <wpt lat="45.347325" lon="0.366768">
    <name>la petite bibliothèque sauvage</name>
    <desc>préau de la bibliothèque</desc>
    <type>Delivrez bookcases</type>
    <extensions>
      <osmand:color>#ff5020</osmand:color>
      <osmand:background>square</osmand:background>
      <osmand:icon>public_bookcase</osmand:icon>
    </extensions>
  </wpt>
  <wpt lat="45.248449" lon="0.338341">
    <name>Place Joseph Debonnière</name>
    <desc>ancienne cabine téléphonique jaune !</desc>
    <type>Delivrez bookcases</type>
    <extensions>
      <osmand:color>#ff5020</osmand:color>
      <osmand:background>square</osmand:background>
      <osmand:icon>public_bookcase</osmand:icon>
    </extensions>
  </wpt>
  <wpt lat="43.392089" lon="-0.943101">
    <name>Chemin de Bideren</name>
    <desc>Petite mais bien remplie boîte à livres !  J'y trouve toujours mon bonheur.</desc>
    <type>Delivrez bookcases</type>
    <extensions>
      <osmand:color>#ff5020</osmand:color>
      <osmand:background>square</osmand:background>
      <osmand:icon>public_bookcase</osmand:icon>
    </extensions>
  </wpt>
  <wpt lat="43.327484" lon="-1.032805">
    <name>Place de L Hôtel de ville</name>
    <desc>charmante petite boîte a livres</desc>
    <type>Delivrez bookcases</type>
    <extensions>
      <osmand:color>#ff5020</osmand:color>
      <osmand:background>square</osmand:background>
      <osmand:icon>public_bookcase</osmand:icon>
    </extensions>
  </wpt>
  <wpt lat="45.258905" lon="1.75656">
    <name>Boîte à livre Tulle Gare</name>
    <desc>Devant l'entrée de la gare</desc>
    <type>Delivrez bookcases</type>
    <extensions>
      <osmand:color>#ff5020</osmand:color>
      <osmand:background>square</osmand:background>
      <osmand:icon>public_bookcase</osmand:icon>
    </extensions>
  </wpt>
  <wpt lat="45.266488" lon="1.770738">
    <name>Passerelle de Nacre</name>
    <desc>En bord de rivière</desc>
    <type>Delivrez bookcases</type>
    <extensions>
      <osmand:color>#ff5020</osmand:color>
      <osmand:background>square</osmand:background>
      <osmand:icon>public_bookcase</osmand:icon>
    </extensions>
  </wpt>
  <wpt lat="43.452603" lon="-1.020522">
    <name>Rue de Devant</name>
    <desc>petite boîte a livres</desc>
    <type>Delivrez bookcases</type>
    <extensions>
      <osmand:color>#ff5020</osmand:color>
      <osmand:background>square</osmand:background>
      <osmand:icon>public_bookcase</osmand:icon>
    </extensions>
  </wpt>
  <wpt lat="45.626897" lon="0.345807">
    <name>La Petitie</name>
    <desc>Dans l'arrêt de bus à côté de la benne à verre</desc>
    <type>Delivrez bookcases</type>
    <extensions>
      <osmand:color>#ff5020</osmand:color>
      <osmand:background>square</osmand:background>
      <osmand:icon>public_bookcase</osmand:icon>
    </extensions>
  </wpt>
  <wpt lat="44.532433" lon="0.767811">
    <name>Place des Arcades</name>
    <desc>devant la savonnerie</desc>
    <type>Delivrez bookcases</type>
    <extensions>
      <osmand:color>#ff5020</osmand:color>
      <osmand:background>square</osmand:background>
      <osmand:icon>public_bookcase</osmand:icon>
    </extensions>
  </wpt>
  <wpt lat="46.74631" lon="-0.476826">
    <name>Route de Bressuire</name>
    <desc>place de l'église</desc>
    <type>Delivrez bookcases</type>
    <extensions>
      <osmand:color>#ff5020</osmand:color>
      <osmand:background>square</osmand:background>
      <osmand:icon>public_bookcase</osmand:icon>
    </extensions>
  </wpt>
  <wpt lat="43.380891" lon="-0.931759">
    <name>Route des Pyrenees</name>
    <desc>Charmante boîte a livres</desc>
    <type>Delivrez bookcases</type>
    <extensions>
      <osmand:color>#ff5020</osmand:color>
      <osmand:background>square</osmand:background>
      <osmand:icon>public_bookcase</osmand:icon>
    </extensions>
  </wpt>
  <wpt lat="43.343734" lon="-0.879574">
    <name>Rue du Saison</name>
    <desc>cabine a livres 📚</desc>
    <type>Delivrez bookcases</type>
    <extensions>
      <osmand:color>#ff5020</osmand:color>
      <osmand:background>square</osmand:background>
      <osmand:icon>public_bookcase</osmand:icon>
    </extensions>
  </wpt>
  <wpt lat="44.883037" lon="-0.524573">
    <name>Rue Jacques Thibaud</name>
    <desc>Sur la place devant l'église</desc>
    <type>Delivrez bookcases</type>
    <extensions>
      <osmand:color>#ff5020</osmand:color>
      <osmand:background>square</osmand:background>
      <osmand:icon>public_bookcase</osmand:icon>
    </extensions>
  </wpt>
  <wpt lat="46.152688" lon="-1.093831">
    <name>Rue du Château</name>
    <desc></desc>
    <type>Delivrez bookcases</type>
    <extensions>
      <osmand:color>#ff5020</osmand:color>
      <osmand:background>square</osmand:background>
      <osmand:icon>public_bookcase</osmand:icon>
    </extensions>
  </wpt>
  <wpt lat="46.149938" lon="-1.070437">
    <name>Rue de la Rochelle</name>
    <desc>en face de l'école</desc>
    <type>Delivrez bookcases</type>
    <extensions>
      <osmand:color>#ff5020</osmand:color>
      <osmand:background>square</osmand:background>
      <osmand:icon>public_bookcase</osmand:icon>
    </extensions>
  </wpt>
  <wpt lat="43.335509" lon="-1.548727">
    <name>boite à livre</name>
    <desc></desc>
    <type>Delivrez bookcases</type>
    <extensions>
      <osmand:color>#ff5020</osmand:color>
      <osmand:background>square</osmand:background>
      <osmand:icon>public_bookcase</osmand:icon>
    </extensions>
  </wpt>
  <wpt lat="43.356276" lon="-1.567621">
    <name>Chemin Xoxotartea</name>
    <desc>dans le parc à enfants</desc>
    <type>Delivrez bookcases</type>
    <extensions>
      <osmand:color>#ff5020</osmand:color>
      <osmand:background>square</osmand:background>
      <osmand:icon>public_bookcase</osmand:icon>
    </extensions>
  </wpt>
  <wpt lat="43.370407" lon="-1.780371">
    <name>Au centre du rond-point</name>
    <desc></desc>
    <type>Delivrez bookcases</type>
    <extensions>
      <osmand:color>#ff5020</osmand:color>
      <osmand:background>square</osmand:background>
      <osmand:icon>public_bookcase</osmand:icon>
    </extensions>
  </wpt>
  <wpt lat="43.349487" lon="-0.886465">
    <name>Chemin du Vieux Pont</name>
    <desc>Cabine a livres de Gestas</desc>
    <type>Delivrez bookcases</type>
    <extensions>
      <osmand:color>#ff5020</osmand:color>
      <osmand:background>square</osmand:background>
      <osmand:icon>public_bookcase</osmand:icon>
    </extensions>
  </wpt>
  <wpt lat="45.0268" lon="0.717149">
    <name>Place de la Halle</name>
    <desc>la boîte est sous la halle</desc>
    <type>Delivrez bookcases</type>
    <extensions>
      <osmand:color>#ff5020</osmand:color>
      <osmand:background>square</osmand:background>
      <osmand:icon>public_bookcase</osmand:icon>
    </extensions>
  </wpt>
  <wpt lat="44.896929" lon="0.59639">
    <name>Lotissement Val Boria</name>
    <desc>petite maisonnette aux volets rouges en bord de route</desc>
    <type>Delivrez bookcases</type>
    <extensions>
      <osmand:color>#ff5020</osmand:color>
      <osmand:background>square</osmand:background>
      <osmand:icon>public_bookcase</osmand:icon>
    </extensions>
  </wpt>
  <wpt lat="45.212136" lon="-0.175294">
    <name>D730</name>
    <desc></desc>
    <type>Delivrez bookcases</type>
    <extensions>
      <osmand:color>#ff5020</osmand:color>
      <osmand:background>square</osmand:background>
      <osmand:icon>public_bookcase</osmand:icon>
    </extensions>
  </wpt>
  <wpt lat="45.613407" lon="0.011686">
    <name>Place des Sports</name>
    <desc>A côté de l'école primaire. Uniquement des livres pour enfants.</desc>
    <type>Delivrez bookcases</type>
    <extensions>
      <osmand:color>#ff5020</osmand:color>
      <osmand:background>square</osmand:background>
      <osmand:icon>public_bookcase</osmand:icon>
    </extensions>
  </wpt>
  <wpt lat="46.462968" lon="0.230446">
    <name>Place de l'Église</name>
    <desc>devant l'accueil de la mairie</desc>
    <type>Delivrez bookcases</type>
    <extensions>
      <osmand:color>#ff5020</osmand:color>
      <osmand:background>square</osmand:background>
      <osmand:icon>public_bookcase</osmand:icon>
    </extensions>
  </wpt>
  <wpt lat="46.258032" lon="0.799523">
    <name>Rue des Tilleuls</name>
    <desc></desc>
    <type>Delivrez bookcases</type>
    <extensions>
      <osmand:color>#ff5020</osmand:color>
      <osmand:background>square</osmand:background>
      <osmand:icon>public_bookcase</osmand:icon>
    </extensions>
  </wpt>
  <wpt lat="43.715877" lon="-0.698322">
    <name>Saint Aubin</name>
    <desc></desc>
    <type>Delivrez bookcases</type>
    <extensions>
      <osmand:color>#ff5020</osmand:color>
      <osmand:background>square</osmand:background>
      <osmand:icon>public_bookcase</osmand:icon>
    </extensions>
  </wpt>
  <wpt lat="46.721371" lon="-0.589638">
    <name>Avenue du Maréchal Juin</name>
    <desc>derrière la mairie</desc>
    <type>Delivrez bookcases</type>
    <extensions>
      <osmand:color>#ff5020</osmand:color>
      <osmand:background>square</osmand:background>
      <osmand:icon>public_bookcase</osmand:icon>
    </extensions>
  </wpt>
  <wpt lat="44.829789" lon="0.703769">
    <name>Avenue de Cahors</name>
    <desc>Face à la Poste</desc>
    <type>Delivrez bookcases</type>
    <extensions>
      <osmand:color>#ff5020</osmand:color>
      <osmand:background>square</osmand:background>
      <osmand:icon>public_bookcase</osmand:icon>
    </extensions>
  </wpt>
  <wpt lat="44.810091" lon="-0.641149">
    <name>Avenue Pierre Brossolette</name>
    <desc>Devant la maison municipale de Noès</desc>
    <type>Delivrez bookcases</type>
    <extensions>
      <osmand:color>#ff5020</osmand:color>
      <osmand:background>square</osmand:background>
      <osmand:icon>public_bookcase</osmand:icon>
    </extensions>
  </wpt>
  <wpt lat="43.354074" lon="-0.617784">
    <name>rond point de l'église</name>
    <desc>dans un abribus</desc>
    <type>Delivrez bookcases</type>
    <extensions>
      <osmand:color>#ff5020</osmand:color>
      <osmand:background>square</osmand:background>
      <osmand:icon>public_bookcase</osmand:icon>
    </extensions>
  </wpt>
  <wpt lat="44.728614" lon="0.605271">
    <name>Place du Foirail</name>
    <desc>_</desc>
    <type>Delivrez bookcases</type>
    <extensions>
      <osmand:color>#ff5020</osmand:color>
      <osmand:background>square</osmand:background>
      <osmand:icon>public_bookcase</osmand:icon>
    </extensions>
  </wpt>
  <wpt lat="43.11335" lon="-0.762354">
    <name>Rue des Pyrénées</name>
    <desc>Dans une ancienne cabine téléphonique devant l'école de Lanne</desc>
    <type>Delivrez bookcases</type>
    <extensions>
      <osmand:color>#ff5020</osmand:color>
      <osmand:background>square</osmand:background>
      <osmand:icon>public_bookcase</osmand:icon>
    </extensions>
  </wpt>
  <wpt lat="45.83315" lon="-0.309466">
    <name>place de la mairie</name>
    <desc>boite à livres sur le mur de la mairie</desc>
    <type>Delivrez bookcases</type>
    <extensions>
      <osmand:color>#ff5020</osmand:color>
      <osmand:background>square</osmand:background>
      <osmand:icon>public_bookcase</osmand:icon>
    </extensions>
  </wpt>
  <wpt lat="44.845787" lon="-0.613971">
    <name>Rue Pasteur</name>
    <desc>Dans le petit parc</desc>
    <type>Delivrez bookcases</type>
    <extensions>
      <osmand:color>#ff5020</osmand:color>
      <osmand:background>square</osmand:background>
      <osmand:icon>public_bookcase</osmand:icon>
    </extensions>
  </wpt>
  <wpt lat="45.491963" lon="2.127689">
    <name>Avenue de la Gare</name>
    <desc>près du groupe monument aux morts</desc>
    <type>Delivrez bookcases</type>
    <extensions>
      <osmand:color>#ff5020</osmand:color>
      <osmand:background>square</osmand:background>
      <osmand:icon>public_bookcase</osmand:icon>
    </extensions>
  </wpt>
  <wpt lat="45.470548" lon="2.140885">
    <name>Avenue de la Mairie</name>
    <desc>près de la boîte aux lettres</desc>
    <type>Delivrez bookcases</type>
    <extensions>
      <osmand:color>#ff5020</osmand:color>
      <osmand:background>square</osmand:background>
      <osmand:icon>public_bookcase</osmand:icon>
    </extensions>
  </wpt>
  <wpt lat="44.210284" lon="0.63188">
    <name>Rue Pierre-Paul de Riquet</name>
    <desc></desc>
    <type>Delivrez bookcases</type>
    <extensions>
      <osmand:color>#ff5020</osmand:color>
      <osmand:background>square</osmand:background>
      <osmand:icon>public_bookcase</osmand:icon>
    </extensions>
  </wpt>
  <wpt lat="45.445445" lon="-0.432165">
    <name>Place du Château</name>
    <desc></desc>
    <type>Delivrez bookcases</type>
    <extensions>
      <osmand:color>#ff5020</osmand:color>
      <osmand:background>square</osmand:background>
      <osmand:icon>public_bookcase</osmand:icon>
    </extensions>
  </wpt>
  <wpt lat="44.48463" lon="0.879706">
    <name>Place de la Liberté</name>
    <desc></desc>
    <type>Delivrez bookcases</type>
    <extensions>
      <osmand:color>#ff5020</osmand:color>
      <osmand:background>square</osmand:background>
      <osmand:icon>public_bookcase</osmand:icon>
    </extensions>
  </wpt>
  <wpt lat="45.534681" lon="2.15123">
    <name>Avenue du Gaud</name>
    <desc></desc>
    <type>Delivrez bookcases</type>
    <extensions>
      <osmand:color>#ff5020</osmand:color>
      <osmand:background>square</osmand:background>
      <osmand:icon>public_bookcase</osmand:icon>
    </extensions>
  </wpt>
  <wpt lat="45.418597" lon="2.206192">
    <name>Place de la Mairie</name>
    <desc></desc>
    <type>Delivrez bookcases</type>
    <extensions>
      <osmand:color>#ff5020</osmand:color>
      <osmand:background>square</osmand:background>
      <osmand:icon>public_bookcase</osmand:icon>
    </extensions>
  </wpt>
  <wpt lat="46.57765" lon="0.333135">
    <name>Rue du Doyenné</name>
    <desc></desc>
    <type>Delivrez bookcases</type>
    <extensions>
      <osmand:color>#ff5020</osmand:color>
      <osmand:background>square</osmand:background>
      <osmand:icon>public_bookcase</osmand:icon>
    </extensions>
  </wpt>
  <wpt lat="43.371362" lon="-1.784051">
    <name>Boulevard de la Mer</name>
    <desc>dans la galerie</desc>
    <type>Delivrez bookcases</type>
    <extensions>
      <osmand:color>#ff5020</osmand:color>
      <osmand:background>square</osmand:background>
      <osmand:icon>public_bookcase</osmand:icon>
    </extensions>
  </wpt>
  <wpt lat="44.422339" lon="0.708988">
    <name>route de Beaulieu</name>
    <desc>Boîte à livres sur le parking de la salle des fêtes/ de l'école. La boite à livres est au niveau du portail de l'école.</desc>
    <type>Delivrez bookcases</type>
    <extensions>
      <osmand:color>#ff5020</osmand:color>
      <osmand:background>square</osmand:background>
      <osmand:icon>public_bookcase</osmand:icon>
    </extensions>
  </wpt>
  <wpt lat="46.013878" lon="0.08001">
    <name>champ de foire</name>
    <desc>boite a livré dans deux casiers en acier</desc>
    <type>Delivrez bookcases</type>
    <extensions>
      <osmand:color>#ff5020</osmand:color>
      <osmand:background>square</osmand:background>
      <osmand:icon>public_bookcase</osmand:icon>
    </extensions>
  </wpt>
  <wpt lat="46.549826" lon="0.342286">
    <name>Place du 8 Mai 1945</name>
    <desc></desc>
    <type>Delivrez bookcases</type>
    <extensions>
      <osmand:color>#ff5020</osmand:color>
      <osmand:background>square</osmand:background>
      <osmand:icon>public_bookcase</osmand:icon>
    </extensions>
  </wpt>
  <wpt lat="44.59059" lon="1.013208">
    <name>Rue du Vieux Bourg</name>
    <desc></desc>
    <type>Delivrez bookcases</type>
    <extensions>
      <osmand:color>#ff5020</osmand:color>
      <osmand:background>square</osmand:background>
      <osmand:icon>public_bookcase</osmand:icon>
    </extensions>
  </wpt>
  <wpt lat="46.376195" lon="-0.239447">
    <name>Route de l'Echalier Fontenelles</name>
    <desc>_</desc>
    <type>Delivrez bookcases</type>
    <extensions>
      <osmand:color>#ff5020</osmand:color>
      <osmand:background>square</osmand:background>
      <osmand:icon>public_bookcase</osmand:icon>
    </extensions>
  </wpt>
  <wpt lat="46.379123" lon="-0.230989">
    <name>Route de Ricou Charchenay</name>
    <desc>_</desc>
    <type>Delivrez bookcases</type>
    <extensions>
      <osmand:color>#ff5020</osmand:color>
      <osmand:background>square</osmand:background>
      <osmand:icon>public_bookcase</osmand:icon>
    </extensions>
  </wpt>
  <wpt lat="46.370081" lon="-0.263042">
    <name>Rue de la Mairie</name>
    <desc>à l'entrée de la garderie</desc>
    <type>Delivrez bookcases</type>
    <extensions>
      <osmand:color>#ff5020</osmand:color>
      <osmand:background>square</osmand:background>
      <osmand:icon>public_bookcase</osmand:icon>
    </extensions>
  </wpt>
  <wpt lat="46.387806" lon="-0.187561">
    <name>en haut de la laiterie</name>
    <desc>_</desc>
    <type>Delivrez bookcases</type>
    <extensions>
      <osmand:color>#ff5020</osmand:color>
      <osmand:background>square</osmand:background>
      <osmand:icon>public_bookcase</osmand:icon>
    </extensions>
  </wpt>
  <wpt lat="46.609146" lon="-0.235438">
    <name>Place de la Mairie</name>
    <desc>Près de la mairie</desc>
    <type>Delivrez bookcases</type>
    <extensions>
      <osmand:color>#ff5020</osmand:color>
      <osmand:background>square</osmand:background>
      <osmand:icon>public_bookcase</osmand:icon>
    </extensions>
  </wpt>
  <wpt lat="45.648111" lon="0.166416">
    <name>Rue des Boissières</name>
    <desc>Place de La Bussatte</desc>
    <type>Delivrez bookcases</type>
    <extensions>
      <osmand:color>#ff5020</osmand:color>
      <osmand:background>square</osmand:background>
      <osmand:icon>public_bookcase</osmand:icon>
    </extensions>
  </wpt>
  <wpt lat="44.807113" lon="-0.548813">
    <name>Place du 14 Juillet</name>
    <desc></desc>
    <type>Delivrez bookcases</type>
    <extensions>
      <osmand:color>#ff5020</osmand:color>
      <osmand:background>square</osmand:background>
      <osmand:icon>public_bookcase</osmand:icon>
    </extensions>
  </wpt>
  <wpt lat="44.472178" lon="0.937398">
    <name>Rue du Château</name>
    <desc>2 boîtes à livres côte à côte</desc>
    <type>Delivrez bookcases</type>
    <extensions>
      <osmand:color>#ff5020</osmand:color>
      <osmand:background>square</osmand:background>
      <osmand:icon>public_bookcase</osmand:icon>
    </extensions>
  </wpt>
  <wpt lat="45.568742" lon="0.119499">
    <name>Rue du Petit Poineau</name>
    <desc></desc>
    <type>Delivrez bookcases</type>
    <extensions>
      <osmand:color>#ff5020</osmand:color>
      <osmand:background>square</osmand:background>
      <osmand:icon>public_bookcase</osmand:icon>
    </extensions>
  </wpt>
  <wpt lat="45.625507" lon="0.050445">
    <name>mairie</name>
    <desc>sous les arches</desc>
    <type>Delivrez bookcases</type>
    <extensions>
      <osmand:color>#ff5020</osmand:color>
      <osmand:background>square</osmand:background>
      <osmand:icon>public_bookcase</osmand:icon>
    </extensions>
  </wpt>
  <wpt lat="46.413608" lon="-0.203717">
    <name>Rue du Palais</name>
    <desc>Cabine téléphonique anglaise</desc>
    <type>Delivrez bookcases</type>
    <extensions>
      <osmand:color>#ff5020</osmand:color>
      <osmand:background>square</osmand:background>
      <osmand:icon>public_bookcase</osmand:icon>
    </extensions>
  </wpt>
  <wpt lat="45.64072" lon="0.299223">
    <name>Abri bus</name>
    <desc>Dans l'abri bus</desc>
    <type>Delivrez bookcases</type>
    <extensions>
      <osmand:color>#ff5020</osmand:color>
      <osmand:background>square</osmand:background>
      <osmand:icon>public_bookcase</osmand:icon>
    </extensions>
  </wpt>
  <wpt lat="44.860989" lon="-0.525803">
    <name>Rue Aristide Briand</name>
    <desc>Dans le parc Palmer au niveau de l'aire de jeux</desc>
    <type>Delivrez bookcases</type>
    <extensions>
      <osmand:color>#ff5020</osmand:color>
      <osmand:background>square</osmand:background>
      <osmand:icon>public_bookcase</osmand:icon>
    </extensions>
  </wpt>
  <wpt lat="45.894114" lon="0.027891">
    <name>Le Bourg</name>
    <desc>petit abri</desc>
    <type>Delivrez bookcases</type>
    <extensions>
      <osmand:color>#ff5020</osmand:color>
      <osmand:background>square</osmand:background>
      <osmand:icon>public_bookcase</osmand:icon>
    </extensions>
  </wpt>
  <wpt lat="45.894245" lon="0.010175">
    <name>Rue des Halles</name>
    <desc>A droite de la mairie</desc>
    <type>Delivrez bookcases</type>
    <extensions>
      <osmand:color>#ff5020</osmand:color>
      <osmand:background>square</osmand:background>
      <osmand:icon>public_bookcase</osmand:icon>
    </extensions>
  </wpt>
  <wpt lat="44.694307" lon="0.750987">
    <name>Mairie rue de l'école</name>
    <desc></desc>
    <type>Delivrez bookcases</type>
    <extensions>
      <osmand:color>#ff5020</osmand:color>
      <osmand:background>square</osmand:background>
      <osmand:icon>public_bookcase</osmand:icon>
    </extensions>
  </wpt>
  <wpt lat="44.774656" lon="0.815791">
    <name>Rue de l'Abbatiale</name>
    <desc></desc>
    <type>Delivrez bookcases</type>
    <extensions>
      <osmand:color>#ff5020</osmand:color>
      <osmand:background>square</osmand:background>
      <osmand:icon>public_bookcase</osmand:icon>
    </extensions>
  </wpt>
  <wpt lat="43.114343" lon="-0.318271">
    <name>Chemin de la Fontaine</name>
    <desc></desc>
    <type>Delivrez bookcases</type>
    <extensions>
      <osmand:color>#ff5020</osmand:color>
      <osmand:background>square</osmand:background>
      <osmand:icon>public_bookcase</osmand:icon>
    </extensions>
  </wpt>
  <wpt lat="44.549095" lon="0.535772">
    <name>Rue de l'Ancienne Poste</name>
    <desc></desc>
    <type>Delivrez bookcases</type>
    <extensions>
      <osmand:color>#ff5020</osmand:color>
      <osmand:background>square</osmand:background>
      <osmand:icon>public_bookcase</osmand:icon>
    </extensions>
  </wpt>
  <wpt lat="43.37592" lon="-0.288938">
    <name>Route d'Anos</name>
    <desc></desc>
    <type>Delivrez bookcases</type>
    <extensions>
      <osmand:color>#ff5020</osmand:color>
      <osmand:background>square</osmand:background>
      <osmand:icon>public_bookcase</osmand:icon>
    </extensions>
  </wpt>
  <wpt lat="44.826843" lon="0.405765">
    <name>Route de la Pezé</name>
    <desc></desc>
    <type>Delivrez bookcases</type>
    <extensions>
      <osmand:color>#ff5020</osmand:color>
      <osmand:background>square</osmand:background>
      <osmand:icon>public_bookcase</osmand:icon>
    </extensions>
  </wpt>
  <wpt lat="44.231879" lon="0.681388">
    <name>Cabine téléphonique anglaise</name>
    <desc></desc>
    <type>Delivrez bookcases</type>
    <extensions>
      <osmand:color>#ff5020</osmand:color>
      <osmand:background>square</osmand:background>
      <osmand:icon>public_bookcase</osmand:icon>
    </extensions>
  </wpt>
  <wpt lat="44.54276" lon="0.844545">
    <name>Le Bourg</name>
    <desc></desc>
    <type>Delivrez bookcases</type>
    <extensions>
      <osmand:color>#ff5020</osmand:color>
      <osmand:background>square</osmand:background>
      <osmand:icon>public_bookcase</osmand:icon>
    </extensions>
  </wpt>
  <wpt lat="45.308087" lon="-0.938874">
    <name>Rue de Grammont</name>
    <desc>En face du cinéma Jean Dujardin</desc>
    <type>Delivrez bookcases</type>
    <extensions>
      <osmand:color>#ff5020</osmand:color>
      <osmand:background>square</osmand:background>
      <osmand:icon>public_bookcase</osmand:icon>
    </extensions>
  </wpt>
  <wpt lat="45.656047" lon="0.138417">
    <name>Rue Guy Pascaud</name>
    <desc>parc de Frégeneuil</desc>
    <type>Delivrez bookcases</type>
    <extensions>
      <osmand:color>#ff5020</osmand:color>
      <osmand:background>square</osmand:background>
      <osmand:icon>public_bookcase</osmand:icon>
    </extensions>
  </wpt>
  <wpt lat="45.648382" lon="0.162393">
    <name>Rue René Goscinny</name>
    <desc></desc>
    <type>Delivrez bookcases</type>
    <extensions>
      <osmand:color>#ff5020</osmand:color>
      <osmand:background>square</osmand:background>
      <osmand:icon>public_bookcase</osmand:icon>
    </extensions>
  </wpt>