<?xml version='1.0' encoding='UTF-8' standalone='yes' ?>
<gpx version="1.1" creator="Binnette" xmlns="http://www.topografix.com/GPX/1/1" xmlns:osmand="https://osmand.net" xmlns:xsi="http://www.w3.org/2001/XMLSchema-instance" xsi:schemaLocation="http://www.topografix.com/GPX/1/1 http://www.topografix.com/GPX/1/1/gpx.xsd">
  <wpt lat="43.605331" lon="3.883899">
    <name>Place François Jaumes 34000 Montpellier</name>
    <desc>Sur la place St Jaumes, devant la façade en tompe-l oeil. Très jolie boite comme un arbre.</desc>
    <type>Delivrez bookcases</type>
    <extensions>
      <osmand:color>#ff5020</osmand:color>
      <osmand:background>square</osmand:background>
      <osmand:icon>public_bookcase</osmand:icon>
    </extensions>
  </wpt>
  <wpt lat="42.902344" lon="3.046822">
    <name>Leucate plage, front de mer</name>
    <desc></desc>
    <type>Delivrez bookcases</type>
    <extensions>
      <osmand:color>#ff5020</osmand:color>
      <osmand:background>square</osmand:background>
      <osmand:icon>public_bookcase</osmand:icon>
    </extensions>
  </wpt>
  <wpt lat="42.856931" lon="3.037267">
    <name>Rue du Veyret Port Leucate</name>
    <desc>accueil de la mairie annexe, espace henry de Monfreid</desc>
    <type>Delivrez bookcases</type>
    <extensions>
      <osmand:color>#ff5020</osmand:color>
      <osmand:background>square</osmand:background>
      <osmand:icon>public_bookcase</osmand:icon>
    </extensions>
  </wpt>
  <wpt lat="42.905241" lon="3.056046">
    <name>Boulevard du Front de Mer</name>
    <desc></desc>
    <type>Delivrez bookcases</type>
    <extensions>
      <osmand:color>#ff5020</osmand:color>
      <osmand:background>square</osmand:background>
      <osmand:icon>public_bookcase</osmand:icon>
    </extensions>
  </wpt>
  <wpt lat="43.230079" lon="0.082532">
    <name>Rue du Foulon</name>
    <desc>uniquement le Mercredi</desc>
    <type>Delivrez bookcases</type>
    <extensions>
      <osmand:color>#ff5020</osmand:color>
      <osmand:background>square</osmand:background>
      <osmand:icon>public_bookcase</osmand:icon>
    </extensions>
  </wpt>
  <wpt lat="43.229263" lon="0.080821">
    <name>7 rue du Foulon - 65000 - Tarbes</name>
    <desc>Mercredi seulement</desc>
    <type>Delivrez bookcases</type>
    <extensions>
      <osmand:color>#ff5020</osmand:color>
      <osmand:background>square</osmand:background>
      <osmand:icon>public_bookcase</osmand:icon>
    </extensions>
  </wpt>
  <wpt lat="43.083613" lon="1.376016">
    <name>arrêt autobus</name>
    <desc>beaucoup de livre</desc>
    <type>Delivrez bookcases</type>
    <extensions>
      <osmand:color>#ff5020</osmand:color>
      <osmand:background>square</osmand:background>
      <osmand:icon>public_bookcase</osmand:icon>
    </extensions>
  </wpt>
  <wpt lat="44.873949" lon="1.482306">
    <name>Place de l'Église</name>
    <desc>ancienne cabine téléphonique</desc>
    <type>Delivrez bookcases</type>
    <extensions>
      <osmand:color>#ff5020</osmand:color>
      <osmand:background>square</osmand:background>
      <osmand:icon>public_bookcase</osmand:icon>
    </extensions>
  </wpt>
  <wpt lat="43.258251" lon="0.05112">
    <name>Place Jean Jaurès</name>
    <desc></desc>
    <type>Delivrez bookcases</type>
    <extensions>
      <osmand:color>#ff5020</osmand:color>
      <osmand:background>square</osmand:background>
      <osmand:icon>public_bookcase</osmand:icon>
    </extensions>
  </wpt>
  <wpt lat="44.386113" lon="1.540253">
    <name>Place des Festivités</name>
    <desc></desc>
    <type>Delivrez bookcases</type>
    <extensions>
      <osmand:color>#ff5020</osmand:color>
      <osmand:background>square</osmand:background>
      <osmand:icon>public_bookcase</osmand:icon>
    </extensions>
  </wpt>
  <wpt lat="44.40892" lon="1.548617">
    <name>Aujols</name>
    <desc></desc>
    <type>Delivrez bookcases</type>
    <extensions>
      <osmand:color>#ff5020</osmand:color>
      <osmand:background>square</osmand:background>
      <osmand:icon>public_bookcase</osmand:icon>
    </extensions>
  </wpt>
  <wpt lat="43.654066" lon="3.552686">
    <name>Boulevard Pasteur</name>
    <desc></desc>
    <type>Delivrez bookcases</type>
    <extensions>
      <osmand:color>#ff5020</osmand:color>
      <osmand:background>square</osmand:background>
      <osmand:icon>public_bookcase</osmand:icon>
    </extensions>
  </wpt>
  <wpt lat="43.62687" lon="3.661532">
    <name>D619</name>
    <desc></desc>
    <type>Delivrez bookcases</type>
    <extensions>
      <osmand:color>#ff5020</osmand:color>
      <osmand:background>square</osmand:background>
      <osmand:icon>public_bookcase</osmand:icon>
    </extensions>
  </wpt>
  <wpt lat="44.795114" lon="1.472962">
    <name>boite à livres</name>
    <desc>parking</desc>
    <type>Delivrez bookcases</type>
    <extensions>
      <osmand:color>#ff5020</osmand:color>
      <osmand:background>square</osmand:background>
      <osmand:icon>public_bookcase</osmand:icon>
    </extensions>
  </wpt>
  <wpt lat="44.003074" lon="1.690419">
    <name>Rue de l'Ancien Relais de Poste</name>
    <desc>mairie</desc>
    <type>Delivrez bookcases</type>
    <extensions>
      <osmand:color>#ff5020</osmand:color>
      <osmand:background>square</osmand:background>
      <osmand:icon>public_bookcase</osmand:icon>
    </extensions>
  </wpt>
  <wpt lat="43.649882" lon="3.698158">
    <name>Avenue d'Argelliers</name>
    <desc></desc>
    <type>Delivrez bookcases</type>
    <extensions>
      <osmand:color>#ff5020</osmand:color>
      <osmand:background>square</osmand:background>
      <osmand:icon>public_bookcase</osmand:icon>
    </extensions>
  </wpt>
  <wpt lat="43.340887" lon="1.835384">
    <name>Esplanade du Canal</name>
    <desc>sur le canal du midi</desc>
    <type>Delivrez bookcases</type>
    <extensions>
      <osmand:color>#ff5020</osmand:color>
      <osmand:background>square</osmand:background>
      <osmand:icon>public_bookcase</osmand:icon>
    </extensions>
  </wpt>
  <wpt lat="43.714776" lon="3.617413">
    <name>Impasse de la Viguerie</name>
    <desc></desc>
    <type>Delivrez bookcases</type>
    <extensions>
      <osmand:color>#ff5020</osmand:color>
      <osmand:background>square</osmand:background>
      <osmand:icon>public_bookcase</osmand:icon>
    </extensions>
  </wpt>
  <wpt lat="43.620101" lon="3.535452">
    <name>Avenue de Laurelle</name>
    <desc></desc>
    <type>Delivrez bookcases</type>
    <extensions>
      <osmand:color>#ff5020</osmand:color>
      <osmand:background>square</osmand:background>
      <osmand:icon>public_bookcase</osmand:icon>
    </extensions>
  </wpt>
  <wpt lat="43.619103" lon="3.535025">
    <name>Place de l'Ormeau</name>
    <desc></desc>
    <type>Delivrez bookcases</type>
    <extensions>
      <osmand:color>#ff5020</osmand:color>
      <osmand:background>square</osmand:background>
      <osmand:icon>public_bookcase</osmand:icon>
    </extensions>
  </wpt>
  <wpt lat="44.28584" lon="1.519513">
    <name>Avenue Léon Boussuge</name>
    <desc>mairie</desc>
    <type>Delivrez bookcases</type>
    <extensions>
      <osmand:color>#ff5020</osmand:color>
      <osmand:background>square</osmand:background>
      <osmand:icon>public_bookcase</osmand:icon>
    </extensions>
  </wpt>
  <wpt lat="44.580911" lon="1.559177">
    <name>Route du Vers</name>
    <desc>centre du village</desc>
    <type>Delivrez bookcases</type>
    <extensions>
      <osmand:color>#ff5020</osmand:color>
      <osmand:background>square</osmand:background>
      <osmand:icon>public_bookcase</osmand:icon>
    </extensions>
  </wpt>
  <wpt lat="44.927595" lon="1.845752">
    <name>boite à livres</name>
    <desc>à côté de la poste</desc>
    <type>Delivrez bookcases</type>
    <extensions>
      <osmand:color>#ff5020</osmand:color>
      <osmand:background>square</osmand:background>
      <osmand:icon>public_bookcase</osmand:icon>
    </extensions>
  </wpt>
  <wpt lat="43.646652" lon="3.802525">
    <name>Rue Saint-Charles</name>
    <desc></desc>
    <type>Delivrez bookcases</type>
    <extensions>
      <osmand:color>#ff5020</osmand:color>
      <osmand:background>square</osmand:background>
      <osmand:icon>public_bookcase</osmand:icon>
    </extensions>
  </wpt>
  <wpt lat="43.238333" lon="0.076015">
    <name>Jardin Massey 2</name>
    <desc></desc>
    <type>Delivrez bookcases</type>
    <extensions>
      <osmand:color>#ff5020</osmand:color>
      <osmand:background>square</osmand:background>
      <osmand:icon>public_bookcase</osmand:icon>
    </extensions>
  </wpt>
  <wpt lat="43.237489" lon="0.075543">
    <name>Jardin Massey</name>
    <desc></desc>
    <type>Delivrez bookcases</type>
    <extensions>
      <osmand:color>#ff5020</osmand:color>
      <osmand:background>square</osmand:background>
      <osmand:icon>public_bookcase</osmand:icon>
    </extensions>
  </wpt>
  <wpt lat="43.521503" lon="3.323789">
    <name>Villeneuvette</name>
    <desc></desc>
    <type>Delivrez bookcases</type>
    <extensions>
      <osmand:color>#ff5020</osmand:color>
      <osmand:background>square</osmand:background>
      <osmand:icon>public_bookcase</osmand:icon>
    </extensions>
  </wpt>
  <wpt lat="43.615242" lon="3.15584">
    <name>Place Pasteur</name>
    <desc></desc>
    <type>Delivrez bookcases</type>
    <extensions>
      <osmand:color>#ff5020</osmand:color>
      <osmand:background>square</osmand:background>
      <osmand:icon>public_bookcase</osmand:icon>
    </extensions>
  </wpt>
  <wpt lat="43.607881" lon="3.153498">
    <name>Boulevard Jean Moulin</name>
    <desc>entrée du parc Pierre Rabhi</desc>
    <type>Delivrez bookcases</type>
    <extensions>
      <osmand:color>#ff5020</osmand:color>
      <osmand:background>square</osmand:background>
      <osmand:icon>public_bookcase</osmand:icon>
    </extensions>
  </wpt>
  <wpt lat="43.014069" lon="3.064138">
    <name>Place Paul Valéry</name>
    <desc></desc>
    <type>Delivrez bookcases</type>
    <extensions>
      <osmand:color>#ff5020</osmand:color>
      <osmand:background>square</osmand:background>
      <osmand:icon>public_bookcase</osmand:icon>
    </extensions>
  </wpt>
  <wpt lat="42.616394" lon="3.035169">
    <name>Quai Arthur Rimbaud</name>
    <desc></desc>
    <type>Delivrez bookcases</type>
    <extensions>
      <osmand:color>#ff5020</osmand:color>
      <osmand:background>square</osmand:background>
      <osmand:icon>public_bookcase</osmand:icon>
    </extensions>
  </wpt>
  <wpt lat="43.523892" lon="3.33055">
    <name>Chemin d'Alignan</name>
    <desc></desc>
    <type>Delivrez bookcases</type>
    <extensions>
      <osmand:color>#ff5020</osmand:color>
      <osmand:background>square</osmand:background>
      <osmand:icon>public_bookcase</osmand:icon>
    </extensions>
  </wpt>
  <wpt lat="43.709636" lon="4.005545">
    <name>Route de Montpellier</name>
    <desc></desc>
    <type>Delivrez bookcases</type>
    <extensions>
      <osmand:color>#ff5020</osmand:color>
      <osmand:background>square</osmand:background>
      <osmand:icon>public_bookcase</osmand:icon>
    </extensions>
  </wpt>
  <wpt lat="43.618479" lon="3.356823">
    <name>Le Village moureze</name>
    <desc></desc>
    <type>Delivrez bookcases</type>
    <extensions>
      <osmand:color>#ff5020</osmand:color>
      <osmand:background>square</osmand:background>
      <osmand:icon>public_bookcase</osmand:icon>
    </extensions>
  </wpt>
  <wpt lat="43.459262" lon="3.420599">
    <name>Place Bobby Lapointe</name>
    <desc></desc>
    <type>Delivrez bookcases</type>
    <extensions>
      <osmand:color>#ff5020</osmand:color>
      <osmand:background>square</osmand:background>
      <osmand:icon>public_bookcase</osmand:icon>
    </extensions>
  </wpt>
  <wpt lat="43.460554" lon="3.423833">
    <name>Rue Chevaliers Saint-Jean</name>
    <desc></desc>
    <type>Delivrez bookcases</type>
    <extensions>
      <osmand:color>#ff5020</osmand:color>
      <osmand:background>square</osmand:background>
      <osmand:icon>public_bookcase</osmand:icon>
    </extensions>
  </wpt>
  <wpt lat="44.574299" lon="2.080711">
    <name>Avenue Albert Thomas</name>
    <desc></desc>
    <type>Delivrez bookcases</type>
    <extensions>
      <osmand:color>#ff5020</osmand:color>
      <osmand:background>square</osmand:background>
      <osmand:icon>public_bookcase</osmand:icon>
    </extensions>
  </wpt>
  <wpt lat="43.150687" lon="-0.091788">
    <name>Rue du Bourg</name>
    <desc>A côté de la mairie, sous un préau.</desc>
    <type>Delivrez bookcases</type>
    <extensions>
      <osmand:color>#ff5020</osmand:color>
      <osmand:background>square</osmand:background>
      <osmand:icon>public_bookcase</osmand:icon>
    </extensions>
  </wpt>
  <wpt lat="43.197199" lon="0.058816">
    <name>Rue des Pyrénées</name>
    <desc>parking école primaire, salle polyvalente avec salon de jardin et potager</desc>
    <type>Delivrez bookcases</type>
    <extensions>
      <osmand:color>#ff5020</osmand:color>
      <osmand:background>square</osmand:background>
      <osmand:icon>public_bookcase</osmand:icon>
    </extensions>
  </wpt>
  <wpt lat="43.56106" lon="2.46098">
    <name>Route D’Anglès</name>
    <desc>Ancienne cabine téléphonique recyclée</desc>
    <type>Delivrez bookcases</type>
    <extensions>
      <osmand:color>#ff5020</osmand:color>
      <osmand:background>square</osmand:background>
      <osmand:icon>public_bookcase</osmand:icon>
    </extensions>
  </wpt>
  <wpt lat="43.588411" lon="1.420848">
    <name>Rue Louis Vestrepain</name>
    <desc></desc>
    <type>Delivrez bookcases</type>
    <extensions>
      <osmand:color>#ff5020</osmand:color>
      <osmand:background>square</osmand:background>
      <osmand:icon>public_bookcase</osmand:icon>
    </extensions>
  </wpt>
  <wpt lat="44.023889" lon="3.298327">
    <name>Vival nant</name>
    <desc></desc>
    <type>Delivrez bookcases</type>
    <extensions>
      <osmand:color>#ff5020</osmand:color>
      <osmand:background>square</osmand:background>
      <osmand:icon>public_bookcase</osmand:icon>
    </extensions>
  </wpt>
  <wpt lat="44.055618" lon="3.24326">
    <name>marché paysan montredon</name>
    <desc></desc>
    <type>Delivrez bookcases</type>
    <extensions>
      <osmand:color>#ff5020</osmand:color>
      <osmand:background>square</osmand:background>
      <osmand:icon>public_bookcase</osmand:icon>
    </extensions>
  </wpt>
  <wpt lat="44.096865" lon="3.08099">
    <name>boite a livre</name>
    <desc></desc>
    <type>Delivrez bookcases</type>
    <extensions>
      <osmand:color>#ff5020</osmand:color>
      <osmand:background>square</osmand:background>
      <osmand:icon>public_bookcase</osmand:icon>
    </extensions>
  </wpt>
  <wpt lat="43.190133" lon="1.032456">
    <name>Rue de la Mairie</name>
    <desc></desc>
    <type>Delivrez bookcases</type>
    <extensions>
      <osmand:color>#ff5020</osmand:color>
      <osmand:background>square</osmand:background>
      <osmand:icon>public_bookcase</osmand:icon>
    </extensions>
  </wpt>
  <wpt lat="43.370156" lon="1.418093">
    <name>Andrew Carnegie Birthplace Museum</name>
    <desc>dans la cour près du portillon</desc>
    <type>Delivrez bookcases</type>
    <extensions>
      <osmand:color>#ff5020</osmand:color>
      <osmand:background>square</osmand:background>
      <osmand:icon>public_bookcase</osmand:icon>
    </extensions>
  </wpt>
  <wpt lat="43.564542" lon="2.56069">
    <name>Place de la Mairie</name>
    <desc>ancien frigo à côté des WC publics</desc>
    <type>Delivrez bookcases</type>
    <extensions>
      <osmand:color>#ff5020</osmand:color>
      <osmand:background>square</osmand:background>
      <osmand:icon>public_bookcase</osmand:icon>
    </extensions>
  </wpt>
  <wpt lat="44.024478" lon="1.342003">
    <name>Rue du 1er Bataillon de Choc</name>
    <desc>petit frigo jaune avec une poire au coin de la supérette</desc>
    <type>Delivrez bookcases</type>
    <extensions>
      <osmand:color>#ff5020</osmand:color>
      <osmand:background>square</osmand:background>
      <osmand:icon>public_bookcase</osmand:icon>
    </extensions>
  </wpt>
  <wpt lat="43.761162" lon="4.08129">
    <name>Avenue Frédéric Mistral</name>
    <desc></desc>
    <type>Delivrez bookcases</type>
    <extensions>
      <osmand:color>#ff5020</osmand:color>
      <osmand:background>square</osmand:background>
      <osmand:icon>public_bookcase</osmand:icon>
    </extensions>
  </wpt>
  <wpt lat="44.470113" lon="2.72069">
    <name>Allée Paul Causse</name>
    <desc>grande  boite</desc>
    <type>Delivrez bookcases</type>
    <extensions>
      <osmand:color>#ff5020</osmand:color>
      <osmand:background>square</osmand:background>
      <osmand:icon>public_bookcase</osmand:icon>
    </extensions>
  </wpt>
  <wpt lat="42.964253" lon="1.607361">
    <name>Cours Gabriel Fauré</name>
    <desc></desc>
    <type>Delivrez bookcases</type>
    <extensions>
      <osmand:color>#ff5020</osmand:color>
      <osmand:background>square</osmand:background>
      <osmand:icon>public_bookcase</osmand:icon>
    </extensions>
  </wpt>
  <wpt lat="43.017148" lon="0.801582">
    <name>Labarthe sur lèze</name>
    <desc>Dans le parcours de santé</desc>
    <type>Delivrez bookcases</type>
    <extensions>
      <osmand:color>#ff5020</osmand:color>
      <osmand:background>square</osmand:background>
      <osmand:icon>public_bookcase</osmand:icon>
    </extensions>
  </wpt>
  <wpt lat="43.601606" lon="1.434431">
    <name>Pont Saint-Pierre</name>
    <desc>Au milieu du Pont Saint-Pierre</desc>
    <type>Delivrez bookcases</type>
    <extensions>
      <osmand:color>#ff5020</osmand:color>
      <osmand:background>square</osmand:background>
      <osmand:icon>public_bookcase</osmand:icon>
    </extensions>
  </wpt>
  <wpt lat="43.27511" lon="3.485944">
    <name>boîte à livres ?</name>
    <desc>à l'entrée de la plage</desc>
    <type>Delivrez bookcases</type>
    <extensions>
      <osmand:color>#ff5020</osmand:color>
      <osmand:background>square</osmand:background>
      <osmand:icon>public_bookcase</osmand:icon>
    </extensions>
  </wpt>
  <wpt lat="43.581342" lon="1.489004">
    <name>Rue Sicard Alaman</name>
    <desc></desc>
    <type>Delivrez bookcases</type>
    <extensions>
      <osmand:color>#ff5020</osmand:color>
      <osmand:background>square</osmand:background>
      <osmand:icon>public_bookcase</osmand:icon>
    </extensions>
  </wpt>
  <wpt lat="43.553553" lon="1.543494">
    <name>Rue du Docteur Arrazat</name>
    <desc>boiteca livre au niveau du parc</desc>
    <type>Delivrez bookcases</type>
    <extensions>
      <osmand:color>#ff5020</osmand:color>
      <osmand:background>square</osmand:background>
      <osmand:icon>public_bookcase</osmand:icon>
    </extensions>
  </wpt>
  <wpt lat="43.982175" lon="3.136646">
    <name>boite a livres</name>
    <desc></desc>
    <type>Delivrez bookcases</type>
    <extensions>
      <osmand:color>#ff5020</osmand:color>
      <osmand:background>square</osmand:background>
      <osmand:icon>public_bookcase</osmand:icon>
    </extensions>
  </wpt>
  <wpt lat="43.315152" lon="3.551964">
    <name>Avenue de la Méditerranée</name>
    <desc></desc>
    <type>Delivrez bookcases</type>
    <extensions>
      <osmand:color>#ff5020</osmand:color>
      <osmand:background>square</osmand:background>
      <osmand:icon>public_bookcase</osmand:icon>
    </extensions>
  </wpt>
  <wpt lat="44.104101" lon="1.085641">
    <name>Rue Malaveille</name>
    <desc></desc>
    <type>Delivrez bookcases</type>
    <extensions>
      <osmand:color>#ff5020</osmand:color>
      <osmand:background>square</osmand:background>
      <osmand:icon>public_bookcase</osmand:icon>
    </extensions>
  </wpt>
  <wpt lat="44.186069" lon="1.078364">
    <name>Place du 19 Mars 1962</name>
    <desc>ancienne cabine téléphonique</desc>
    <type>Delivrez bookcases</type>
    <extensions>
      <osmand:color>#ff5020</osmand:color>
      <osmand:background>square</osmand:background>
      <osmand:icon>public_bookcase</osmand:icon>
    </extensions>
  </wpt>
  <wpt lat="43.99276" lon="0.230003">
    <name>Rue du Carrelot</name>
    <desc></desc>
    <type>Delivrez bookcases</type>
    <extensions>
      <osmand:color>#ff5020</osmand:color>
      <osmand:background>square</osmand:background>
      <osmand:icon>public_bookcase</osmand:icon>
    </extensions>
  </wpt>
  <wpt lat="43.646957" lon="0.584098">
    <name>Rue Porte Neuve</name>
    <desc></desc>
    <type>Delivrez bookcases</type>
    <extensions>
      <osmand:color>#ff5020</osmand:color>
      <osmand:background>square</osmand:background>
      <osmand:icon>public_bookcase</osmand:icon>
    </extensions>
  </wpt>
  <wpt lat="43.645056" lon="0.584715">
    <name>Rue de Florence</name>
    <desc></desc>
    <type>Delivrez bookcases</type>
    <extensions>
      <osmand:color>#ff5020</osmand:color>
      <osmand:background>square</osmand:background>
      <osmand:icon>public_bookcase</osmand:icon>
    </extensions>
  </wpt>
  <wpt lat="42.906293" lon="0.357346">
    <name>Rue Bon Rencontre</name>
    <desc>sous le kiosque</desc>
    <type>Delivrez bookcases</type>
    <extensions>
      <osmand:color>#ff5020</osmand:color>
      <osmand:background>square</osmand:background>
      <osmand:icon>public_bookcase</osmand:icon>
    </extensions>
  </wpt>
  <wpt lat="42.874753" lon="-0.003502">
    <name>Avenue du Barège</name>
    <desc></desc>
    <type>Delivrez bookcases</type>
    <extensions>
      <osmand:color>#ff5020</osmand:color>
      <osmand:background>square</osmand:background>
      <osmand:icon>public_bookcase</osmand:icon>
    </extensions>
  </wpt>
  <wpt lat="43.643773" lon="4.040264">
    <name>Rue Fanfonne Guillerme</name>
    <desc></desc>
    <type>Delivrez bookcases</type>
    <extensions>
      <osmand:color>#ff5020</osmand:color>
      <osmand:background>square</osmand:background>
      <osmand:icon>public_bookcase</osmand:icon>
    </extensions>
  </wpt>
  <wpt lat="43.581696" lon="1.475312">
    <name>Avenue Antoine de Saint-Exupéry</name>
    <desc></desc>
    <type>Delivrez bookcases</type>
    <extensions>
      <osmand:color>#ff5020</osmand:color>
      <osmand:background>square</osmand:background>
      <osmand:icon>public_bookcase</osmand:icon>
    </extensions>
  </wpt>
  <wpt lat="43.498249" lon="1.311438">
    <name>Place de la Libération</name>
    <desc>boite a livre au niveau de la pharmacie dans le parc</desc>
    <type>Delivrez bookcases</type>
    <extensions>
      <osmand:color>#ff5020</osmand:color>
      <osmand:background>square</osmand:background>
      <osmand:icon>public_bookcase</osmand:icon>
    </extensions>
  </wpt>
  <wpt lat="43.911489" lon="1.593322">
    <name>Grand Rue</name>
    <desc>vieille armoire réaménagée sur le peron de la Médiathèque</desc>
    <type>Delivrez bookcases</type>
    <extensions>
      <osmand:color>#ff5020</osmand:color>
      <osmand:background>square</osmand:background>
      <osmand:icon>public_bookcase</osmand:icon>
    </extensions>
  </wpt>
  <wpt lat="43.884144" lon="1.545276">
    <name>Route de Labejau</name>
    <desc>Cabine téléphonique transformée en boîte à livre côté mairie</desc>
    <type>Delivrez bookcases</type>
    <extensions>
      <osmand:color>#ff5020</osmand:color>
      <osmand:background>square</osmand:background>
      <osmand:icon>public_bookcase</osmand:icon>
    </extensions>
  </wpt>
  <wpt lat="44.062013" lon="3.973242">
    <name>cote Biocoop</name>
    <desc></desc>
    <type>Delivrez bookcases</type>
    <extensions>
      <osmand:color>#ff5020</osmand:color>
      <osmand:background>square</osmand:background>
      <osmand:icon>public_bookcase</osmand:icon>
    </extensions>
  </wpt>
  <wpt lat="44.022489" lon="3.997225">
    <name>la mairie</name>
    <desc></desc>
    <type>Delivrez bookcases</type>
    <extensions>
      <osmand:color>#ff5020</osmand:color>
      <osmand:background>square</osmand:background>
      <osmand:icon>public_bookcase</osmand:icon>
    </extensions>
  </wpt>
  <wpt lat="43.958556" lon="3.857995">
    <name>Place du 4 Septembre</name>
    <desc></desc>
    <type>Delivrez bookcases</type>
    <extensions>
      <osmand:color>#ff5020</osmand:color>
      <osmand:background>square</osmand:background>
      <osmand:icon>public_bookcase</osmand:icon>
    </extensions>
  </wpt>
  <wpt lat="43.675429" lon="3.982353">
    <name>Avenue de Montpellier</name>
    <desc></desc>
    <type>Delivrez bookcases</type>
    <extensions>
      <osmand:color>#ff5020</osmand:color>
      <osmand:background>square</osmand:background>
      <osmand:icon>public_bookcase</osmand:icon>
    </extensions>
  </wpt>
  <wpt lat="44.853453" lon="1.820229">
    <name>Rue Saint Roch</name>
    <desc>sur la place de l'école pas étanche peu de livres</desc>
    <type>Delivrez bookcases</type>
    <extensions>
      <osmand:color>#ff5020</osmand:color>
      <osmand:background>square</osmand:background>
      <osmand:icon>public_bookcase</osmand:icon>
    </extensions>
  </wpt>
  <wpt lat="44.87163" lon="1.80482">
    <name>Place du Foirail</name>
    <desc>sur le mur droit du kiosque</desc>
    <type>Delivrez bookcases</type>
    <extensions>
      <osmand:color>#ff5020</osmand:color>
      <osmand:background>square</osmand:background>
      <osmand:icon>public_bookcase</osmand:icon>
    </extensions>
  </wpt>
  <wpt lat="44.935167" lon="1.607213">
    <name>Avenue de Nassogne</name>
    <desc>dans la cabine téléphonique du parking</desc>
    <type>Delivrez bookcases</type>
    <extensions>
      <osmand:color>#ff5020</osmand:color>
      <osmand:background>square</osmand:background>
      <osmand:icon>public_bookcase</osmand:icon>
    </extensions>
  </wpt>
  <wpt lat="44.937837" lon="1.608248">
    <name>Avenue de Turenne</name>
    <desc>devant la médiathèque</desc>
    <type>Delivrez bookcases</type>
    <extensions>
      <osmand:color>#ff5020</osmand:color>
      <osmand:background>square</osmand:background>
      <osmand:icon>public_bookcase</osmand:icon>
    </extensions>
  </wpt>
  <wpt lat="43.580854" lon="1.449123">
    <name>Avenue de l'U.R.S.S.</name>
    <desc></desc>
    <type>Delivrez bookcases</type>
    <extensions>
      <osmand:color>#ff5020</osmand:color>
      <osmand:background>square</osmand:background>
      <osmand:icon>public_bookcase</osmand:icon>
    </extensions>
  </wpt>
  <wpt lat="44.214468" lon="0.972721">
    <name>Village</name>
    <desc>devant la mairie</desc>
    <type>Delivrez bookcases</type>
    <extensions>
      <osmand:color>#ff5020</osmand:color>
      <osmand:background>square</osmand:background>
      <osmand:icon>public_bookcase</osmand:icon>
    </extensions>
  </wpt>
  <wpt lat="44.163172" lon="0.946651">
    <name>Chemin de la Fontaine</name>
    <desc>2 superbes clapiers de livres et revues ...le cadre est idyllique</desc>
    <type>Delivrez bookcases</type>
    <extensions>
      <osmand:color>#ff5020</osmand:color>
      <osmand:background>square</osmand:background>
      <osmand:icon>public_bookcase</osmand:icon>
    </extensions>
  </wpt>
  <wpt lat="44.143911" lon="0.968224">
    <name>D74 tres belle boite orange</name>
    <desc>devant la salle des fêtes</desc>
    <type>Delivrez bookcases</type>
    <extensions>
      <osmand:color>#ff5020</osmand:color>
      <osmand:background>square</osmand:background>
      <osmand:icon>public_bookcase</osmand:icon>
    </extensions>
  </wpt>
  <wpt lat="43.770327" lon="1.29424">
    <name>Rue Gambetta</name>
    <desc>boite jaune au niveau du parc</desc>
    <type>Delivrez bookcases</type>
    <extensions>
      <osmand:color>#ff5020</osmand:color>
      <osmand:background>square</osmand:background>
      <osmand:icon>public_bookcase</osmand:icon>
    </extensions>
  </wpt>
  <wpt lat="43.653363" lon="1.438473">
    <name>Rue de l'Abbé Gabriel Latour</name>
    <desc>boîte orange en lisière du parc, non loin des toilettes publiques</desc>
    <type>Delivrez bookcases</type>
    <extensions>
      <osmand:color>#ff5020</osmand:color>
      <osmand:background>square</osmand:background>
      <osmand:icon>public_bookcase</osmand:icon>
    </extensions>
  </wpt>
  <wpt lat="43.610682" lon="1.432142">
    <name>Place de L’Europe</name>
    <desc>placée au portail d entree du parc</desc>
    <type>Delivrez bookcases</type>
    <extensions>
      <osmand:color>#ff5020</osmand:color>
      <osmand:background>square</osmand:background>
      <osmand:icon>public_bookcase</osmand:icon>
    </extensions>
  </wpt>
  <wpt lat="43.952659" lon="1.231322">
    <name>Route de Montbartier</name>
    <desc>Jolie boîte en Bois sur le square à l'angle de la rue de la gendarmerie et de la Boulangerie Massa toute neuve 2020</desc>
    <type>Delivrez bookcases</type>
    <extensions>
      <osmand:color>#ff5020</osmand:color>
      <osmand:background>square</osmand:background>
      <osmand:icon>public_bookcase</osmand:icon>
    </extensions>
  </wpt>
  <wpt lat="44.018098" lon="1.075223">
    <name>Route de la Palissade</name>
    <desc></desc>
    <type>Delivrez bookcases</type>
    <extensions>
      <osmand:color>#ff5020</osmand:color>
      <osmand:background>square</osmand:background>
      <osmand:icon>public_bookcase</osmand:icon>
    </extensions>
  </wpt>
  <wpt lat="44.029309" lon="1.042306">
    <name>Route de Castelsarrasin</name>
    <desc>Boîte du Rotary peu de mouvements</desc>
    <type>Delivrez bookcases</type>
    <extensions>
      <osmand:color>#ff5020</osmand:color>
      <osmand:background>square</osmand:background>
      <osmand:icon>public_bookcase</osmand:icon>
    </extensions>
  </wpt>
  <wpt lat="43.921962" lon="2.149028">
    <name>Boulevard Paul Bodin</name>
    <desc></desc>
    <type>Delivrez bookcases</type>
    <extensions>
      <osmand:color>#ff5020</osmand:color>
      <osmand:background>square</osmand:background>
      <osmand:icon>public_bookcase</osmand:icon>
    </extensions>
  </wpt>
  <wpt lat="43.934988" lon="2.146158">
    <name>Rue porta</name>
    <desc></desc>
    <type>Delivrez bookcases</type>
    <extensions>
      <osmand:color>#ff5020</osmand:color>
      <osmand:background>square</osmand:background>
      <osmand:icon>public_bookcase</osmand:icon>
    </extensions>
  </wpt>
  <wpt lat="44.062888" lon="1.957012">
    <name>Avenue de la Grésigne</name>
    <desc></desc>
    <type>Delivrez bookcases</type>
    <extensions>
      <osmand:color>#ff5020</osmand:color>
      <osmand:background>square</osmand:background>
      <osmand:icon>public_bookcase</osmand:icon>
    </extensions>
  </wpt>
  <wpt lat="42.893007" lon="1.265875">
    <name>Le Village</name>
    <desc>cabine téléphonique</desc>
    <type>Delivrez bookcases</type>
    <extensions>
      <osmand:color>#ff5020</osmand:color>
      <osmand:background>square</osmand:background>
      <osmand:icon>public_bookcase</osmand:icon>
    </extensions>
  </wpt>
  <wpt lat="43.781255" lon="1.405384">
    <name>Rue Jean Jaurès</name>
    <desc>petite boîte placée au parc face à la mairie</desc>
    <type>Delivrez bookcases</type>
    <extensions>
      <osmand:color>#ff5020</osmand:color>
      <osmand:background>square</osmand:background>
      <osmand:icon>public_bookcase</osmand:icon>
    </extensions>
  </wpt>
  <wpt lat="43.113629" lon="1.611634">
    <name>Parc Municipal</name>
    <desc>derrière la médiathèque</desc>
    <type>Delivrez bookcases</type>
    <extensions>
      <osmand:color>#ff5020</osmand:color>
      <osmand:background>square</osmand:background>
      <osmand:icon>public_bookcase</osmand:icon>
    </extensions>
  </wpt>
  <wpt lat="43.559131" lon="3.526406">
    <name>Rue de la Calade</name>
    <desc></desc>
    <type>Delivrez bookcases</type>
    <extensions>
      <osmand:color>#ff5020</osmand:color>
      <osmand:background>square</osmand:background>
      <osmand:icon>public_bookcase</osmand:icon>
    </extensions>
  </wpt>
  <wpt lat="43.601943" lon="3.491477">
    <name>parking de la Poste</name>
    <desc></desc>
    <type>Delivrez bookcases</type>
    <extensions>
      <osmand:color>#ff5020</osmand:color>
      <osmand:background>square</osmand:background>
      <osmand:icon>public_bookcase</osmand:icon>
    </extensions>
  </wpt>
  <wpt lat="43.419973" lon="3.602119">
    <name>boîte à livres Mèze plage école de voile/tennis</name>
    <desc></desc>
    <type>Delivrez bookcases</type>
    <extensions>
      <osmand:color>#ff5020</osmand:color>
      <osmand:background>square</osmand:background>
      <osmand:icon>public_bookcase</osmand:icon>
    </extensions>
  </wpt>
  <wpt lat="43.427046" lon="3.607344">
    <name>boîte à livres Mèze château girard</name>
    <desc></desc>
    <type>Delivrez bookcases</type>
    <extensions>
      <osmand:color>#ff5020</osmand:color>
      <osmand:background>square</osmand:background>
      <osmand:icon>public_bookcase</osmand:icon>
    </extensions>
  </wpt>
  <wpt lat="43.22803" lon="2.285743">
    <name>Rue des Jardins</name>
    <desc></desc>
    <type>Delivrez bookcases</type>
    <extensions>
      <osmand:color>#ff5020</osmand:color>
      <osmand:background>square</osmand:background>
      <osmand:icon>public_bookcase</osmand:icon>
    </extensions>
  </wpt>
  <wpt lat="42.98615" lon="1.143181">
    <name>Avenue François Camel</name>
    <desc>Face à Optic2000</desc>
    <type>Delivrez bookcases</type>
    <extensions>
      <osmand:color>#ff5020</osmand:color>
      <osmand:background>square</osmand:background>
      <osmand:icon>public_bookcase</osmand:icon>
    </extensions>
  </wpt>
  <wpt lat="42.882844" lon="1.215339">
    <name>Hameau de Roquemaurel</name>
    <desc>Vival</desc>
    <type>Delivrez bookcases</type>
    <extensions>
      <osmand:color>#ff5020</osmand:color>
      <osmand:background>square</osmand:background>
      <osmand:icon>public_bookcase</osmand:icon>
    </extensions>
  </wpt>
  <wpt lat="43.631558" lon="3.856029">
    <name>Rue Adrien Proby</name>
    <desc></desc>
    <type>Delivrez bookcases</type>
    <extensions>
      <osmand:color>#ff5020</osmand:color>
      <osmand:background>square</osmand:background>
      <osmand:icon>public_bookcase</osmand:icon>
    </extensions>
  </wpt>
  <wpt lat="43.605983" lon="1.438356">
    <name>Rue Valade</name>
    <desc>boite acollée au nr 40 face à l'université</desc>
    <type>Delivrez bookcases</type>
    <extensions>
      <osmand:color>#ff5020</osmand:color>
      <osmand:background>square</osmand:background>
      <osmand:icon>public_bookcase</osmand:icon>
    </extensions>
  </wpt>
  <wpt lat="43.641142" lon="4.297859">
    <name>Route des Étangs</name>
    <desc></desc>
    <type>Delivrez bookcases</type>
    <extensions>
      <osmand:color>#ff5020</osmand:color>
      <osmand:background>square</osmand:background>
      <osmand:icon>public_bookcase</osmand:icon>
    </extensions>
  </wpt>
  <wpt lat="44.893197" lon="1.477822">
    <name>Avenue de Sarlat</name>
    <desc></desc>
    <type>Delivrez bookcases</type>
    <extensions>
      <osmand:color>#ff5020</osmand:color>
      <osmand:background>square</osmand:background>
      <osmand:icon>public_bookcase</osmand:icon>
    </extensions>
  </wpt>
  <wpt lat="43.607655" lon="1.428132">
    <name>boite a livre</name>
    <desc>en bordure du square</desc>
    <type>Delivrez bookcases</type>
    <extensions>
      <osmand:color>#ff5020</osmand:color>
      <osmand:background>square</osmand:background>
      <osmand:icon>public_bookcase</osmand:icon>
    </extensions>
  </wpt>
  <wpt lat="44.350509" lon="2.037229">
    <name>Rue de la République</name>
    <desc></desc>
    <type>Delivrez bookcases</type>
    <extensions>
      <osmand:color>#ff5020</osmand:color>
      <osmand:background>square</osmand:background>
      <osmand:icon>public_bookcase</osmand:icon>
    </extensions>
  </wpt>
  <wpt lat="44.436739" lon="2.031948">
    <name>Place Jeanne D’Arc</name>
    <desc></desc>
    <type>Delivrez bookcases</type>
    <extensions>
      <osmand:color>#ff5020</osmand:color>
      <osmand:background>square</osmand:background>
      <osmand:icon>public_bookcase</osmand:icon>
    </extensions>
  </wpt>
  <wpt lat="44.888982" lon="1.476336">
    <name>Rue des Ondines</name>
    <desc></desc>
    <type>Delivrez bookcases</type>
    <extensions>
      <osmand:color>#ff5020</osmand:color>
      <osmand:background>square</osmand:background>
      <osmand:icon>public_bookcase</osmand:icon>
    </extensions>
  </wpt>
  <wpt lat="43.3703" lon="1.105131">
    <name>Place du 11 Novembre</name>
    <desc>sous le porche de la salle des fêtes. en forme de frigo décoré</desc>
    <type>Delivrez bookcases</type>
    <extensions>
      <osmand:color>#ff5020</osmand:color>
      <osmand:background>square</osmand:background>
      <osmand:icon>public_bookcase</osmand:icon>
    </extensions>
  </wpt>
  <wpt lat="44.044639" lon="4.442444">
    <name>Grand Rue</name>
    <desc>Dans une fenêtre</desc>
    <type>Delivrez bookcases</type>
    <extensions>
      <osmand:color>#ff5020</osmand:color>
      <osmand:background>square</osmand:background>
      <osmand:icon>public_bookcase</osmand:icon>
    </extensions>
  </wpt>
  <wpt lat="44.455768" lon="1.042006">
    <name>cabane a livres Palot</name>
    <desc></desc>
    <type>Delivrez bookcases</type>
    <extensions>
      <osmand:color>#ff5020</osmand:color>
      <osmand:background>square</osmand:background>
      <osmand:icon>public_bookcase</osmand:icon>
    </extensions>
  </wpt>
  <wpt lat="43.054639" lon="2.22132">
    <name>musée du piano</name>
    <desc></desc>
    <type>Delivrez bookcases</type>
    <extensions>
      <osmand:color>#ff5020</osmand:color>
      <osmand:background>square</osmand:background>
      <osmand:icon>public_bookcase</osmand:icon>
    </extensions>
  </wpt>
  <wpt lat="43.970649" lon="4.55432">
    <name>Place du 8 Mai 1945</name>
    <desc>ancienne cabine France Telecom</desc>
    <type>Delivrez bookcases</type>
    <extensions>
      <osmand:color>#ff5020</osmand:color>
      <osmand:background>square</osmand:background>
      <osmand:icon>public_bookcase</osmand:icon>
    </extensions>
  </wpt>
  <wpt lat="43.419728" lon="3.705566">
    <name>Rue de Berlin</name>
    <desc></desc>
    <type>Delivrez bookcases</type>
    <extensions>
      <osmand:color>#ff5020</osmand:color>
      <osmand:background>square</osmand:background>
      <osmand:icon>public_bookcase</osmand:icon>
    </extensions>
  </wpt>
  <wpt lat="42.718043" lon="2.100848">
    <name>Le Village</name>
    <desc></desc>
    <type>Delivrez bookcases</type>
    <extensions>
      <osmand:color>#ff5020</osmand:color>
      <osmand:background>square</osmand:background>
      <osmand:icon>public_bookcase</osmand:icon>
    </extensions>
  </wpt>
  <wpt lat="43.922714" lon="2.144811">
    <name>Boulevard Carnot</name>
    <desc></desc>
    <type>Delivrez bookcases</type>
    <extensions>
      <osmand:color>#ff5020</osmand:color>
      <osmand:background>square</osmand:background>
      <osmand:icon>public_bookcase</osmand:icon>
    </extensions>
  </wpt>
  <wpt lat="43.674031" lon="4.435077">
    <name>Quai du Canal</name>
    <desc>sur le quai</desc>
    <type>Delivrez bookcases</type>
    <extensions>
      <osmand:color>#ff5020</osmand:color>
      <osmand:background>square</osmand:background>
      <osmand:icon>public_bookcase</osmand:icon>
    </extensions>
  </wpt>
  <wpt lat="43.565397" lon="4.192898">
    <name>Rue Roger Salengro</name>
    <desc></desc>
    <type>Delivrez bookcases</type>
    <extensions>
      <osmand:color>#ff5020</osmand:color>
      <osmand:background>square</osmand:background>
      <osmand:icon>public_bookcase</osmand:icon>
    </extensions>
  </wpt>
  <wpt lat="43.556857" lon="4.09303">
    <name>Allée de la Plage</name>
    <desc></desc>
    <type>Delivrez bookcases</type>
    <extensions>
      <osmand:color>#ff5020</osmand:color>
      <osmand:background>square</osmand:background>
      <osmand:icon>public_bookcase</osmand:icon>
    </extensions>
  </wpt>
  <wpt lat="43.565958" lon="4.100723">
    <name>Allée du Ponant</name>
    <desc></desc>
    <type>Delivrez bookcases</type>
    <extensions>
      <osmand:color>#ff5020</osmand:color>
      <osmand:background>square</osmand:background>
      <osmand:icon>public_bookcase</osmand:icon>
    </extensions>
  </wpt>
  <wpt lat="43.317237" lon="1.962671">
    <name>Jardin des vents</name>
    <desc>Au milieu du jardin situé à côté de l'hôpital</desc>
    <type>Delivrez bookcases</type>
    <extensions>
      <osmand:color>#ff5020</osmand:color>
      <osmand:background>square</osmand:background>
      <osmand:icon>public_bookcase</osmand:icon>
    </extensions>
  </wpt>
  <wpt lat="42.917873" lon="2.318869">
    <name>rennes -les bains</name>
    <desc></desc>
    <type>Delivrez bookcases</type>
    <extensions>
      <osmand:color>#ff5020</osmand:color>
      <osmand:background>square</osmand:background>
      <osmand:icon>public_bookcase</osmand:icon>
    </extensions>
  </wpt>
  <wpt lat="43.797625" lon="1.07658">
    <name>joute grioulet, Bellesserre</name>
    <desc>beaucoup de livres</desc>
    <type>Delivrez bookcases</type>
    <extensions>
      <osmand:color>#ff5020</osmand:color>
      <osmand:background>square</osmand:background>
      <osmand:icon>public_bookcase</osmand:icon>
    </extensions>
  </wpt>
  <wpt lat="43.202222" lon="2.757983">
    <name>Place du Premier Mai</name>
    <desc>dans le petit jardin près de l'église.</desc>
    <type>Delivrez bookcases</type>
    <extensions>
      <osmand:color>#ff5020</osmand:color>
      <osmand:background>square</osmand:background>
      <osmand:icon>public_bookcase</osmand:icon>
    </extensions>
  </wpt>
  <wpt lat="43.244306" lon="3.290857">
    <name>Boulevard Michelet</name>
    <desc></desc>
    <type>Delivrez bookcases</type>
    <extensions>
      <osmand:color>#ff5020</osmand:color>
      <osmand:background>square</osmand:background>
      <osmand:icon>public_bookcase</osmand:icon>
    </extensions>
  </wpt>
  <wpt lat="43.108892" lon="3.086493">
    <name>Rue de Toulouse</name>
    <desc>face au lac près du parking et des bancs</desc>
    <type>Delivrez bookcases</type>
    <extensions>
      <osmand:color>#ff5020</osmand:color>
      <osmand:background>square</osmand:background>
      <osmand:icon>public_bookcase</osmand:icon>
    </extensions>
  </wpt>
  <wpt lat="43.708534" lon="3.818943">
    <name>D145E3</name>
    <desc></desc>
    <type>Delivrez bookcases</type>
    <extensions>
      <osmand:color>#ff5020</osmand:color>
      <osmand:background>square</osmand:background>
      <osmand:icon>public_bookcase</osmand:icon>
    </extensions>
  </wpt>
  <wpt lat="44.352747" lon="2.037927">
    <name>place lescure</name>
    <desc></desc>
    <type>Delivrez bookcases</type>
    <extensions>
      <osmand:color>#ff5020</osmand:color>
      <osmand:background>square</osmand:background>
      <osmand:icon>public_bookcase</osmand:icon>
    </extensions>
  </wpt>
  <wpt lat="43.115409" lon="3.11739">
    <name>Rue de la Traîne</name>
    <desc></desc>
    <type>Delivrez bookcases</type>
    <extensions>
      <osmand:color>#ff5020</osmand:color>
      <osmand:background>square</osmand:background>
      <osmand:icon>public_bookcase</osmand:icon>
    </extensions>
  </wpt>
  <wpt lat="43.111975" lon="3.106393">
    <name>Rue Quatourze</name>
    <desc>sur la plage</desc>
    <type>Delivrez bookcases</type>
    <extensions>
      <osmand:color>#ff5020</osmand:color>
      <osmand:background>square</osmand:background>
      <osmand:icon>public_bookcase</osmand:icon>
    </extensions>
  </wpt>
  <wpt lat="43.103772" lon="3.116824">
    <name>Avenue des Macareux</name>
    <desc></desc>
    <type>Delivrez bookcases</type>
    <extensions>
      <osmand:color>#ff5020</osmand:color>
      <osmand:background>square</osmand:background>
      <osmand:icon>public_bookcase</osmand:icon>
    </extensions>
  </wpt>
  <wpt lat="43.131015" lon="3.129475">
    <name>Maïs du Rivage Bleu</name>
    <desc></desc>
    <type>Delivrez bookcases</type>
    <extensions>
      <osmand:color>#ff5020</osmand:color>
      <osmand:background>square</osmand:background>
      <osmand:icon>public_bookcase</osmand:icon>
    </extensions>
  </wpt>
  <wpt lat="43.110742" lon="3.092191">
    <name>Boulevard du Bois de l'Étang</name>
    <desc></desc>
    <type>Delivrez bookcases</type>
    <extensions>
      <osmand:color>#ff5020</osmand:color>
      <osmand:background>square</osmand:background>
      <osmand:icon>public_bookcase</osmand:icon>
    </extensions>
  </wpt>
  <wpt lat="43.290637" lon="3.415958">
    <name>Avenue de la Méditerranée</name>
    <desc></desc>
    <type>Delivrez bookcases</type>
    <extensions>
      <osmand:color>#ff5020</osmand:color>
      <osmand:background>square</osmand:background>
      <osmand:icon>public_bookcase</osmand:icon>
    </extensions>
  </wpt>
  <wpt lat="43.100273" lon="3.114024">
    <name>Les Courlis</name>
    <desc></desc>
    <type>Delivrez bookcases</type>
    <extensions>
      <osmand:color>#ff5020</osmand:color>
      <osmand:background>square</osmand:background>
      <osmand:icon>public_bookcase</osmand:icon>
    </extensions>
  </wpt>
  <wpt lat="43.493148" lon="1.145738">
    <name>Avenue du 19 Mars 1962</name>
    <desc>boite a livre avec porte en bois dans le coin du square</desc>
    <type>Delivrez bookcases</type>
    <extensions>
      <osmand:color>#ff5020</osmand:color>
      <osmand:background>square</osmand:background>
      <osmand:icon>public_bookcase</osmand:icon>
    </extensions>
  </wpt>
  <wpt lat="43.01709" lon="0.176891">
    <name>Rue du Layris</name>
    <desc></desc>
    <type>Delivrez bookcases</type>
    <extensions>
      <osmand:color>#ff5020</osmand:color>
      <osmand:background>square</osmand:background>
      <osmand:icon>public_bookcase</osmand:icon>
    </extensions>
  </wpt>
  <wpt lat="43.812418" lon="4.364506">
    <name>Cap costières</name>
    <desc>a l étage de Burger King</desc>
    <type>Delivrez bookcases</type>
    <extensions>
      <osmand:color>#ff5020</osmand:color>
      <osmand:background>square</osmand:background>
      <osmand:icon>public_bookcase</osmand:icon>
    </extensions>
  </wpt>
  <wpt lat="42.816447" lon="3.023343">
    <name>Avenue de l'Île de la Coudalère</name>
    <desc></desc>
    <type>Delivrez bookcases</type>
    <extensions>
      <osmand:color>#ff5020</osmand:color>
      <osmand:background>square</osmand:background>
      <osmand:icon>public_bookcase</osmand:icon>
    </extensions>
  </wpt>
  <wpt lat="43.564726" lon="1.297394">
    <name>boite a livre</name>
    <desc>collé à l espace coworking</desc>
    <type>Delivrez bookcases</type>
    <extensions>
      <osmand:color>#ff5020</osmand:color>
      <osmand:background>square</osmand:background>
      <osmand:icon>public_bookcase</osmand:icon>
    </extensions>
  </wpt>
  <wpt lat="43.624739" lon="1.751525">
    <name>Route de la Pradine</name>
    <desc>Sous le porche de l'église</desc>
    <type>Delivrez bookcases</type>
    <extensions>
      <osmand:color>#ff5020</osmand:color>
      <osmand:background>square</osmand:background>
      <osmand:icon>public_bookcase</osmand:icon>
    </extensions>
  </wpt>
  <wpt lat="43.73649" lon="1.591899">
    <name>Route de Toulouse</name>
    <desc>ancienne cabine téléphonique sur parking mairie</desc>
    <type>Delivrez bookcases</type>
    <extensions>
      <osmand:color>#ff5020</osmand:color>
      <osmand:background>square</osmand:background>
      <osmand:icon>public_bookcase</osmand:icon>
    </extensions>
  </wpt>
  <wpt lat="43.812997" lon="1.572379">
    <name>Avenue du Pont</name>
    <desc>ancienne cabine téléphonique rouge</desc>
    <type>Delivrez bookcases</type>
    <extensions>
      <osmand:color>#ff5020</osmand:color>
      <osmand:background>square</osmand:background>
      <osmand:icon>public_bookcase</osmand:icon>
    </extensions>
  </wpt>
  <wpt lat="43.719431" lon="1.589116">
    <name>D30B</name>
    <desc>boite a livre en verre prêt de la poste nommée Livres à l'appel</desc>
    <type>Delivrez bookcases</type>
    <extensions>
      <osmand:color>#ff5020</osmand:color>
      <osmand:background>square</osmand:background>
      <osmand:icon>public_bookcase</osmand:icon>
    </extensions>
  </wpt>
  <wpt lat="43.597705" lon="1.505867">
    <name>Rue de Noncesse</name>
    <desc>Située près du garage à poubelles de l'école Gaston Bonheur</desc>
    <type>Delivrez bookcases</type>
    <extensions>
      <osmand:color>#ff5020</osmand:color>
      <osmand:background>square</osmand:background>
      <osmand:icon>public_bookcase</osmand:icon>
    </extensions>
  </wpt>
  <wpt lat="43.790677" lon="4.308797">
    <name>Place Frédéric Mistral</name>
    <desc>au centre socio-culturel</desc>
    <type>Delivrez bookcases</type>
    <extensions>
      <osmand:color>#ff5020</osmand:color>
      <osmand:background>square</osmand:background>
      <osmand:icon>public_bookcase</osmand:icon>
    </extensions>
  </wpt>
  <wpt lat="43.832059" lon="4.365934">
    <name>Boulevard Sergent Triaire</name>
    <desc>Dans la gare</desc>
    <type>Delivrez bookcases</type>
    <extensions>
      <osmand:color>#ff5020</osmand:color>
      <osmand:background>square</osmand:background>
      <osmand:icon>public_bookcase</osmand:icon>
    </extensions>
  </wpt>
  <wpt lat="43.206127" lon="2.424252">
    <name>Route de Carcassonne</name>
    <desc>zone de covoiturage</desc>
    <type>Delivrez bookcases</type>
    <extensions>
      <osmand:color>#ff5020</osmand:color>
      <osmand:background>square</osmand:background>
      <osmand:icon>public_bookcase</osmand:icon>
    </extensions>
  </wpt>
  <wpt lat="43.841075" lon="4.340745">
    <name>Chemin de la Cigale</name>
    <desc>Entre le Super U et la Pharmacie</desc>
    <type>Delivrez bookcases</type>
    <extensions>
      <osmand:color>#ff5020</osmand:color>
      <osmand:background>square</osmand:background>
      <osmand:icon>public_bookcase</osmand:icon>
    </extensions>
  </wpt>
  <wpt lat="43.223273" lon="2.625568">
    <name>Rue Droite</name>
    <desc>terrain de jeux</desc>
    <type>Delivrez bookcases</type>
    <extensions>
      <osmand:color>#ff5020</osmand:color>
      <osmand:background>square</osmand:background>
      <osmand:icon>public_bookcase</osmand:icon>
    </extensions>
  </wpt>
  <wpt lat="43.222863" lon="2.620318">
    <name>Chemin de Saint Amadou</name>
    <desc>casiers bleus</desc>
    <type>Delivrez bookcases</type>
    <extensions>
      <osmand:color>#ff5020</osmand:color>
      <osmand:background>square</osmand:background>
      <osmand:icon>public_bookcase</osmand:icon>
    </extensions>
  </wpt>
  <wpt lat="43.111289" lon="3.105299">
    <name>Plage du Grazel</name>
    <desc>Plage du grazel - à côté du poste de secours.Mode de fonctionnement expliqué en quatre langues : français  anglais  allemand  espagnol</desc>
    <type>Delivrez bookcases</type>
    <extensions>
      <osmand:color>#ff5020</osmand:color>
      <osmand:background>square</osmand:background>
      <osmand:icon>public_bookcase</osmand:icon>
    </extensions>
  </wpt>
  <wpt lat="43.356074" lon="2.828506">
    <name>Rue des Ecoles</name>
    <desc>sur la place</desc>
    <type>Delivrez bookcases</type>
    <extensions>
      <osmand:color>#ff5020</osmand:color>
      <osmand:background>square</osmand:background>
      <osmand:icon>public_bookcase</osmand:icon>
    </extensions>
  </wpt>
  <wpt lat="43.184403" lon="3.002974">
    <name>Rue Gustave Fabre</name>
    <desc>jardin du musée</desc>
    <type>Delivrez bookcases</type>
    <extensions>
      <osmand:color>#ff5020</osmand:color>
      <osmand:background>square</osmand:background>
      <osmand:icon>public_bookcase</osmand:icon>
    </extensions>
  </wpt>
  <wpt lat="43.84028" lon="4.356001">
    <name>Place de la Bouquerie</name>
    <desc>a quelques mètres de la coupole sur le bd Gambetta</desc>
    <type>Delivrez bookcases</type>
    <extensions>
      <osmand:color>#ff5020</osmand:color>
      <osmand:background>square</osmand:background>
      <osmand:icon>public_bookcase</osmand:icon>
    </extensions>
  </wpt>
  <wpt lat="43.593014" lon="1.178892">
    <name>Chemin des Moulins</name>
    <desc>abribus</desc>
    <type>Delivrez bookcases</type>
    <extensions>
      <osmand:color>#ff5020</osmand:color>
      <osmand:background>square</osmand:background>
      <osmand:icon>public_bookcase</osmand:icon>
    </extensions>
  </wpt>
  <wpt lat="43.593631" lon="1.180222">
    <name>Chemin des Moulins</name>
    <desc>abribus</desc>
    <type>Delivrez bookcases</type>
    <extensions>
      <osmand:color>#ff5020</osmand:color>
      <osmand:background>square</osmand:background>
      <osmand:icon>public_bookcase</osmand:icon>
    </extensions>
  </wpt>
  <wpt lat="43.612123" lon="1.492184">
    <name>Rue de l'Europe</name>
    <desc>a l'entrée du chemin piétonnier petite boîte en bois</desc>
    <type>Delivrez bookcases</type>
    <extensions>
      <osmand:color>#ff5020</osmand:color>
      <osmand:background>square</osmand:background>
      <osmand:icon>public_bookcase</osmand:icon>
    </extensions>
  </wpt>
  <wpt lat="43.61076" lon="1.084765">
    <name>Cité de la Vierge</name>
    <desc>boite a livre sous porche du bât De n 65 a 70</desc>
    <type>Delivrez bookcases</type>
    <extensions>
      <osmand:color>#ff5020</osmand:color>
      <osmand:background>square</osmand:background>
      <osmand:icon>public_bookcase</osmand:icon>
    </extensions>
  </wpt>
  <wpt lat="43.596913" lon="1.240805">
    <name>Place Gabriel Bonnet</name>
    <desc>sur le côté droit de la porte d'entrée de l'école</desc>
    <type>Delivrez bookcases</type>
    <extensions>
      <osmand:color>#ff5020</osmand:color>
      <osmand:background>square</osmand:background>
      <osmand:icon>public_bookcase</osmand:icon>
    </extensions>
  </wpt>
  <wpt lat="43.513332" lon="1.197561">
    <name>Route de Muret</name>
    <desc>en forme de papillon au bord du rond point</desc>
    <type>Delivrez bookcases</type>
    <extensions>
      <osmand:color>#ff5020</osmand:color>
      <osmand:background>square</osmand:background>
      <osmand:icon>public_bookcase</osmand:icon>
    </extensions>
  </wpt>
  <wpt lat="43.113445" lon="0.708512">
    <name>Avenue Jacques Prévert</name>
    <desc>_</desc>
    <type>Delivrez bookcases</type>
    <extensions>
      <osmand:color>#ff5020</osmand:color>
      <osmand:background>square</osmand:background>
      <osmand:icon>public_bookcase</osmand:icon>
    </extensions>
  </wpt>
  <wpt lat="43.600624" lon="1.247421">
    <name>Route de Toulouse</name>
    <desc>boite a livre en bois au bout du parking de LIDL sur la route</desc>
    <type>Delivrez bookcases</type>
    <extensions>
      <osmand:color>#ff5020</osmand:color>
      <osmand:background>square</osmand:background>
      <osmand:icon>public_bookcase</osmand:icon>
    </extensions>
  </wpt>
  <wpt lat="44.560541" lon="2.250259">
    <name>Rue Gambetta</name>
    <desc>_</desc>
    <type>Delivrez bookcases</type>
    <extensions>
      <osmand:color>#ff5020</osmand:color>
      <osmand:background>square</osmand:background>
      <osmand:icon>public_bookcase</osmand:icon>
    </extensions>
  </wpt>
  <wpt lat="43.452089" lon="3.808917">
    <name>Avenue des Étangs</name>
    <desc>plage des Arresquiers @@__ escalier 29.</desc>
    <type>Delivrez bookcases</type>
    <extensions>
      <osmand:color>#ff5020</osmand:color>
      <osmand:background>square</osmand:background>
      <osmand:icon>public_bookcase</osmand:icon>
    </extensions>
  </wpt>
  <wpt lat="42.816654" lon="0.322068">
    <name>Rue Vincent Mir</name>
    <desc>Dans la télécabine rouge de la maison du patrimoine</desc>
    <type>Delivrez bookcases</type>
    <extensions>
      <osmand:color>#ff5020</osmand:color>
      <osmand:background>square</osmand:background>
      <osmand:icon>public_bookcase</osmand:icon>
    </extensions>
  </wpt>
  <wpt lat="43.57121" lon="4.198874">
    <name>Impasse des Figuiers</name>
    <desc>_</desc>
    <type>Delivrez bookcases</type>
    <extensions>
      <osmand:color>#ff5020</osmand:color>
      <osmand:background>square</osmand:background>
      <osmand:icon>public_bookcase</osmand:icon>
    </extensions>
  </wpt>
  <wpt lat="43.568139" lon="4.199336">
    <name>Rue du Vieux Bourgidou</name>
    <desc>en face des poubelles de tri</desc>
    <type>Delivrez bookcases</type>
    <extensions>
      <osmand:color>#ff5020</osmand:color>
      <osmand:background>square</osmand:background>
      <osmand:icon>public_bookcase</osmand:icon>
    </extensions>
  </wpt>
  <wpt lat="43.861162" lon="4.442611">
    <name>Rue du Palmier</name>
    <desc>petite boîte à livres sympa</desc>
    <type>Delivrez bookcases</type>
    <extensions>
      <osmand:color>#ff5020</osmand:color>
      <osmand:background>square</osmand:background>
      <osmand:icon>public_bookcase</osmand:icon>
    </extensions>
  </wpt>
  <wpt lat="44.013639" lon="4.580665">
    <name>D6086</name>
    <desc>sous abri près du parking</desc>
    <type>Delivrez bookcases</type>
    <extensions>
      <osmand:color>#ff5020</osmand:color>
      <osmand:background>square</osmand:background>
      <osmand:icon>public_bookcase</osmand:icon>
    </extensions>
  </wpt>
  <wpt lat="43.246769" lon="2.802453">
    <name>2 boîtes à lettres pour 2 boîtes à livres</name>
    <desc>_</desc>
    <type>Delivrez bookcases</type>
    <extensions>
      <osmand:color>#ff5020</osmand:color>
      <osmand:background>square</osmand:background>
      <osmand:icon>public_bookcase</osmand:icon>
    </extensions>
  </wpt>
  <wpt lat="44.054265" lon="3.985214">
    <name>Rue Bouquerie</name>
    <desc>à côté des saveurs du sud</desc>
    <type>Delivrez bookcases</type>
    <extensions>
      <osmand:color>#ff5020</osmand:color>
      <osmand:background>square</osmand:background>
      <osmand:icon>public_bookcase</osmand:icon>
    </extensions>
  </wpt>
  <wpt lat="44.219736" lon="1.978254">
    <name>Rue du Bourguet</name>
    <desc>_</desc>
    <type>Delivrez bookcases</type>
    <extensions>
      <osmand:color>#ff5020</osmand:color>
      <osmand:background>square</osmand:background>
      <osmand:icon>public_bookcase</osmand:icon>
    </extensions>
  </wpt>
  <wpt lat="44.350149" lon="2.036021">
    <name>Rue Gautharie</name>
    <desc>_</desc>
    <type>Delivrez bookcases</type>
    <extensions>
      <osmand:color>#ff5020</osmand:color>
      <osmand:background>square</osmand:background>
      <osmand:icon>public_bookcase</osmand:icon>
    </extensions>
  </wpt>
  <wpt lat="43.282058" lon="2.731168">
    <name>Rue des Écoles</name>
    <desc>_</desc>
    <type>Delivrez bookcases</type>
    <extensions>
      <osmand:color>#ff5020</osmand:color>
      <osmand:background>square</osmand:background>
      <osmand:icon>public_bookcase</osmand:icon>
    </extensions>
  </wpt>
  <wpt lat="43.459434" lon="3.424518">
    <name>Rue Conti</name>
    <desc>_</desc>
    <type>Delivrez bookcases</type>
    <extensions>
      <osmand:color>#ff5020</osmand:color>
      <osmand:background>square</osmand:background>
      <osmand:icon>public_bookcase</osmand:icon>
    </extensions>
  </wpt>
  <wpt lat="44.607777" lon="2.032305">
    <name>Rue Lucien Cavalie</name>
    <desc>sur la place à gauche de l'église</desc>
    <type>Delivrez bookcases</type>
    <extensions>
      <osmand:color>#ff5020</osmand:color>
      <osmand:background>square</osmand:background>
      <osmand:icon>public_bookcase</osmand:icon>
    </extensions>
  </wpt>
  <wpt lat="43.384414" lon="3.474112">
    <name>Rue des Saules</name>
    <desc>_</desc>
    <type>Delivrez bookcases</type>
    <extensions>
      <osmand:color>#ff5020</osmand:color>
      <osmand:background>square</osmand:background>
      <osmand:icon>public_bookcase</osmand:icon>
    </extensions>
  </wpt>
  <wpt lat="43.105878" lon="-0.078259">
    <name>Entrée principale - restaurant l'embarcadère</name>
    <desc>boite à livre en forme de château</desc>
    <type>Delivrez bookcases</type>
    <extensions>
      <osmand:color>#ff5020</osmand:color>
      <osmand:background>square</osmand:background>
      <osmand:icon>public_bookcase</osmand:icon>
    </extensions>
  </wpt>
  <wpt lat="43.151379" lon="-0.091749">
    <name>Place de l'Église</name>
    <desc>abris bus.</desc>
    <type>Delivrez bookcases</type>
    <extensions>
      <osmand:color>#ff5020</osmand:color>
      <osmand:background>square</osmand:background>
      <osmand:icon>public_bookcase</osmand:icon>
    </extensions>
  </wpt>
  <wpt lat="43.178508" lon="-0.114651">
    <name>Place J M Caillabet</name>
    <desc>salle municipale . cabine téléphonique, petit parking, salle de sport.</desc>
    <type>Delivrez bookcases</type>
    <extensions>
      <osmand:color>#ff5020</osmand:color>
      <osmand:background>square</osmand:background>
      <osmand:icon>public_bookcase</osmand:icon>
    </extensions>
  </wpt>
  <wpt lat="43.10369" lon="-0.159065">
    <name>Place des Arcades</name>
    <desc>office de tourisme</desc>
    <type>Delivrez bookcases</type>
    <extensions>
      <osmand:color>#ff5020</osmand:color>
      <osmand:background>square</osmand:background>
      <osmand:icon>public_bookcase</osmand:icon>
    </extensions>
  </wpt>
  <wpt lat="42.974714" lon="-0.078272">
    <name>Rue du Soleil</name>
    <desc>sur le bord de la route - adast</desc>
    <type>Delivrez bookcases</type>
    <extensions>
      <osmand:color>#ff5020</osmand:color>
      <osmand:background>square</osmand:background>
      <osmand:icon>public_bookcase</osmand:icon>
    </extensions>
  </wpt>
  <wpt lat="42.965027" lon="-0.201545">
    <name>Route d'Azun</name>
    <desc>cabine de téléphone, proche d'un parking</desc>
    <type>Delivrez bookcases</type>
    <extensions>
      <osmand:color>#ff5020</osmand:color>
      <osmand:background>square</osmand:background>
      <osmand:icon>public_bookcase</osmand:icon>
    </extensions>
  </wpt>
  <wpt lat="42.981479" lon="-0.091558">
    <name>Place du Castet</name>
    <desc>prêt de l'église, lavoir, il y a aussi des graines à donner.</desc>
    <type>Delivrez bookcases</type>
    <extensions>
      <osmand:color>#ff5020</osmand:color>
      <osmand:background>square</osmand:background>
      <osmand:icon>public_bookcase</osmand:icon>
    </extensions>
  </wpt>
  <wpt lat="42.957232" lon="-0.073519">
    <name>Rue de Lalanne</name>
    <desc>bord de l'eau - ancien lavoir.</desc>
    <type>Delivrez bookcases</type>
    <extensions>
      <osmand:color>#ff5020</osmand:color>
      <osmand:background>square</osmand:background>
      <osmand:icon>public_bookcase</osmand:icon>
    </extensions>
  </wpt>
  <wpt lat="42.96463" lon="-0.074013">
    <name>Avenue Jean Moulin</name>
    <desc>Maligne des gaves</desc>
    <type>Delivrez bookcases</type>
    <extensions>
      <osmand:color>#ff5020</osmand:color>
      <osmand:background>square</osmand:background>
      <osmand:icon>public_bookcase</osmand:icon>
    </extensions>
  </wpt>
  <wpt lat="43.002979" lon="-0.103354">
    <name>Rue de l'Arrieulat</name>
    <desc>maison bleu - parking</desc>
    <type>Delivrez bookcases</type>
    <extensions>
      <osmand:color>#ff5020</osmand:color>
      <osmand:background>square</osmand:background>
      <osmand:icon>public_bookcase</osmand:icon>
    </extensions>
  </wpt>
  <wpt lat="43.006787" lon="-0.100098">
    <name>Rue Maréchal Foch</name>
    <desc>Sur la place - institut de beauté</desc>
    <type>Delivrez bookcases</type>
    <extensions>
      <osmand:color>#ff5020</osmand:color>
      <osmand:background>square</osmand:background>
      <osmand:icon>public_bookcase</osmand:icon>
    </extensions>
  </wpt>
  <wpt lat="43.006241" lon="-0.10025">
    <name>Rue Maréchal Foch</name>
    <desc>fontaine</desc>
    <type>Delivrez bookcases</type>
    <extensions>
      <osmand:color>#ff5020</osmand:color>
      <osmand:background>square</osmand:background>
      <osmand:icon>public_bookcase</osmand:icon>
    </extensions>
  </wpt>
  <wpt lat="43.959375" lon="1.5008">
    <name>Chemin de Fromontal</name>
    <desc>_</desc>
    <type>Delivrez bookcases</type>
    <extensions>
      <osmand:color>#ff5020</osmand:color>
      <osmand:background>square</osmand:background>
      <osmand:icon>public_bookcase</osmand:icon>
    </extensions>
  </wpt>
  <wpt lat="43.562799" lon="1.136034">
    <name>D535</name>
    <desc>située dans le square du 19 mars 1962 près de la mairie</desc>
    <type>Delivrez bookcases</type>
    <extensions>
      <osmand:color>#ff5020</osmand:color>
      <osmand:background>square</osmand:background>
      <osmand:icon>public_bookcase</osmand:icon>
    </extensions>
  </wpt>
  <wpt lat="43.590296" lon="1.149198">
    <name>Allée d'Occitanie</name>
    <desc>sous l'abris bus</desc>
    <type>Delivrez bookcases</type>
    <extensions>
      <osmand:color>#ff5020</osmand:color>
      <osmand:background>square</osmand:background>
      <osmand:icon>public_bookcase</osmand:icon>
    </extensions>
  </wpt>
  <wpt lat="44.485176" lon="1.552394">
    <name>Rue de la Barre</name>
    <desc>dans ancienne cabine téléphonique. près terrain de jeux</desc>
    <type>Delivrez bookcases</type>
    <extensions>
      <osmand:color>#ff5020</osmand:color>
      <osmand:background>square</osmand:background>
      <osmand:icon>public_bookcase</osmand:icon>
    </extensions>
  </wpt>
  <wpt lat="44.464605" lon="1.668739">
    <name>boite de la fontaine</name>
    <desc>a côté de la fontaine sur la place centrale</desc>
    <type>Delivrez bookcases</type>
    <extensions>
      <osmand:color>#ff5020</osmand:color>
      <osmand:background>square</osmand:background>
      <osmand:icon>public_bookcase</osmand:icon>
    </extensions>
  </wpt>
  <wpt lat="43.019292" lon="0.798906">
    <name>Balejon</name>
    <desc>a côté garage pierron</desc>
    <type>Delivrez bookcases</type>
    <extensions>
      <osmand:color>#ff5020</osmand:color>
      <osmand:background>square</osmand:background>
      <osmand:icon>public_bookcase</osmand:icon>
    </extensions>
  </wpt>
  <wpt lat="43.359081" lon="1.625326">
    <name>Rue du Laytie</name>
    <desc>a l'angle</desc>
    <type>Delivrez bookcases</type>
    <extensions>
      <osmand:color>#ff5020</osmand:color>
      <osmand:background>square</osmand:background>
      <osmand:icon>public_bookcase</osmand:icon>
    </extensions>
  </wpt>
  <wpt lat="43.543883" lon="3.97461">
    <name>Quai Auguste Meynier</name>
    <desc>Bouqu'in box</desc>
    <type>Delivrez bookcases</type>
    <extensions>
      <osmand:color>#ff5020</osmand:color>
      <osmand:background>square</osmand:background>
      <osmand:icon>public_bookcase</osmand:icon>
    </extensions>
  </wpt>
  <wpt lat="43.59972" lon="1.23436">
    <name>Rue du Languedoc</name>
    <desc>face à la salle Piquot</desc>
    <type>Delivrez bookcases</type>
    <extensions>
      <osmand:color>#ff5020</osmand:color>
      <osmand:background>square</osmand:background>
      <osmand:icon>public_bookcase</osmand:icon>
    </extensions>
  </wpt>
  <wpt lat="43.612399" lon="1.312793">
    <name>Route de Pibrac</name>
    <desc>a côté bac à verre</desc>
    <type>Delivrez bookcases</type>
    <extensions>
      <osmand:color>#ff5020</osmand:color>
      <osmand:background>square</osmand:background>
      <osmand:icon>public_bookcase</osmand:icon>
    </extensions>
  </wpt>
  <wpt lat="43.562629" lon="1.291209">
    <name>Rue des Fauvettes</name>
    <desc>_</desc>
    <type>Delivrez bookcases</type>
    <extensions>
      <osmand:color>#ff5020</osmand:color>
      <osmand:background>square</osmand:background>
      <osmand:icon>public_bookcase</osmand:icon>
    </extensions>
  </wpt>
  <wpt lat="43.603927" lon="1.401053">
    <name>Rue du Toec</name>
    <desc>dans petit jardin</desc>
    <type>Delivrez bookcases</type>
    <extensions>
      <osmand:color>#ff5020</osmand:color>
      <osmand:background>square</osmand:background>
      <osmand:icon>public_bookcase</osmand:icon>
    </extensions>
  </wpt>
  <wpt lat="43.993742" lon="4.312891">
    <name>Rue André Conard</name>
    <desc>Bibliothèque Daniel Viala</desc>
    <type>Delivrez bookcases</type>
    <extensions>
      <osmand:color>#ff5020</osmand:color>
      <osmand:background>square</osmand:background>
      <osmand:icon>public_bookcase</osmand:icon>
    </extensions>
  </wpt>
  <wpt lat="43.956005" lon="4.030325">
    <name>Route de Savignargues</name>
    <desc>Parc de Logrian</desc>
    <type>Delivrez bookcases</type>
    <extensions>
      <osmand:color>#ff5020</osmand:color>
      <osmand:background>square</osmand:background>
      <osmand:icon>public_bookcase</osmand:icon>
    </extensions>
  </wpt>
  <wpt lat="43.941948" lon="3.949456">
    <name>Place René Isouard</name>
    <desc>parking</desc>
    <type>Delivrez bookcases</type>
    <extensions>
      <osmand:color>#ff5020</osmand:color>
      <osmand:background>square</osmand:background>
      <osmand:icon>public_bookcase</osmand:icon>
    </extensions>
  </wpt>
  <wpt lat="43.938209" lon="3.95672">
    <name>Chemin de la Trincaude</name>
    <desc>le jardin du Papé</desc>
    <type>Delivrez bookcases</type>
    <extensions>
      <osmand:color>#ff5020</osmand:color>
      <osmand:background>square</osmand:background>
      <osmand:icon>public_bookcase</osmand:icon>
    </extensions>
  </wpt>
  <wpt lat="43.572145" lon="4.314391">
    <name>Chemin Du Pin De Fer</name>
    <desc>Aire de jeu de Montcalm</desc>
    <type>Delivrez bookcases</type>
    <extensions>
      <osmand:color>#ff5020</osmand:color>
      <osmand:background>square</osmand:background>
      <osmand:icon>public_bookcase</osmand:icon>
    </extensions>
  </wpt>
  <wpt lat="43.957307" lon="2.882266">
    <name>Boulevard de Verdun</name>
    <desc>devant la bibliothèque, en plus de celle dans le sas</desc>
    <type>Delivrez bookcases</type>
    <extensions>
      <osmand:color>#ff5020</osmand:color>
      <osmand:background>square</osmand:background>
      <osmand:icon>public_bookcase</osmand:icon>
    </extensions>
  </wpt>
  <wpt lat="42.95934" lon="0.5675">
    <name>boîte à livres</name>
    <desc>cabine téléphonique sur le parking</desc>
    <type>Delivrez bookcases</type>
    <extensions>
      <osmand:color>#ff5020</osmand:color>
      <osmand:background>square</osmand:background>
      <osmand:icon>public_bookcase</osmand:icon>
    </extensions>
  </wpt>
  <wpt lat="43.954398" lon="2.891822">
    <name>Avenue Alphonse Pezet</name>
    <desc>à l'entrée du Centre Social le Quai</desc>
    <type>Delivrez bookcases</type>
    <extensions>
      <osmand:color>#ff5020</osmand:color>
      <osmand:background>square</osmand:background>
      <osmand:icon>public_bookcase</osmand:icon>
    </extensions>
  </wpt>
  <wpt lat="43.50619" lon="3.310668">
    <name>Avenue Henri Mas</name>
    <desc>_</desc>
    <type>Delivrez bookcases</type>
    <extensions>
      <osmand:color>#ff5020</osmand:color>
      <osmand:background>square</osmand:background>
      <osmand:icon>public_bookcase</osmand:icon>
    </extensions>
  </wpt>
  <wpt lat="43.614571" lon="1.394341">
    <name>rue Carlos Gardel</name>
    <desc>_</desc>
    <type>Delivrez bookcases</type>
    <extensions>
      <osmand:color>#ff5020</osmand:color>
      <osmand:background>square</osmand:background>
      <osmand:icon>public_bookcase</osmand:icon>
    </extensions>
  </wpt>
  <wpt lat="43.951457" lon="2.896279">
    <name>Boulevard Camille Marbo</name>
    <desc>dans le sas d'entrée de la Biocoop</desc>
    <type>Delivrez bookcases</type>
    <extensions>
      <osmand:color>#ff5020</osmand:color>
      <osmand:background>square</osmand:background>
      <osmand:icon>public_bookcase</osmand:icon>
    </extensions>
  </wpt>
  <wpt lat="43.957228" lon="2.882485">
    <name>Boulevard de Verdun</name>
    <desc>boîte à livres dans le sas de la bibliothèque</desc>
    <type>Delivrez bookcases</type>
    <extensions>
      <osmand:color>#ff5020</osmand:color>
      <osmand:background>square</osmand:background>
      <osmand:icon>public_bookcase</osmand:icon>
    </extensions>
  </wpt>
  <wpt lat="43.957889" lon="2.885895">
    <name>radio St Affrique</name>
    <desc>D'autres livres sont disponibles à l'intérieur de la radio</desc>
    <type>Delivrez bookcases</type>
    <extensions>
      <osmand:color>#ff5020</osmand:color>
      <osmand:background>square</osmand:background>
      <osmand:icon>public_bookcase</osmand:icon>
    </extensions>
  </wpt>
  <wpt lat="44.893128" lon="1.477742">
    <name>Souillac Avenue de Sarlat</name>
    <desc>École maternel</desc>
    <type>Delivrez bookcases</type>
    <extensions>
      <osmand:color>#ff5020</osmand:color>
      <osmand:background>square</osmand:background>
      <osmand:icon>public_bookcase</osmand:icon>
    </extensions>
  </wpt>
  <wpt lat="42.691367" lon="2.882309">
    <name>Avenue Julien Panchot</name>
    <desc>_</desc>
    <type>Delivrez bookcases</type>
    <extensions>
      <osmand:color>#ff5020</osmand:color>
      <osmand:background>square</osmand:background>
      <osmand:icon>public_bookcase</osmand:icon>
    </extensions>
  </wpt>
  <wpt lat="44.422278" lon="3.019043">
    <name>Saint-Saturnin de Lenne</name>
    <desc>a côté de la poste</desc>
    <type>Delivrez bookcases</type>
    <extensions>
      <osmand:color>#ff5020</osmand:color>
      <osmand:background>square</osmand:background>
      <osmand:icon>public_bookcase</osmand:icon>
    </extensions>
  </wpt>
  <wpt lat="44.552689" lon="3.291115">
    <name>Place Henri Cordesse</name>
    <desc>boîte a livres dans une cabine téléphonique</desc>
    <type>Delivrez bookcases</type>
    <extensions>
      <osmand:color>#ff5020</osmand:color>
      <osmand:background>square</osmand:background>
      <osmand:icon>public_bookcase</osmand:icon>
    </extensions>
  </wpt>
  <wpt lat="44.515282" lon="3.255148">
    <name>Avenue de la République</name>
    <desc>place Urbain V</desc>
    <type>Delivrez bookcases</type>
    <extensions>
      <osmand:color>#ff5020</osmand:color>
      <osmand:background>square</osmand:background>
      <osmand:icon>public_bookcase</osmand:icon>
    </extensions>
  </wpt>
  <wpt lat="44.855165" lon="3.331472">
    <name>Place du Foirail</name>
    <desc>sous un passage à droite de la poste</desc>
    <type>Delivrez bookcases</type>
    <extensions>
      <osmand:color>#ff5020</osmand:color>
      <osmand:background>square</osmand:background>
      <osmand:icon>public_bookcase</osmand:icon>
    </extensions>
  </wpt>
  <wpt lat="44.557716" lon="2.217523">
    <name>Avenue Jean Jaurès</name>
    <desc>cabine casier verte</desc>
    <type>Delivrez bookcases</type>
    <extensions>
      <osmand:color>#ff5020</osmand:color>
      <osmand:background>square</osmand:background>
      <osmand:icon>public_bookcase</osmand:icon>
    </extensions>
  </wpt>
  <wpt lat="44.276854" lon="2.43307">
    <name>Rue de l'Église</name>
    <desc>devant l'office de tourisme</desc>
    <type>Delivrez bookcases</type>
    <extensions>
      <osmand:color>#ff5020</osmand:color>
      <osmand:background>square</osmand:background>
      <osmand:icon>public_bookcase</osmand:icon>
    </extensions>
  </wpt>
  <wpt lat="44.409663" lon="2.637519">
    <name>place de la mairie</name>
    <desc>_</desc>
    <type>Delivrez bookcases</type>
    <extensions>
      <osmand:color>#ff5020</osmand:color>
      <osmand:background>square</osmand:background>
      <osmand:icon>public_bookcase</osmand:icon>
    </extensions>
  </wpt>
  <wpt lat="44.53867" lon="2.565236">
    <name>Rue du Couvent</name>
    <desc>dans jardin des senteurs</desc>
    <type>Delivrez bookcases</type>
    <extensions>
      <osmand:color>#ff5020</osmand:color>
      <osmand:background>square</osmand:background>
      <osmand:icon>public_bookcase</osmand:icon>
    </extensions>
  </wpt>
  <wpt lat="44.51518" lon="2.81471">
    <name>Rue de la Poterne</name>
    <desc>devant la mairie</desc>
    <type>Delivrez bookcases</type>
    <extensions>
      <osmand:color>#ff5020</osmand:color>
      <osmand:background>square</osmand:background>
      <osmand:icon>public_bookcase</osmand:icon>
    </extensions>
  </wpt>
  <wpt lat="44.859867" lon="1.891413">
    <name>Rue du Mazel</name>
    <desc>place Jean jaures sous la halle</desc>
    <type>Delivrez bookcases</type>
    <extensions>
      <osmand:color>#ff5020</osmand:color>
      <osmand:background>square</osmand:background>
      <osmand:icon>public_bookcase</osmand:icon>
    </extensions>
  </wpt>
  <wpt lat="43.950048" lon="0.200217">
    <name>Place de L Hôtel de ville</name>
    <desc>Dans un renfoncement sous les arcanes</desc>
    <type>Delivrez bookcases</type>
    <extensions>
      <osmand:color>#ff5020</osmand:color>
      <osmand:background>square</osmand:background>
      <osmand:icon>public_bookcase</osmand:icon>
    </extensions>
  </wpt>
  <wpt lat="43.95089" lon="0.361196">
    <name>Rue Lafontaine</name>
    <desc>Place Corneille</desc>
    <type>Delivrez bookcases</type>
    <extensions>
      <osmand:color>#ff5020</osmand:color>
      <osmand:background>square</osmand:background>
      <osmand:icon>public_bookcase</osmand:icon>
    </extensions>
  </wpt>
  <wpt lat="44.303721" lon="3.974314">
    <name>Place de la Mairie</name>
    <desc>_</desc>
    <type>Delivrez bookcases</type>
    <extensions>
      <osmand:color>#ff5020</osmand:color>
      <osmand:background>square</osmand:background>
      <osmand:icon>public_bookcase</osmand:icon>
    </extensions>
  </wpt>
  <wpt lat="44.081135" lon="4.126265">
    <name>Place de la Poste</name>
    <desc>_</desc>
    <type>Delivrez bookcases</type>
    <extensions>
      <osmand:color>#ff5020</osmand:color>
      <osmand:background>square</osmand:background>
      <osmand:icon>public_bookcase</osmand:icon>
    </extensions>
  </wpt>
  <wpt lat="43.552745" lon="1.188309">
    <name>Avenue du 19 Mars 1962</name>
    <desc>_</desc>
    <type>Delivrez bookcases</type>
    <extensions>
      <osmand:color>#ff5020</osmand:color>
      <osmand:background>square</osmand:background>
      <osmand:icon>public_bookcase</osmand:icon>
    </extensions>
  </wpt>
  <wpt lat="43.910905" lon="4.55001">
    <name>Rue des Bourgades</name>
    <desc>Sous le porche entre la poste et la mairie</desc>
    <type>Delivrez bookcases</type>
    <extensions>
      <osmand:color>#ff5020</osmand:color>
      <osmand:background>square</osmand:background>
      <osmand:icon>public_bookcase</osmand:icon>
    </extensions>
  </wpt>
  <wpt lat="42.961286" lon="-0.072779">
    <name>Rue Lamennais</name>
    <desc>sous l'abri de bus</desc>
    <type>Delivrez bookcases</type>
    <extensions>
      <osmand:color>#ff5020</osmand:color>
      <osmand:background>square</osmand:background>
      <osmand:icon>public_bookcase</osmand:icon>
    </extensions>
  </wpt>
  <wpt lat="42.962512" lon="-0.067697">
    <name>Rue de la Gare</name>
    <desc>deux boîtes à livres sur place</desc>
    <type>Delivrez bookcases</type>
    <extensions>
      <osmand:color>#ff5020</osmand:color>
      <osmand:background>square</osmand:background>
      <osmand:icon>public_bookcase</osmand:icon>
    </extensions>
  </wpt>
  <wpt lat="44.400055" lon="1.121225">
    <name>D656</name>
    <desc>Boîte sympa fixé sousle préau des toilettes de l'aire de repos..</desc>
    <type>Delivrez bookcases</type>
    <extensions>
      <osmand:color>#ff5020</osmand:color>
      <osmand:background>square</osmand:background>
      <osmand:icon>public_bookcase</osmand:icon>
    </extensions>
  </wpt>
  <wpt lat="43.852955" lon="4.627544">
    <name>Rue du Moulin d'Huile</name>
    <desc>face au foyer rural</desc>
    <type>Delivrez bookcases</type>
    <extensions>
      <osmand:color>#ff5020</osmand:color>
      <osmand:background>square</osmand:background>
      <osmand:icon>public_bookcase</osmand:icon>
    </extensions>
  </wpt>
  <wpt lat="44.001888" lon="1.360054">
    <name>Avenue Fernand Belondrade</name>
    <desc>au coin du salon de coiffure</desc>
    <type>Delivrez bookcases</type>
    <extensions>
      <osmand:color>#ff5020</osmand:color>
      <osmand:background>square</osmand:background>
      <osmand:icon>public_bookcase</osmand:icon>
    </extensions>
  </wpt>
  <wpt lat="44.052896" lon="1.172708">
    <name>Route des Cloutiers</name>
    <desc>Sise à l'école en primaire jolie boîte d'un bois sombre</desc>
    <type>Delivrez bookcases</type>
    <extensions>
      <osmand:color>#ff5020</osmand:color>
      <osmand:background>square</osmand:background>
      <osmand:icon>public_bookcase</osmand:icon>
    </extensions>
  </wpt>
  <wpt lat="43.606514" lon="3.430902">
    <name>Rue Jean Jaurès</name>
    <desc>_</desc>
    <type>Delivrez bookcases</type>
    <extensions>
      <osmand:color>#ff5020</osmand:color>
      <osmand:background>square</osmand:background>
      <osmand:icon>public_bookcase</osmand:icon>
    </extensions>
  </wpt>
  <wpt lat="44.070938" lon="0.899293">
    <name>Place de la Halle juste en son bas un jardinet</name>
    <desc>dans une armoire à l'abri vous trouverez souvent des livres anglais</desc>
    <type>Delivrez bookcases</type>
    <extensions>
      <osmand:color>#ff5020</osmand:color>
      <osmand:background>square</osmand:background>
      <osmand:icon>public_bookcase</osmand:icon>
    </extensions>
  </wpt>
  <wpt lat="43.616211" lon="1.24019">
    <name>Rue Marie De Saint Felix</name>
    <desc>boîte à livres Vival</desc>
    <type>Delivrez bookcases</type>
    <extensions>
      <osmand:color>#ff5020</osmand:color>
      <osmand:background>square</osmand:background>
      <osmand:icon>public_bookcase</osmand:icon>
    </extensions>
  </wpt>
  <wpt lat="43.691053" lon="4.274591">
    <name>Rue Voltaire</name>
    <desc>dans le rond-point</desc>
    <type>Delivrez bookcases</type>
    <extensions>
      <osmand:color>#ff5020</osmand:color>
      <osmand:background>square</osmand:background>
      <osmand:icon>public_bookcase</osmand:icon>
    </extensions>
  </wpt>
  <wpt lat="43.238579" lon="2.252046">
    <name>Avenue Paul Riquet</name>
    <desc>Au bord du canal du Midi</desc>
    <type>Delivrez bookcases</type>
    <extensions>
      <osmand:color>#ff5020</osmand:color>
      <osmand:background>square</osmand:background>
      <osmand:icon>public_bookcase</osmand:icon>
    </extensions>
  </wpt>
  <wpt lat="43.460386" lon="1.245023">
    <name>Route Principale</name>
    <desc>Espace jeune</desc>
    <type>Delivrez bookcases</type>
    <extensions>
      <osmand:color>#ff5020</osmand:color>
      <osmand:background>square</osmand:background>
      <osmand:icon>public_bookcase</osmand:icon>
    </extensions>
  </wpt>
  <wpt lat="42.971928" lon="2.998498">
    <name>Avenue de la Mer</name>
    <desc>boite au niveau  du complexe associatif</desc>
    <type>Delivrez bookcases</type>
    <extensions>
      <osmand:color>#ff5020</osmand:color>
      <osmand:background>square</osmand:background>
      <osmand:icon>public_bookcase</osmand:icon>
    </extensions>
  </wpt>
  <wpt lat="43.429071" lon="1.223362">
    <name>Place de l'Église</name>
    <desc>_</desc>
    <type>Delivrez bookcases</type>
    <extensions>
      <osmand:color>#ff5020</osmand:color>
      <osmand:background>square</osmand:background>
      <osmand:icon>public_bookcase</osmand:icon>
    </extensions>
  </wpt>
  <wpt lat="43.0883" lon="1.873807">
    <name>Place Maréchal Leclerc</name>
    <desc>boite a livre a droite de l'office du tourisme,  sous les galeries au niveau du dernier pilier</desc>
    <type>Delivrez bookcases</type>
    <extensions>
      <osmand:color>#ff5020</osmand:color>
      <osmand:background>square</osmand:background>
      <osmand:icon>public_bookcase</osmand:icon>
    </extensions>
  </wpt>
  <wpt lat="43.206439" lon="1.229191">
    <name>Livrolavoir</name>
    <desc>Dans le lavoir</desc>
    <type>Delivrez bookcases</type>
    <extensions>
      <osmand:color>#ff5020</osmand:color>
      <osmand:background>square</osmand:background>
      <osmand:icon>public_bookcase</osmand:icon>
    </extensions>
  </wpt>
  <wpt lat="43.442257" lon="1.291372">
    <name>Place Saint-Martin</name>
    <desc>A côté de l'église</desc>
    <type>Delivrez bookcases</type>
    <extensions>
      <osmand:color>#ff5020</osmand:color>
      <osmand:background>square</osmand:background>
      <osmand:icon>public_bookcase</osmand:icon>
    </extensions>
  </wpt>
  <wpt lat="43.209557" lon="1.228467">
    <name>Bibliolavoir</name>
    <desc>Dans le lavoir</desc>
    <type>Delivrez bookcases</type>
    <extensions>
      <osmand:color>#ff5020</osmand:color>
      <osmand:background>square</osmand:background>
      <osmand:icon>public_bookcase</osmand:icon>
    </extensions>
  </wpt>
  <wpt lat="44.291554" lon="2.72582">
    <name>camping du lac</name>
    <desc>boite a livres dans une cabine téléphonique</desc>
    <type>Delivrez bookcases</type>
    <extensions>
      <osmand:color>#ff5020</osmand:color>
      <osmand:background>square</osmand:background>
      <osmand:icon>public_bookcase</osmand:icon>
    </extensions>
  </wpt>
  <wpt lat="43.928038" lon="3.006266">
    <name>saint jean d'alcas</name>
    <desc>boite à livres sous l'abri bus à l'entrée du village</desc>
    <type>Delivrez bookcases</type>
    <extensions>
      <osmand:color>#ff5020</osmand:color>
      <osmand:background>square</osmand:background>
      <osmand:icon>public_bookcase</osmand:icon>
    </extensions>
  </wpt>
  <wpt lat="44.608914" lon="2.029439">
    <name>Rue Sainte-Marthe</name>
    <desc>grande boite à livre</desc>
    <type>Delivrez bookcases</type>
    <extensions>
      <osmand:color>#ff5020</osmand:color>
      <osmand:background>square</osmand:background>
      <osmand:icon>public_bookcase</osmand:icon>
    </extensions>
  </wpt>
  <wpt lat="44.100712" lon="3.078229">
    <name>Avenue de la République</name>
    <desc>boite à livres devant la mairie</desc>
    <type>Delivrez bookcases</type>
    <extensions>
      <osmand:color>#ff5020</osmand:color>
      <osmand:background>square</osmand:background>
      <osmand:icon>public_bookcase</osmand:icon>
    </extensions>
  </wpt>
  <wpt lat="43.571897" lon="1.243975">
    <name>Boulevard Albert Camus</name>
    <desc>_</desc>
    <type>Delivrez bookcases</type>
    <extensions>
      <osmand:color>#ff5020</osmand:color>
      <osmand:background>square</osmand:background>
      <osmand:icon>public_bookcase</osmand:icon>
    </extensions>
  </wpt>
  <wpt lat="43.04555" lon="1.62972">
    <name>VIVAL VARILHES</name>
    <desc>Little Free Library</desc>
    <type>Delivrez bookcases</type>
    <extensions>
      <osmand:color>#ff5020</osmand:color>
      <osmand:background>square</osmand:background>
      <osmand:icon>public_bookcase</osmand:icon>
    </extensions>
  </wpt>
  <wpt lat="43.83114" lon="1.4315">
    <name>VIVAL VILLAUDRIC</name>
    <desc>Little Free Library</desc>
    <type>Delivrez bookcases</type>
    <extensions>
      <osmand:color>#ff5020</osmand:color>
      <osmand:background>square</osmand:background>
      <osmand:icon>public_bookcase</osmand:icon>
    </extensions>
  </wpt>
  <wpt lat="43.17615" lon="0.97261">
    <name>VIVAL BOUSSENS</name>
    <desc>Little Free Library</desc>
    <type>Delivrez bookcases</type>
    <extensions>
      <osmand:color>#ff5020</osmand:color>
      <osmand:background>square</osmand:background>
      <osmand:icon>public_bookcase</osmand:icon>
    </extensions>
  </wpt>
  <wpt lat="42.53474" lon="2.99441">
    <name>VIVAL ARGELES SUR MER</name>
    <desc>Little Free Library</desc>
    <type>Delivrez bookcases</type>
    <extensions>
      <osmand:color>#ff5020</osmand:color>
      <osmand:background>square</osmand:background>
      <osmand:icon>public_bookcase</osmand:icon>
    </extensions>
  </wpt>
  <wpt lat="42.69416" lon="3.03388">
    <name>VIVAL CANET EN ROUSSILLON</name>
    <desc>Little Free Library</desc>
    <type>Delivrez bookcases</type>
    <extensions>
      <osmand:color>#ff5020</osmand:color>
      <osmand:background>square</osmand:background>
      <osmand:icon>public_bookcase</osmand:icon>
    </extensions>
  </wpt>
  <wpt lat="43.12982" lon="2.65213">
    <name>VIVAL CAMPLONG D'AUDE</name>
    <desc>Little Free Library</desc>
    <type>Delivrez bookcases</type>
    <extensions>
      <osmand:color>#ff5020</osmand:color>
      <osmand:background>square</osmand:background>
      <osmand:icon>public_bookcase</osmand:icon>
    </extensions>
  </wpt>
  <wpt lat="43.56666" lon="2.95944">
    <name>VIVAL MONS LA TRIVALLE</name>
    <desc>Little Free Library</desc>
    <type>Delivrez bookcases</type>
    <extensions>
      <osmand:color>#ff5020</osmand:color>
      <osmand:background>square</osmand:background>
      <osmand:icon>public_bookcase</osmand:icon>
    </extensions>
  </wpt>
  <wpt lat="42.76776" lon="3.03253">
    <name>VIVAL TORREILLES</name>
    <desc>Little Free Library</desc>
    <type>Delivrez bookcases</type>
    <extensions>
      <osmand:color>#ff5020</osmand:color>
      <osmand:background>square</osmand:background>
      <osmand:icon>public_bookcase</osmand:icon>
    </extensions>
  </wpt>
  <wpt lat="42.71029" lon="2.89775">
    <name>VIVAL PERPIGNAN</name>
    <desc>Little Free Library</desc>
    <type>Delivrez bookcases</type>
    <extensions>
      <osmand:color>#ff5020</osmand:color>
      <osmand:background>square</osmand:background>
      <osmand:icon>public_bookcase</osmand:icon>
    </extensions>
  </wpt>
  <wpt lat="42.95196" lon="1.96949">
    <name>VIVAL ST ECOLOMBE SUR L HERS</name>
    <desc>Little Free Library</desc>
    <type>Delivrez bookcases</type>
    <extensions>
      <osmand:color>#ff5020</osmand:color>
      <osmand:background>square</osmand:background>
      <osmand:icon>public_bookcase</osmand:icon>
    </extensions>
  </wpt>
  <wpt lat="44.67985" lon="1.26015">
    <name>VIVAL SALVIAC</name>
    <desc>Little Free Library</desc>
    <type>Delivrez bookcases</type>
    <extensions>
      <osmand:color>#ff5020</osmand:color>
      <osmand:background>square</osmand:background>
      <osmand:icon>public_bookcase</osmand:icon>
    </extensions>
  </wpt>
  <wpt lat="43.96611" lon="1.82138">
    <name>VIVAL CASTELNAU DE MONTMIRAL</name>
    <desc>Little Free Library</desc>
    <type>Delivrez bookcases</type>
    <extensions>
      <osmand:color>#ff5020</osmand:color>
      <osmand:background>square</osmand:background>
      <osmand:icon>public_bookcase</osmand:icon>
    </extensions>
  </wpt>
  <wpt lat="43.54263" lon="1.56664">
    <name>VIVAL AUZIELLE</name>
    <desc>Little Free Library</desc>
    <type>Delivrez bookcases</type>
    <extensions>
      <osmand:color>#ff5020</osmand:color>
      <osmand:background>square</osmand:background>
      <osmand:icon>public_bookcase</osmand:icon>
    </extensions>
  </wpt>
  <wpt lat="44.58305" lon="1.1625">
    <name>VIVAL FRAYSSINET LE GELAT</name>
    <desc>Little Free Library</desc>
    <type>Delivrez bookcases</type>
    <extensions>
      <osmand:color>#ff5020</osmand:color>
      <osmand:background>square</osmand:background>
      <osmand:icon>public_bookcase</osmand:icon>
    </extensions>
  </wpt>
  <wpt lat="42.68005" lon="2.94051">
    <name>VIVAL NARBONNE</name>
    <desc>Little Free Library</desc>
    <type>Delivrez bookcases</type>
    <extensions>
      <osmand:color>#ff5020</osmand:color>
      <osmand:background>square</osmand:background>
      <osmand:icon>public_bookcase</osmand:icon>
    </extensions>
  </wpt>
  <wpt lat="42.88305" lon="1.21527">
    <name>VIVAL OUST</name>
    <desc>Little Free Library</desc>
    <type>Delivrez bookcases</type>
    <extensions>
      <osmand:color>#ff5020</osmand:color>
      <osmand:background>square</osmand:background>
      <osmand:icon>public_bookcase</osmand:icon>
    </extensions>
  </wpt>
  <wpt lat="43.96194" lon="1.39083">
    <name>VIVAL MONTAUBAN</name>
    <desc>Little Free Library</desc>
    <type>Delivrez bookcases</type>
    <extensions>
      <osmand:color>#ff5020</osmand:color>
      <osmand:background>square</osmand:background>
      <osmand:icon>public_bookcase</osmand:icon>
    </extensions>
  </wpt>
  <wpt lat="43.78651" lon="-0.010055">
    <name>Lotissement Communal du Roux</name>
    <desc>a coté de l'église, sous le pigeonnier</desc>
    <type>Delivrez bookcases</type>
    <extensions>
      <osmand:color>#ff5020</osmand:color>
      <osmand:background>square</osmand:background>
      <osmand:icon>public_bookcase</osmand:icon>
    </extensions>
  </wpt>
  <wpt lat="43.582634" lon="1.347778">
    <name>Impasse Max Baylac</name>
    <desc>mediatheque tournefeuille</desc>
    <type>Delivrez bookcases</type>
    <extensions>
      <osmand:color>#ff5020</osmand:color>
      <osmand:background>square</osmand:background>
      <osmand:icon>public_bookcase</osmand:icon>
    </extensions>
  </wpt>
  <wpt lat="43.78651" lon="-0.010055">
    <name>Lotissement Communal du Roux</name>
    <desc>a coté de l'église, sous le pigeonnier</desc>
    <type>Delivrez bookcases</type>
    <extensions>
      <osmand:color>#ff5020</osmand:color>
      <osmand:background>square</osmand:background>
      <osmand:icon>public_bookcase</osmand:icon>
    </extensions>
  </wpt>
  <wpt lat="43.85775" lon="1.345065">
    <name>Les livres tournants</name>
    <desc>_</desc>
    <type>Delivrez bookcases</type>
    <extensions>
      <osmand:color>#ff5020</osmand:color>
      <osmand:background>square</osmand:background>
      <osmand:icon>public_bookcase</osmand:icon>
    </extensions>
  </wpt>
  <wpt lat="42.667428" lon="2.82246">
    <name>Angle de l Avenue de Thuir et de l'Avenue Pasteur</name>
    <desc>Mignonne boîte à lire réalisée par l association de la maison du citoyen de la ville.</desc>
    <type>Delivrez bookcases</type>
    <extensions>
      <osmand:color>#ff5020</osmand:color>
      <osmand:background>square</osmand:background>
      <osmand:icon>public_bookcase</osmand:icon>
    </extensions>
  </wpt>
  <wpt lat="43.579534" lon="3.060416">
    <name>devant Guinguette de Monsieur Cyclopède</name>
    <desc>Boite à lire de taille très modeste, mais idéalement situé sur la voie verte au niveau du parc de jeux pour enfant et de la guinguette.</desc>
    <type>Delivrez bookcases</type>
    <extensions>
      <osmand:color>#ff5020</osmand:color>
      <osmand:background>square</osmand:background>
      <osmand:icon>public_bookcase</osmand:icon>
    </extensions>
  </wpt>
  <wpt lat="43.093739" lon="-0.046544">
    <name>Place des hall</name>
    <desc>A priximite des halls, cote parking</desc>
    <type>Delivrez bookcases</type>
    <extensions>
      <osmand:color>#ff5020</osmand:color>
      <osmand:background>square</osmand:background>
      <osmand:icon>public_bookcase</osmand:icon>
    </extensions>
  </wpt>
  <wpt lat="44.371382" lon="3.524454">
    <name>Gorges du Tarn</name>
    <desc>Dans l'ancien local de ramassage scolaire, une boîte à livre en dur à deux pas de l'église.</desc>
    <type>Delivrez bookcases</type>
    <extensions>
      <osmand:color>#ff5020</osmand:color>
      <osmand:background>square</osmand:background>
      <osmand:icon>public_bookcase</osmand:icon>
    </extensions>
  </wpt>
  <wpt lat="43.652224" lon="1.840936">
    <name>Mairie de Marzens</name>
    <desc></desc>
    <type>Delivrez bookcases</type>
    <extensions>
      <osmand:color>#ff5020</osmand:color>
      <osmand:background>square</osmand:background>
      <osmand:icon>public_bookcase</osmand:icon>
    </extensions>
  </wpt>
  <wpt lat="42.707227" lon="2.8914">
    <name>Avenue maréchal joffre</name>
    <desc>A proximité de la mairie de quartier et du parc Després</desc>
    <type>Delivrez bookcases</type>
    <extensions>
      <osmand:color>#ff5020</osmand:color>
      <osmand:background>square</osmand:background>
      <osmand:icon>public_bookcase</osmand:icon>
    </extensions>
  </wpt>
  <wpt lat="44.156607" lon="4.628068">
    <name>Montée des Oliviers</name>
    <desc>Devant l'école Maria Montessori</desc>
    <type>Delivrez bookcases</type>
    <extensions>
      <osmand:color>#ff5020</osmand:color>
      <osmand:background>square</osmand:background>
      <osmand:icon>public_bookcase</osmand:icon>
    </extensions>
  </wpt>
  <wpt lat="44.155705" lon="4.614432">
    <name>rue Jacqueline Bret-André</name>
    <desc>Dans l'aire de jeux Bret-André : 2 boîtes.</desc>
    <type>Delivrez bookcases</type>
    <extensions>
      <osmand:color>#ff5020</osmand:color>
      <osmand:background>square</osmand:background>
      <osmand:icon>public_bookcase</osmand:icon>
    </extensions>
  </wpt>
  <wpt lat="44.838181" lon="3.375903">
    <name>Le Vernet</name>
    <desc>Les livres sont dans l'ancien four à pain au centre du village</desc>
    <type>Delivrez bookcases</type>
    <extensions>
      <osmand:color>#ff5020</osmand:color>
      <osmand:background>square</osmand:background>
      <osmand:icon>public_bookcase</osmand:icon>
    </extensions>
  </wpt>
  <wpt lat="44.803066" lon="3.276474">
    <name>La Poste</name>
    <desc>En bordure du petit parc derrière la Poste, sous un abri bus</desc>
    <type>Delivrez bookcases</type>
    <extensions>
      <osmand:color>#ff5020</osmand:color>
      <osmand:background>square</osmand:background>
      <osmand:icon>public_bookcase</osmand:icon>
    </extensions>
  </wpt>
  <wpt lat="43.934887" lon="3.708931">
    <name>Rue Frédéric mistral</name>
    <desc>Boîte à lire en face du café de la poste et du jardin public pour enfants</desc>
    <type>Delivrez bookcases</type>
    <extensions>
      <osmand:color>#ff5020</osmand:color>
      <osmand:background>square</osmand:background>
      <osmand:icon>public_bookcase</osmand:icon>
    </extensions>
  </wpt>
  <wpt lat="43.773104" lon="1.295764">
    <name>Quai de Garonne</name>
    <desc>La cabine se trouve sur les quais de Garonne, près de l'école maternelle  Bastide à l'intersection de la rue Castelbajac et des quais de Garonne.</desc>
    <type>Delivrez bookcases</type>
    <extensions>
      <osmand:color>#ff5020</osmand:color>
      <osmand:background>square</osmand:background>
      <osmand:icon>public_bookcase</osmand:icon>
    </extensions>
  </wpt>
  <wpt lat="43.31717" lon="2.874102">
    <name>6 route Agel</name>
    <desc>2 armoires métalliques devant un magasin de brocante, à côté du restaurant chez Jean-Marc.</desc>
    <type>Delivrez bookcases</type>
    <extensions>
      <osmand:color>#ff5020</osmand:color>
      <osmand:background>square</osmand:background>
      <osmand:icon>public_bookcase</osmand:icon>
    </extensions>
  </wpt>
  <wpt lat="43.9337" lon="2.141153">
    <name>87, boulevard Alsace Lorraine</name>
    <desc>Sur le murs extérieur de la maison de quartier de la Madeleine.</desc>
    <type>Delivrez bookcases</type>
    <extensions>
      <osmand:color>#ff5020</osmand:color>
      <osmand:background>square</osmand:background>
      <osmand:icon>public_bookcase</osmand:icon>
    </extensions>
  </wpt>