{
"type": "FeatureCollection",
"crs": { "type": "name", "properties": { "name": "urn:ogc:def:crs:OGC:1.3:CRS84" } },
"features": [
{ "type": "Feature", "properties": { "title": "Millefeuilles du square Monod", "type": "BSB", "observation": "boîte à livres accessible 24/24", "picture": null }, "geometry": { "type": "Point", "coordinates": [ 4.8288388, 45.7304838 ] } },
{ "type": "Feature", "properties": { "title": "la ville", "type": "BSB", "observation": "_", "picture": null }, "geometry": { "type": "Point", "coordinates": [ 5.8027338, 45.1738592 ] } },
{ "type": "Feature", "properties": { "title": "Mont de Lans Mairie", "type": "BSB", "observation": "_", "picture": "img.63b98905bc910.png" }, "geometry": { "type": "Point", "coordinates": [ 6.1304311, 45.0359933 ] } },
{ "type": "Feature", "properties": { "title": "Passage des Marguilliers", "type": "BSB", "observation": "superbe arbre à livres dans le jardin", "picture": "img.639ae8ba7363e.png" }, "geometry": { "type": "Point", "coordinates": [ 4.9968297, 45.7331826 ] } },
{ "type": "Feature", "properties": { "title": "Place Maxime Chantier", "type": "BSB", "observation": "dans le magasin SPAR", "picture": "img.638628a94b8f9.png" }, "geometry": { "type": "Point", "coordinates": [ 4.799318, 45.2400485 ] } },
{ "type": "Feature", "properties": { "title": "Place Maxime Chantier", "type": "BSB", "observation": "ce trouve au numéro 3 de la place Maxime Chantier", "picture": "img.6384a9d3c8d81.png" }, "geometry": { "type": "Point", "coordinates": [ 4.7989265, 45.2398825 ] } },
{ "type": "Feature", "properties": { "title": "Chemin de Ployé", "type": "BSB", "observation": "Au bord de la route", "picture": "img.636d1a4f640eb.png" }, "geometry": { "type": "Point", "coordinates": [ 4.8403589, 44.9285555 ] } },
{ "type": "Feature", "properties": { "title": "Rue Soeur Dominique", "type": "BSB", "observation": "_", "picture": "img.636a56b0a5f3f.png" }, "geometry": { "type": "Point", "coordinates": [ 4.8418655, 44.9455637 ] } },
{ "type": "Feature", "properties": { "title": "Montée Lucien Magnat", "type": "BSB", "observation": "ancienne cabine octogonale", "picture": null }, "geometry": { "type": "Point", "coordinates": [ 4.9080607, 45.5306156 ] } },
{ "type": "Feature", "properties": { "title": "Rue Charles Robin", "type": "BSB", "observation": "sur la place dans une belle cabine", "picture": null }, "geometry": { "type": "Point", "coordinates": [ 5.3268479, 46.2122613 ] } },
{ "type": "Feature", "properties": { "title": "Rue du Lavoir", "type": "BSB", "observation": "_", "picture": "img.63399ce91d788.png" }, "geometry": { "type": "Point", "coordinates": [ 5.1780858, 45.0778061 ] } },
{ "type": "Feature", "properties": { "title": "Place Moulin", "type": "BSB", "observation": "Dans l'entrée d'un particulier au numéro 1", "picture": "img.630a119830a9c.png" }, "geometry": { "type": "Point", "coordinates": [ 6.670296, 45.2031799 ] } },
{ "type": "Feature", "properties": { "title": "Route du Port", "type": "BSB", "observation": "Sur l'esplanade,  près des jeux pour enfants.", "picture": null }, "geometry": { "type": "Point", "coordinates": [ 6.1659345, 45.8337576 ] } },
{ "type": "Feature", "properties": { "title": "Route des Chavannes", "type": "BSB", "observation": "Lavoir", "picture": "img.62ffb6b69f368.png" }, "geometry": { "type": "Point", "coordinates": [ 6.28944, 45.6242112 ] } },
{ "type": "Feature", "properties": { "title": "Impasse des Mouettes", "type": "BSB", "observation": "Bord du lac,  près du ponton", "picture": "img.62fe5fb9eceab.png" }, "geometry": { "type": "Point", "coordinates": [ 6.1748313, 45.8433824 ] } },
{ "type": "Feature", "properties": { "title": "Boîte à livres", "type": "BSB", "observation": "Quelques ouvrages", "picture": null }, "geometry": { "type": "Point", "coordinates": [ 4.4444218, 44.7686141 ] } },
{ "type": "Feature", "properties": { "title": "Route des Droblesses", "type": "BSB", "observation": "Arrêt de bus", "picture": null }, "geometry": { "type": "Point", "coordinates": [ 6.1893818, 45.7979198 ] } },
{ "type": "Feature", "properties": { "title": "Route des Esserts", "type": "BSB", "observation": "vers l'abribus", "picture": null }, "geometry": { "type": "Point", "coordinates": [ 6.4113908, 46.3482027 ] } },
{ "type": "Feature", "properties": { "title": "Route du Lac Bleu", "type": "BSB", "observation": "à côté du poste de secours", "picture": null }, "geometry": { "type": "Point", "coordinates": [ 6.6795009, 46.0866412 ] } },
{ "type": "Feature", "properties": { "title": "Route des Gorges du Borne", "type": "BSB", "observation": "dans un oeuf!", "picture": null }, "geometry": { "type": "Point", "coordinates": [ 6.3752242, 46.057165 ] } },
{ "type": "Feature", "properties": { "title": "Route de Meylan", "type": "BSB", "observation": "a l'entrée du petit parc sous les immeubles", "picture": "img.62f374a4208d4.png" }, "geometry": { "type": "Point", "coordinates": [ 5.8041565, 45.238093 ] } },
{ "type": "Feature", "properties": { "title": "Chemin des Tières", "type": "BSB", "observation": "a coté de la pharmacie", "picture": "img.62f3720404355.png" }, "geometry": { "type": "Point", "coordinates": [ 5.8054288, 45.2365016 ] } },
{ "type": "Feature", "properties": { "title": "Le Village", "type": "BSB", "observation": "_", "picture": "img.61751946e40ea.png" }, "geometry": { "type": "Point", "coordinates": [ 4.4317057, 44.3059907 ] } },
{ "type": "Feature", "properties": { "title": "Saint Martin d'Hères Place de la Liberté", "type": "BSB", "observation": "en haut de la place à l'intersection des rues", "picture": "img.62ea4a4fa1be7.png" }, "geometry": { "type": "Point", "coordinates": [ 5.7681023, 45.1646816 ] } },
{ "type": "Feature", "properties": { "title": "Rue René Marssin", "type": "BSB", "observation": "sous la halle", "picture": "img.62eab1018ce98.png" }, "geometry": { "type": "Point", "coordinates": [ 3.1979256, 45.7702203 ] } },
{ "type": "Feature", "properties": { "title": "Chemin de l'Egue", "type": "BSB", "observation": "_", "picture": "img.62efbc6c6b217.png" }, "geometry": { "type": "Point", "coordinates": [ 3.2577997, 45.7941457 ] } },
{ "type": "Feature", "properties": { "title": "Route des Semaises", "type": "BSB", "observation": "_", "picture": "img.62ee3c377114b.png" }, "geometry": { "type": "Point", "coordinates": [ 5.8182021, 45.2290155 ] } },
{ "type": "Feature", "properties": { "title": "Chemin Clos Mars", "type": "BSB", "observation": "_", "picture": "img.62ee368a95634.png" }, "geometry": { "type": "Point", "coordinates": [ 5.8535602, 45.2404338 ] } },
{ "type": "Feature", "properties": { "title": "Avenue de Bouvard", "type": "BSB", "observation": "en face de l'eglise, pres de la pharmacie.", "picture": null }, "geometry": { "type": "Point", "coordinates": [ 6.1183075, 45.9026867 ] } },
{ "type": "Feature", "properties": { "title": "Rue Marius Blanchot", "type": "BSB", "observation": "dans une ancienne cabine téléphonique @@__rue en face de l eglise", "picture": "img.62ea49ffd7497.png" }, "geometry": { "type": "Point", "coordinates": [ 3.1412364, 45.7396968 ] } },
{ "type": "Feature", "properties": { "title": "Poisat École Jean Mermoz", "type": "BSB", "observation": "près de l'école, accessible librement", "picture": null }, "geometry": { "type": "Point", "coordinates": [ 5.7575387, 45.158468 ] } },
{ "type": "Feature", "properties": { "title": "Poisat Mairie", "type": "BSB", "observation": "à côté de l'entrée de la mairie", "picture": null }, "geometry": { "type": "Point", "coordinates": [ 5.7593204, 45.1593273 ] } },
{ "type": "Feature", "properties": { "title": "Bourg d'Arud", "type": "BSB", "observation": "À  droite du téléphérique", "picture": "img.62e8ee56b150c.png" }, "geometry": { "type": "Point", "coordinates": [ 6.1160956, 44.987432 ] } },
{ "type": "Feature", "properties": { "title": "Rue du Câble", "type": "BSB", "observation": "_", "picture": "img.62e63f306e1b2.png" }, "geometry": { "type": "Point", "coordinates": [ 6.1166448, 44.9899729 ] } },
{ "type": "Feature", "properties": { "title": "Boite à livre Sandrans", "type": "BSB", "observation": "Petite boîte à livres sous l'abri bus", "picture": "img.62e58b3e3a48b.png" }, "geometry": { "type": "Point", "coordinates": [ 4.9795483, 46.0636717 ] } },
{ "type": "Feature", "properties": { "title": "Place du Maréchal de Lattre de Tassigny", "type": "BSB", "observation": "boite a livre devant la bibliothèque", "picture": null }, "geometry": { "type": "Point", "coordinates": [ 5.2478569, 45.724961 ] } },
{ "type": "Feature", "properties": { "title": "Place du Centre", "type": "BSB", "observation": "_", "picture": null }, "geometry": { "type": "Point", "coordinates": [ 2.6900424, 45.5326902 ] } },
{ "type": "Feature", "properties": { "title": "Avenue Maréchal Randon", "type": "BSB", "observation": "proche musée de peonture", "picture": "img.629392431e1c5.png" }, "geometry": { "type": "Point", "coordinates": [ 5.7329801, 45.1939969 ] } },
{ "type": "Feature", "properties": { "title": "Place de l'Église", "type": "BSB", "observation": "boîte rouge devant la bibliothèque", "picture": null }, "geometry": { "type": "Point", "coordinates": [ 4.1082584, 46.1430749 ] } },
{ "type": "Feature", "properties": { "title": "Rue de la Mairie", "type": "BSB", "observation": "Installée dans une ancienne cabine téléphonique, juste devant l'école", "picture": null }, "geometry": { "type": "Point", "coordinates": [ 4.6218305, 44.7341434 ] } },
{ "type": "Feature", "properties": { "title": "setthe@gmail.com", "type": "BSB", "observation": "sur la place de la mairie", "picture": "img.628ccff33d734.png" }, "geometry": { "type": "Point", "coordinates": [ 5.3456668, 46.3827042 ] } },
{ "type": "Feature", "properties": { "title": "Rue Élie Cartan", "type": "BSB", "observation": "pendant les heures d ouverture.@@__", "picture": "img.627e3b2c27928.png" }, "geometry": { "type": "Point", "coordinates": [ 5.7447773, 45.1794268 ] } },
{ "type": "Feature", "properties": { "title": "setthe@gmail.com", "type": "BSB", "observation": "à l'entrée de la salle des fêtes", "picture": "img.62824370dac7b.png" }, "geometry": { "type": "Point", "coordinates": [ 4.8892984, 46.3340555 ] } },
{ "type": "Feature", "properties": { "title": "casier à livres", "type": "BSB", "observation": "casier à livres", "picture": "img.6282332c610c3.png" }, "geometry": { "type": "Point", "coordinates": [ 4.9985715, 46.2389951 ] } },
{ "type": "Feature", "properties": { "title": "Avenue Jean Perrin", "type": "BSB", "observation": "_", "picture": null }, "geometry": { "type": "Point", "coordinates": [ 4.773137, 44.3493601 ] } },
{ "type": "Feature", "properties": { "title": "laurianne.larderet@outlook.fr", "type": "BSB", "observation": "A l'intérieur du parc de la maison du fleuve Rhône", "picture": "img.6231feab46a7d.png" }, "geometry": { "type": "Point", "coordinates": [ 4.7750386, 45.584369 ] } },
{ "type": "Feature", "properties": { "title": "Rue de la Chocolaterie", "type": "BSB", "observation": "_", "picture": null }, "geometry": { "type": "Point", "coordinates": [ 4.7084138, 44.4386858 ] } },
{ "type": "Feature", "properties": { "title": "Lotissement les Genêts", "type": "BSB", "observation": "Face aux remparts", "picture": null }, "geometry": { "type": "Point", "coordinates": [ 4.7084705, 44.4472255 ] } },
{ "type": "Feature", "properties": { "title": "Boulevard du Défilé", "type": "BSB", "observation": "dans le parc quartier des Roches", "picture": null }, "geometry": { "type": "Point", "coordinates": [ 4.7052166, 44.4463023 ] } },
{ "type": "Feature", "properties": { "title": "Rue de la Colline", "type": "BSB", "observation": "Dans le parc quartier des Roches", "picture": null }, "geometry": { "type": "Point", "coordinates": [ 4.7050359, 44.4478944 ] } },
{ "type": "Feature", "properties": { "title": "Boulevard des Barrys", "type": "BSB", "observation": "dans le parc", "picture": null }, "geometry": { "type": "Point", "coordinates": [ 4.7074727, 44.4437406 ] } },
{ "type": "Feature", "properties": { "title": "Boîte à livre", "type": "BSB", "observation": "Devant la pharmacie", "picture": null }, "geometry": { "type": "Point", "coordinates": [ 6.2929581, 46.3508865 ] } },
{ "type": "Feature", "properties": { "title": "intermarché 1er etage", "type": "BSB", "observation": "_", "picture": null }, "geometry": { "type": "Point", "coordinates": [ 3.0668895, 45.7426033 ] } },
{ "type": "Feature", "properties": { "title": "la frênaie", "type": "BSB", "observation": "dans l'abri bus", "picture": null }, "geometry": { "type": "Point", "coordinates": [ 5.7952344, 45.1732837 ] } },
{ "type": "Feature", "properties": { "title": "venon mairie", "type": "BSB", "observation": "dans l'abri bus", "picture": null }, "geometry": { "type": "Point", "coordinates": [ 5.8047684, 45.171821 ] } },
{ "type": "Feature", "properties": { "title": "Pied de Venon", "type": "BSB", "observation": "dans l'abri bus", "picture": null }, "geometry": { "type": "Point", "coordinates": [ 5.7949748, 45.1750921 ] } },
{ "type": "Feature", "properties": { "title": "boite a livres CLM", "type": "BSB", "observation": "Angle des rues Paul Collomp et d'Amboise", "picture": null }, "geometry": { "type": "Point", "coordinates": [ 3.0919604, 45.7747544 ] } },
{ "type": "Feature", "properties": { "title": "Route de Bonneville", "type": "BSB", "observation": "_", "picture": null }, "geometry": { "type": "Point", "coordinates": [ 6.3543308, 46.1451771 ] } },
{ "type": "Feature", "properties": { "title": "Route de la Gare", "type": "BSB", "observation": "Dans abris bus près des conteneur de recyclage", "picture": null }, "geometry": { "type": "Point", "coordinates": [ 6.3025078, 46.2249778 ] } },
{ "type": "Feature", "properties": { "title": "Square du 29 Juin", "type": "BSB", "observation": "au centre de la ville parking à côté", "picture": "img.6180fef24a636.png" }, "geometry": { "type": "Point", "coordinates": [ 5.2926621, 45.0176943 ] } },
{ "type": "Feature", "properties": { "title": "Place de la mairie", "type": "BSB", "observation": "_", "picture": null }, "geometry": { "type": "Point", "coordinates": [ 6.4586427, 46.1381228 ] } },
{ "type": "Feature", "properties": { "title": "Rue des Granges", "type": "BSB", "observation": "Lavoire de detrier , Savoie", "picture": "img.617bb5d24240b.png" }, "geometry": { "type": "Point", "coordinates": [ 6.094504, 45.4459443 ] } },
{ "type": "Feature", "properties": { "title": "Chemin de la Chapelle", "type": "BSB", "observation": "dans un ancienne cabine téléphonique", "picture": null }, "geometry": { "type": "Point", "coordinates": [ 5.1030626, 45.4751511 ] } },
{ "type": "Feature", "properties": { "title": "boîte à livre de moulin", "type": "BSB", "observation": "place de la mairie", "picture": "img.61757802f015e.png" }, "geometry": { "type": "Point", "coordinates": [ 3.3327399, 46.5661357 ] } },
{ "type": "Feature", "properties": { "title": "Place de l'Eglise", "type": "BSB", "observation": "_", "picture": null }, "geometry": { "type": "Point", "coordinates": [ 6.4715843, 46.2489546 ] } },
{ "type": "Feature", "properties": { "title": "Route de Berardier", "type": "BSB", "observation": "Devant le Vival", "picture": null }, "geometry": { "type": "Point", "coordinates": [ 4.9091005, 45.5056971 ] } },
{ "type": "Feature", "properties": { "title": "Place de la Liberté", "type": "BSB", "observation": "petite boîte sur la place, en face de la poste", "picture": null }, "geometry": { "type": "Point", "coordinates": [ 4.7685604, 45.4532568 ] } },
{ "type": "Feature", "properties": { "title": "Chemin de l'Église", "type": "BSB", "observation": "petite boîte a côté des kinés", "picture": null }, "geometry": { "type": "Point", "coordinates": [ 4.8107467, 45.461747 ] } },
{ "type": "Feature", "properties": { "title": "Route de Fau", "type": "BSB", "observation": "Boite à livre à l'entrée de l'hopital", "picture": null }, "geometry": { "type": "Point", "coordinates": [ 3.5203184, 45.8558318 ] } },
{ "type": "Feature", "properties": { "title": "Route du Chef Lieu", "type": "BSB", "observation": "dans l'abribus", "picture": null }, "geometry": { "type": "Point", "coordinates": [ 6.3427369, 46.1596014 ] } },
{ "type": "Feature", "properties": { "title": "Rue Perrine", "type": "BSB", "observation": "facade du magasin Unalome", "picture": null }, "geometry": { "type": "Point", "coordinates": [ 6.311335, 46.0659256 ] } },
{ "type": "Feature", "properties": { "title": "Place du Tilleul", "type": "BSB", "observation": "sur la facade d'une maison@@__boite mal protégée de la pluie!", "picture": null }, "geometry": { "type": "Point", "coordinates": [ 6.2999883, 46.0931298 ] } },
{ "type": "Feature", "properties": { "title": "Place de l'Église", "type": "BSB", "observation": "_", "picture": null }, "geometry": { "type": "Point", "coordinates": [ 5.0621644, 44.6463088 ] } },
{ "type": "Feature", "properties": { "title": "Avenue des Raux", "type": "BSB", "observation": "Cabine téléphonique jaune", "picture": null }, "geometry": { "type": "Point", "coordinates": [ 2.4208201, 44.9915887 ] } },
{ "type": "Feature", "properties": { "title": "lire rêver s'évader", "type": "BSB", "observation": "Après l'entrée via le parking", "picture": null }, "geometry": { "type": "Point", "coordinates": [ 2.485651, 45.0518463 ] } },
{ "type": "Feature", "properties": { "title": "D52", "type": "BSB", "observation": "ancienne cabine téléphonique sur la place", "picture": null }, "geometry": { "type": "Point", "coordinates": [ 5.1222872, 45.1450871 ] } },
{ "type": "Feature", "properties": { "title": "Rue du Collège", "type": "BSB", "observation": "_", "picture": null }, "geometry": { "type": "Point", "coordinates": [ 2.3305219, 45.2169086 ] } },
{ "type": "Feature", "properties": { "title": "Boulevard du 11 Novembre", "type": "BSB", "observation": "dans la cabine téléphonique", "picture": null }, "geometry": { "type": "Point", "coordinates": [ 4.4565523, 45.6304862 ] } },
{ "type": "Feature", "properties": { "title": "Boulevard Ravel de Malval", "type": "BSB", "observation": "a l'angle du marché", "picture": null }, "geometry": { "type": "Point", "coordinates": [ 4.372911, 45.529184 ] } },
{ "type": "Feature", "properties": { "title": "Rue des Érables", "type": "BSB", "observation": "devant mairie, à côté bibliothèque municipale", "picture": null }, "geometry": { "type": "Point", "coordinates": [ 4.370539, 45.5656228 ] } },
{ "type": "Feature", "properties": { "title": "Rue blanche", "type": "BSB", "observation": "Galerie Marchande Lenanska'do@@__petite boîte style pallete @@__une rangé  de livre @@__", "picture": null }, "geometry": { "type": "Point", "coordinates": [ 6.258325, 45.2549095 ] } },
{ "type": "Feature", "properties": { "title": "Place du 4 Avril 1929", "type": "BSB", "observation": "dans l'abri bus", "picture": null }, "geometry": { "type": "Point", "coordinates": [ 5.6303477, 45.1706841 ] } },
{ "type": "Feature", "properties": { "title": "Place du Bosquet", "type": "BSB", "observation": "_", "picture": null }, "geometry": { "type": "Point", "coordinates": [ 3.2686412, 45.3865002 ] } },
{ "type": "Feature", "properties": { "title": "D32", "type": "BSB", "observation": "cabine téléphonique", "picture": null }, "geometry": { "type": "Point", "coordinates": [ 2.1817084, 44.9018661 ] } },
{ "type": "Feature", "properties": { "title": "jardin lecocq", "type": "BSB", "observation": "a l'entrée du jardin dans une cabine téléphonique", "picture": null }, "geometry": { "type": "Point", "coordinates": [ 3.0871133, 45.7736546 ] } },
{ "type": "Feature", "properties": { "title": "D224", "type": "BSB", "observation": "a côté de l'abris bus", "picture": null }, "geometry": { "type": "Point", "coordinates": [ 3.410958, 45.899549 ] } },
{ "type": "Feature", "properties": { "title": "square verdun", "type": "BSB", "observation": "située à gauche du monument aux morts", "picture": null }, "geometry": { "type": "Point", "coordinates": [ 3.5481337, 45.856643 ] } },
{ "type": "Feature", "properties": { "title": "square du 8 mai", "type": "BSB", "observation": "située dans une tour au milieu du square", "picture": null }, "geometry": { "type": "Point", "coordinates": [ 3.3420595, 45.7229468 ] } },
{ "type": "Feature", "properties": { "title": "Route du Col de Plainpalais", "type": "BSB", "observation": "arrêt de bus", "picture": null }, "geometry": { "type": "Point", "coordinates": [ 6.0133156, 45.6117007 ] } },
{ "type": "Feature", "properties": { "title": "Avenue de Chambéry", "type": "BSB", "observation": "agence Immobilier Laforêt", "picture": null }, "geometry": { "type": "Point", "coordinates": [ 5.9848871, 45.549145 ] } },
{ "type": "Feature", "properties": { "title": "Montée de la Grande-Côte", "type": "BSB", "observation": "boîte à livres et boîte à dons", "picture": null }, "geometry": { "type": "Point", "coordinates": [ 4.8318077, 45.7719397 ] } },
{ "type": "Feature", "properties": { "title": "Rue de la Croix", "type": "BSB", "observation": "ancienne cabine téléphonique  en face du tabac", "picture": null }, "geometry": { "type": "Point", "coordinates": [ 5.9424426, 45.5807272 ] } },
{ "type": "Feature", "properties": { "title": "Rue du Collège", "type": "BSB", "observation": "dans le parc", "picture": null }, "geometry": { "type": "Point", "coordinates": [ 2.3306161, 45.216959 ] } },
{ "type": "Feature", "properties": { "title": "Rue du Pont", "type": "BSB", "observation": "sur la place", "picture": null }, "geometry": { "type": "Point", "coordinates": [ 2.1899974, 44.9677287 ] } },
{ "type": "Feature", "properties": { "title": "Rue du Sallin", "type": "BSB", "observation": "boite à livre orange devant l 'hangar associatif", "picture": null }, "geometry": { "type": "Point", "coordinates": [ 4.9981302, 45.4734203 ] } },
{ "type": "Feature", "properties": { "title": "place du breuil", "type": "BSB", "observation": "entre l'école st firmin et la mairie ( devant l'accès handicapés et poussette de cette dernière)", "picture": null }, "geometry": { "type": "Point", "coordinates": [ 4.2873992, 45.3890278 ] } },
{ "type": "Feature", "properties": { "title": "Place du Commerce", "type": "BSB", "observation": "_", "picture": null }, "geometry": { "type": "Point", "coordinates": [ 2.3463231, 44.8833547 ] } },
{ "type": "Feature", "properties": { "title": "parc d unieux", "type": "BSB", "observation": "deux boites a côté du jeux pour les tout petit", "picture": null }, "geometry": { "type": "Point", "coordinates": [ 4.2611285, 45.3972339 ] } },
{ "type": "Feature", "properties": { "title": "Chemin des Jardins", "type": "BSB", "observation": "au bord de la route", "picture": null }, "geometry": { "type": "Point", "coordinates": [ 6.2284867, 46.1805841 ] } },
{ "type": "Feature", "properties": { "title": "Route de Hauteville", "type": "BSB", "observation": "à côté du terrain de boules", "picture": null }, "geometry": { "type": "Point", "coordinates": [ 6.2601807, 46.1735046 ] } },
{ "type": "Feature", "properties": { "title": "D103", "type": "BSB", "observation": "face à la maorie", "picture": null }, "geometry": { "type": "Point", "coordinates": [ 5.4494974, 45.0510556 ] } },
{ "type": "Feature", "properties": { "title": "Chemin de la Ferme", "type": "BSB", "observation": "École Mandela", "picture": null }, "geometry": { "type": "Point", "coordinates": [ 6.0730004, 46.1431899 ] } },
{ "type": "Feature", "properties": { "title": "Route des Pommeraies", "type": "BSB", "observation": "_", "picture": null }, "geometry": { "type": "Point", "coordinates": [ 6.1370861, 46.1260096 ] } },
{ "type": "Feature", "properties": { "title": "Place des Écoles", "type": "BSB", "observation": "_", "picture": null }, "geometry": { "type": "Point", "coordinates": [ 4.8680048, 45.4070004 ] } },
{ "type": "Feature", "properties": { "title": "Rue Jean de la Bruyère", "type": "BSB", "observation": "petite cabane à livres", "picture": null }, "geometry": { "type": "Point", "coordinates": [ 4.0862869, 46.0192109 ] } },
{ "type": "Feature", "properties": { "title": "Rue Fernand David", "type": "BSB", "observation": "Au moulin de Cara", "picture": null }, "geometry": { "type": "Point", "coordinates": [ 6.2556627, 46.2080703 ] } },
{ "type": "Feature", "properties": { "title": "Place du Jumelage", "type": "BSB", "observation": "Devant la maison Nelson Mandela", "picture": null }, "geometry": { "type": "Point", "coordinates": [ 6.244304, 46.1855733 ] } },
{ "type": "Feature", "properties": { "title": "Les Hermasses", "type": "BSB", "observation": "sous un porche", "picture": null }, "geometry": { "type": "Point", "coordinates": [ 5.2535901, 44.4071001 ] } },
{ "type": "Feature", "properties": { "title": "Route de Frangy", "type": "BSB", "observation": "Allée au dessus de la place", "picture": null }, "geometry": { "type": "Point", "coordinates": [ 6.037757, 46.1168827 ] } },
{ "type": "Feature", "properties": { "title": "Place de l'Église", "type": "BSB", "observation": "_", "picture": null }, "geometry": { "type": "Point", "coordinates": [ 5.6640934, 44.7646066 ] } },
{ "type": "Feature", "properties": { "title": "Rue Jean Jaurès", "type": "BSB", "observation": "a coté du lavoir", "picture": null }, "geometry": { "type": "Point", "coordinates": [ 4.7612474, 44.6573304 ] } },
{ "type": "Feature", "properties": { "title": "sur la place", "type": "BSB", "observation": "petit châlet", "picture": null }, "geometry": { "type": "Point", "coordinates": [ 4.5853879, 45.9212538 ] } },
{ "type": "Feature", "properties": { "title": "Rue de la Mairie", "type": "BSB", "observation": "devant la mairie", "picture": null }, "geometry": { "type": "Point", "coordinates": [ 4.7674499, 45.4640504 ] } },
{ "type": "Feature", "properties": { "title": "Rue Henri Jaccaz", "type": "BSB", "observation": "_", "picture": null }, "geometry": { "type": "Point", "coordinates": [ 6.2604476, 46.2028582 ] } },
{ "type": "Feature", "properties": { "title": "Bibliothèque du Châble", "type": "BSB", "observation": "_", "picture": null }, "geometry": { "type": "Point", "coordinates": [ 6.1015363, 46.0944181 ] } },
{ "type": "Feature", "properties": { "title": "Place de l'Église", "type": "BSB", "observation": "_", "picture": null }, "geometry": { "type": "Point", "coordinates": [ 6.133079, 46.1350378 ] } },
{ "type": "Feature", "properties": { "title": "Route de Beaumont", "type": "BSB", "observation": "_", "picture": null }, "geometry": { "type": "Point", "coordinates": [ 6.127359, 46.120707 ] } },
{ "type": "Feature", "properties": { "title": "Chemin Neuf", "type": "BSB", "observation": "Cabine téléphonique reconvertie", "picture": null }, "geometry": { "type": "Point", "coordinates": [ 6.1039892, 46.1206596 ] } },
{ "type": "Feature", "properties": { "title": "Place des Anciens Combattants", "type": "BSB", "observation": "cabine a livre en face de la presse", "picture": null }, "geometry": { "type": "Point", "coordinates": [ 4.7586069, 45.3523618 ] } },
{ "type": "Feature", "properties": { "title": "Avenue Mendès France", "type": "BSB", "observation": "à l'entrée du stade", "picture": null }, "geometry": { "type": "Point", "coordinates": [ 4.6952389, 44.4811482 ] } },
{ "type": "Feature", "properties": { "title": "Place de Presberg", "type": "BSB", "observation": "une belle boites à livres près du parking", "picture": null }, "geometry": { "type": "Point", "coordinates": [ 4.5835891, 45.9487816 ] } },
{ "type": "Feature", "properties": { "title": "32 Rue Sermorens", "type": "BSB", "observation": "boite rouge au mur", "picture": null }, "geometry": { "type": "Point", "coordinates": [ 5.5887298, 45.3686966 ] } },
{ "type": "Feature", "properties": { "title": "Route de Péage", "type": "BSB", "observation": "sous l'arrêt de bus", "picture": null }, "geometry": { "type": "Point", "coordinates": [ 4.7700197, 45.4398395 ] } },
{ "type": "Feature", "properties": { "title": "Faubourg la Trau", "type": "BSB", "observation": "@@__devant l'ecole", "picture": null }, "geometry": { "type": "Point", "coordinates": [ 4.6891692, 44.4814343 ] } },
{ "type": "Feature", "properties": { "title": "Lotissement les Prés Bompart", "type": "BSB", "observation": "sur  l avenue des cevennes fixée sur la grille blanche devant le figuier du potager", "picture": null }, "geometry": { "type": "Point", "coordinates": [ 4.8347148, 44.7712875 ] } },
{ "type": "Feature", "properties": { "title": "Place Abbé Magnet", "type": "BSB", "observation": "Devant l'office de tourisme", "picture": null }, "geometry": { "type": "Point", "coordinates": [ 5.0659382, 44.5258569 ] } },
{ "type": "Feature", "properties": { "title": "Grand Rue", "type": "BSB", "observation": "Devant la boulangerie", "picture": null }, "geometry": { "type": "Point", "coordinates": [ 4.8345937, 44.6984998 ] } },
{ "type": "Feature", "properties": { "title": "Avenue vaillant couturier", "type": "BSB", "observation": "En face de l'école", "picture": null }, "geometry": { "type": "Point", "coordinates": [ 4.6733273, 44.5429881 ] } },
{ "type": "Feature", "properties": { "title": "Place de la Roubine", "type": "BSB", "observation": "Devant l'ecole", "picture": null }, "geometry": { "type": "Point", "coordinates": [ 4.6893605, 44.4844129 ] } },
{ "type": "Feature", "properties": { "title": "Rue Raspail", "type": "BSB", "observation": "Au 11 de la rue raspail", "picture": null }, "geometry": { "type": "Point", "coordinates": [ 4.879991, 45.7733513 ] } },
{ "type": "Feature", "properties": { "title": "Rue du 4 Août 1789", "type": "BSB", "observation": "Petite boîte à dons", "picture": null }, "geometry": { "type": "Point", "coordinates": [ 4.9002321, 45.7657938 ] } },
{ "type": "Feature", "properties": { "title": "Rue de Gratignol", "type": "BSB", "observation": "_", "picture": null }, "geometry": { "type": "Point", "coordinates": [ 4.7154442, 45.2550506 ] } },
{ "type": "Feature", "properties": { "title": "Place de France", "type": "BSB", "observation": "sur la place, sous l'abri", "picture": null }, "geometry": { "type": "Point", "coordinates": [ 4.8196453, 45.317961 ] } },
{ "type": "Feature", "properties": { "title": "Route de Vourles", "type": "BSB", "observation": "dans le hall  d'entrée  du pavillon Bourret à l'hôpital Henry Gabriel", "picture": null }, "geometry": { "type": "Point", "coordinates": [ 4.7909287, 45.6905047 ] } },
{ "type": "Feature", "properties": { "title": "Boîte à livres du Village", "type": "BSB", "observation": "_", "picture": null }, "geometry": { "type": "Point", "coordinates": [ 5.2635972, 44.7528142 ] } },
{ "type": "Feature", "properties": { "title": "Rue Pierre Avit Nicolas", "type": "BSB", "observation": "joli \"arbre boîte à livres\" devant l'entrée du foyer Laurent  Bouvier", "picture": null }, "geometry": { "type": "Point", "coordinates": [ 4.813571, 45.3462494 ] } },
{ "type": "Feature", "properties": { "title": "Place P Allignol", "type": "BSB", "observation": "Devant la mairie", "picture": null }, "geometry": { "type": "Point", "coordinates": [ 4.6913039, 44.4806939 ] } },
{ "type": "Feature", "properties": { "title": "Rue Louis Pasteur", "type": "BSB", "observation": "petite maison en bois dans @@__passage pieton \"allée des jardins de la soie\"", "picture": null }, "geometry": { "type": "Point", "coordinates": [ 4.8018961, 45.3570736 ] } },
{ "type": "Feature", "properties": { "title": "Chemin du Grand Revoyet", "type": "BSB", "observation": "Dans l'hôpital lyon sud. Étagère  dans le hall du bâtiment 3C, entre distributeurs de boisson et ascenseurs.", "picture": null }, "geometry": { "type": "Point", "coordinates": [ 4.8072885, 45.7013449 ] } },
{ "type": "Feature", "properties": { "title": "cite medievale", "type": "BSB", "observation": "_", "picture": null }, "geometry": { "type": "Point", "coordinates": [ 5.1651767, 45.8649171 ] } },
{ "type": "Feature", "properties": { "title": "Rue du Pressoir", "type": "BSB", "observation": "boîte orange", "picture": null }, "geometry": { "type": "Point", "coordinates": [ 4.9802404, 45.4993783 ] } },
{ "type": "Feature", "properties": { "title": "Rue du Village", "type": "BSB", "observation": "Dans le mur à gauche du monument aux morts, devant l'église.", "picture": null }, "geometry": { "type": "Point", "coordinates": [ 4.7930291, 45.4444038 ] } },
{ "type": "Feature", "properties": { "title": "Rue Grande", "type": "BSB", "observation": "Dans un ancien frigo, devant le Proxi", "picture": null }, "geometry": { "type": "Point", "coordinates": [ 4.8115634, 45.3727339 ] } },
{ "type": "Feature", "properties": { "title": "Rue Marquis de la Baume", "type": "BSB", "observation": "à côté de l'Église. sur une petite place avec des bancs.", "picture": null }, "geometry": { "type": "Point", "coordinates": [ 4.752412, 44.3926748 ] } },
{ "type": "Feature", "properties": { "title": "Place du Gros Tilleul", "type": "BSB", "observation": "a côté de la mairie contre le mur de l eglise", "picture": null }, "geometry": { "type": "Point", "coordinates": [ 6.7271458, 46.0835581 ] } },
{ "type": "Feature", "properties": { "title": "angle Grande Rue rue des glaciers", "type": "BSB", "observation": "dans le square@@__", "picture": null }, "geometry": { "type": "Point", "coordinates": [ 6.7237673, 46.0840389 ] } },
{ "type": "Feature", "properties": { "title": "Boite a livres de l'école de Vancia", "type": "BSB", "observation": "dans le square à côté de l'école", "picture": null }, "geometry": { "type": "Point", "coordinates": [ 4.9108952, 45.833849 ] } },
{ "type": "Feature", "properties": { "title": "Boite à livres de la Velette", "type": "BSB", "observation": "juste devant l'entrée du centre social de la Velette à Rillieux", "picture": null }, "geometry": { "type": "Point", "coordinates": [ 4.9041345, 45.8143904 ] } },
{ "type": "Feature", "properties": { "title": "Parc Brosset", "type": "BSB", "observation": "_", "picture": null }, "geometry": { "type": "Point", "coordinates": [ 4.8973514, 45.8218602 ] } },
{ "type": "Feature", "properties": { "title": "Rue du Centre", "type": "BSB", "observation": "boite à livres", "picture": null }, "geometry": { "type": "Point", "coordinates": [ 4.7793375, 46.1056688 ] } },
{ "type": "Feature", "properties": { "title": "Le Bourg", "type": "BSB", "observation": "_", "picture": null }, "geometry": { "type": "Point", "coordinates": [ 3.6129966, 46.6548893 ] } },
{ "type": "Feature", "properties": { "title": "Lotissement le Verger", "type": "BSB", "observation": "Dans le magasin super U à droite en rentrant", "picture": null }, "geometry": { "type": "Point", "coordinates": [ 4.7201274, 44.489682 ] } },
{ "type": "Feature", "properties": { "title": "Boite à livres Parc de la Tête d'Or", "type": "BSB", "observation": "Taillée dans un tronc d'arbre, avec un toit", "picture": null }, "geometry": { "type": "Point", "coordinates": [ 4.8582551, 45.7749365 ] } },
{ "type": "Feature", "properties": { "title": "Le Village", "type": "BSB", "observation": "immense étagère à livres à côté de la boulangerie... avec de belles trouvailles ce jour.", "picture": null }, "geometry": { "type": "Point", "coordinates": [ 4.7905625, 44.3313887 ] } },
{ "type": "Feature", "properties": { "title": "Chemin de Cézanne", "type": "BSB", "observation": "_", "picture": null }, "geometry": { "type": "Point", "coordinates": [ 4.8185303, 44.5183181 ] } },
{ "type": "Feature", "properties": { "title": "Anne Marie PERRON", "type": "BSB", "observation": "Little Free Library", "picture": null }, "geometry": { "type": "Point", "coordinates": [ 3.16156, 45.54557 ] } },
{ "type": "Feature", "properties": { "title": "VIVAL ETOILE SUR RHONE", "type": "BSB", "observation": "Little Free Library", "picture": null }, "geometry": { "type": "Point", "coordinates": [ 4.89593, 44.83682 ] } },
{ "type": "Feature", "properties": { "title": "VIVAL AUSSOIS", "type": "BSB", "observation": "Little Free Library", "picture": null }, "geometry": { "type": "Point", "coordinates": [ 6.74055, 45.61917 ] } },
{ "type": "Feature", "properties": { "title": "VIVAL CHAVANOZ", "type": "BSB", "observation": "Little Free Library", "picture": null }, "geometry": { "type": "Point", "coordinates": [ 5.196, 45.76726 ] } },
{ "type": "Feature", "properties": { "title": "VIVAL LA MOTTE CHALANCON", "type": "BSB", "observation": "Little Free Library", "picture": null }, "geometry": { "type": "Point", "coordinates": [ 5.38204, 44.48591 ] } },
{ "type": "Feature", "properties": { "title": "VIVAL THIZY", "type": "BSB", "observation": "Little Free Library", "picture": null }, "geometry": { "type": "Point", "coordinates": [ 4.3113, 46.03132 ] } },
{ "type": "Feature", "properties": { "title": "VIVAL LALLEY", "type": "BSB", "observation": "Little Free Library", "picture": null }, "geometry": { "type": "Point", "coordinates": [ 5.67583, 44.75888 ] } },
{ "type": "Feature", "properties": { "title": "VIVAL JAUJAC", "type": "BSB", "observation": "Little Free Library", "picture": null }, "geometry": { "type": "Point", "coordinates": [ 4.2564, 44.6363 ] } },
{ "type": "Feature", "properties": { "title": "VIVAL CHAPONNAY", "type": "BSB", "observation": "Little Free Library", "picture": null }, "geometry": { "type": "Point", "coordinates": [ 4.93418, 45.62794 ] } },
{ "type": "Feature", "properties": { "title": "VIVAL GROISY", "type": "BSB", "observation": "Little Free Library", "picture": null }, "geometry": { "type": "Point", "coordinates": [ 6.16954, 46.00909 ] } },
{ "type": "Feature", "properties": { "title": "VIVAL SILLINGY", "type": "BSB", "observation": "Little Free Library", "picture": null }, "geometry": { "type": "Point", "coordinates": [ 6.03445, 45.94643 ] } },
{ "type": "Feature", "properties": { "title": "VIVAL CHAMPFROMIER", "type": "BSB", "observation": "Little Free Library", "picture": null }, "geometry": { "type": "Point", "coordinates": [ 5.81583, 46.19444 ] } },
{ "type": "Feature", "properties": { "title": "VIVAL BALAN", "type": "BSB", "observation": "Little Free Library", "picture": null }, "geometry": { "type": "Point", "coordinates": [ 5.09805, 45.83388 ] } },
{ "type": "Feature", "properties": { "title": "VIVAL YTRAC", "type": "BSB", "observation": "Little Free Library", "picture": null }, "geometry": { "type": "Point", "coordinates": [ 2.36232, 44.91411 ] } },
{ "type": "Feature", "properties": { "title": "Rue des Grands Charmes", "type": "BSB", "observation": "_", "picture": null }, "geometry": { "type": "Point", "coordinates": [ 3.4198664, 46.1500264 ] } },
{ "type": "Feature", "properties": { "title": "Au Pont", "type": "BSB", "observation": "devant le vival", "picture": null }, "geometry": { "type": "Point", "coordinates": [ 5.5399714, 46.1279388 ] } },
{ "type": "Feature", "properties": { "title": "Avenue Charles de Gaulle", "type": "BSB", "observation": "_", "picture": null }, "geometry": { "type": "Point", "coordinates": [ 4.7473677, 44.5578238 ] } },
{ "type": "Feature", "properties": { "title": "Rue Anatole France", "type": "BSB", "observation": "devant le musée de la grande vapeur", "picture": null }, "geometry": { "type": "Point", "coordinates": [ 5.6581975, 46.2606225 ] } },
{ "type": "Feature", "properties": { "title": "Rue Paul Painlevé", "type": "BSB", "observation": "en face du vival", "picture": null }, "geometry": { "type": "Point", "coordinates": [ 5.6073138, 46.1516781 ] } },
{ "type": "Feature", "properties": { "title": "Rue de la Nation", "type": "BSB", "observation": "vers l'arrêt de bus", "picture": null }, "geometry": { "type": "Point", "coordinates": [ 4.7008615, 45.8985473 ] } },
{ "type": "Feature", "properties": { "title": "Rue du Grand Fossé", "type": "BSB", "observation": "vers la Poste", "picture": null }, "geometry": { "type": "Point", "coordinates": [ 4.7711542, 45.8737868 ] } },
{ "type": "Feature", "properties": { "title": "place de la mairie", "type": "BSB", "observation": "_", "picture": null }, "geometry": { "type": "Point", "coordinates": [ 4.1136318, 46.1450648 ] } },
{ "type": "Feature", "properties": { "title": "542 Route du Tramway", "type": "BSB", "observation": "Un grand congélateur à tiroirs devant la mairie", "picture": null }, "geometry": { "type": "Point", "coordinates": [ 5.2299247, 45.3208527 ] } },
{ "type": "Feature", "properties": { "title": "2 rue des Voconces", "type": "BSB", "observation": "Devant la Pharmacie des Antignans", "picture": null }, "geometry": { "type": "Point", "coordinates": [ 5.1269242, 44.3554694 ] } },
{ "type": "Feature", "properties": { "title": "Parc devant gare SNCF", "type": "BSB", "observation": "", "picture": null }, "geometry": { "type": "Point", "coordinates": [ 3.3388414, 46.5613425 ] } },
{ "type": "Feature", "properties": { "title": "Rue des halles", "type": "BSB", "observation": "Sous les halles, dans le centre du village", "picture": null }, "geometry": { "type": "Point", "coordinates": [ 5.343913, 45.339115 ] } },
{ "type": "Feature", "properties": { "title": "place du marché", "type": "BSB", "observation": "dans une armoire peinte, sous la halle", "picture": null }, "geometry": { "type": "Point", "coordinates": [ 5.217543, 45.175068 ] } },
{ "type": "Feature", "properties": { "title": "Mairie", "type": "BSB", "observation": "Située devant la mairie", "picture": null }, "geometry": { "type": "Point", "coordinates": [ 3.15183699131012, 46.238655832551558 ] } },
{ "type": "Feature", "properties": { "title": "21 Route de Charbieux D267", "type": "BSB", "observation": "Dans la maison en béton au milieu du rond point.Grande boîte à lire !", "picture": null }, "geometry": { "type": "Point", "coordinates": [ 4.7619064, 45.2822916 ] } },
{ "type": "Feature", "properties": { "title": "Avenue Jean Jaurès, centre social", "type": "BSB", "observation": "Grande boîte, avec un grand choix. Elle se trouve devant le centre social", "picture": null }, "geometry": { "type": "Point", "coordinates": [ 4.8048868, 45.3651054 ] } },
{ "type": "Feature", "properties": { "title": "Rue des écoles", "type": "BSB", "observation": "Juste en face de l'école", "picture": null }, "geometry": { "type": "Point", "coordinates": [ 5.858316, 45.648499 ] } },
{ "type": "Feature", "properties": { "title": "Arbre de la liberté / 8 mai 1945, rue Molly Sabata", "type": "BSB", "observation": "Boîte plutôt moyenne, d'environ 50 livres. A droite du portail d'entrée", "picture": null }, "geometry": { "type": "Point", "coordinates": [ 4.778940081596375, 45.312872605039779 ] } },
{ "type": "Feature", "properties": { "title": "office de tourisme", "type": "BSB", "observation": "", "picture": null }, "geometry": { "type": "Point", "coordinates": [ 3.0729256, 45.9195492 ] } },
{ "type": "Feature", "properties": { "title": "place Guillaume Douarre", "type": "BSB", "observation": "Dans le parc de la mairie", "picture": null }, "geometry": { "type": "Point", "coordinates": [ 3.091519474983216, 45.934102215299639 ] } },
{ "type": "Feature", "properties": { "title": "Site Médiéval", "type": "BSB", "observation": "Sur le parking du se Site Médiéval de Donzy  à 1", "picture": null }, "geometry": { "type": "Point", "coordinates": [ 4.2824065, 45.747701 ] } },
{ "type": "Feature", "properties": { "title": "Place de la mairie", "type": "BSB", "observation": "A côté de la mairie.", "picture": null }, "geometry": { "type": "Point", "coordinates": [ 6.692988, 45.4547979 ] } },
{ "type": "Feature", "properties": { "title": "Centre commercial Carrefour, 1 rue des abattoirs", "type": "BSB", "observation": "Dans la partie droite de la galerie marchande, en face du magasin Etam", "picture": null }, "geometry": { "type": "Point", "coordinates": [ 5.6636431, 45.2395437 ] } },
{ "type": "Feature", "properties": { "title": "Place de l Église", "type": "BSB", "observation": "Boite à livres gérée par la bibliothèque de Thuret. Dans le jardin de la mairie, dans un frigo.", "picture": null }, "geometry": { "type": "Point", "coordinates": [ 3.2573985, 45.9699617 ] } },
{ "type": "Feature", "properties": { "title": "Avenue de Clermont", "type": "BSB", "observation": "Boîte à lire fixée sur le mur à l'angle de la rue des Roses et l'avenue de Clermont", "picture": null }, "geometry": { "type": "Point", "coordinates": [ 2.3363965, 45.2197255 ] } },
{ "type": "Feature", "properties": { "title": "25 route des moulins", "type": "BSB", "observation": "Dans la cabine téléphonique et l'abris de bus", "picture": null }, "geometry": { "type": "Point", "coordinates": [ 3.091900348663331, 45.585538599133201 ] } },
{ "type": "Feature", "properties": { "title": "Route de Lalizolles", "type": "BSB", "observation": "", "picture": null }, "geometry": { "type": "Point", "coordinates": [ 3.064905, 46.152894 ] } },
{ "type": "Feature", "properties": { "title": "Ecole du Bex d Ytrac", "type": "BSB", "observation": "Elle se trouve entre l école et l'église, pleine à craquer, elle n'attend que de nouveaux adeptes. Un banc est mis à disposition mais vous pouvez également vous installez dans l'herbe ou sur les bancs derrière l'église.", "picture": null }, "geometry": { "type": "Point", "coordinates": [ 2.3849855, 44.8798423 ] } },
{ "type": "Feature", "properties": { "title": "Senilhes", "type": "BSB", "observation": "Contre la salle polyvalente, à côté des casiers à pain.Cette petite boîte à livre rouge a fait son apparition il y a quelques semaines.", "picture": null }, "geometry": { "type": "Point", "coordinates": [ 2.456862, 44.854054 ] } },
{ "type": "Feature", "properties": { "title": "Le Bourg", "type": "BSB", "observation": "Au coeur du village,  des livres confortablement installés dans une ancienne cabine téléphonique vous attendent.", "picture": null }, "geometry": { "type": "Point", "coordinates": [ 2.970616, 45.172681 ] } },
{ "type": "Feature", "properties": { "title": "Avenue de Lauterbourg", "type": "BSB", "observation": "Située dans l\"entrée de la MJC Foyer 3ème âge", "picture": null }, "geometry": { "type": "Point", "coordinates": [ 4.778859, 45.759565 ] } },
{ "type": "Feature", "properties": { "title": "Parc Doyen Gosse, face au 9 rue du Vercors", "type": "BSB", "observation": "la boite est en forme de pot à fleurs rouge renversé et suspendue à un mètre au-dessus du sol. Des étagères sont disposées à l intérieur. Il faut de baisser pour entrer.", "picture": null }, "geometry": { "type": "Point", "coordinates": [ 5.7512687, 45.2006221 ] } },
{ "type": "Feature", "properties": { "title": "1 place Jules Ferry", "type": "BSB", "observation": "", "picture": null }, "geometry": { "type": "Point", "coordinates": [ 4.8325513, 45.7860634 ] } },
{ "type": "Feature", "properties": { "title": "3 Avenue Claude Expilly", "type": "BSB", "observation": "à l'entrée du parc côté casino sur la droite, juste avant le premier pont", "picture": null }, "geometry": { "type": "Point", "coordinates": [ 4.366821, 44.656363 ] } },
{ "type": "Feature", "properties": { "title": "Place René Cassin", "type": "BSB", "observation": "Boîte à lire dans ancienne cabine téléphonique devant la poste", "picture": null }, "geometry": { "type": "Point", "coordinates": [ 6.1365957, 45.6857345 ] } },
{ "type": "Feature", "properties": { "title": "rue du Centre", "type": "BSB", "observation": "Ancienne cabine téléphonique située en centre ville, entre le stade municipal et la mairie", "picture": null }, "geometry": { "type": "Point", "coordinates": [ 5.328674, 45.511338 ] } },
{ "type": "Feature", "properties": { "title": "Meaux la montagne", "type": "BSB", "observation": "à coté de l église ,elle est toute neuve, et se trouve devant un petit restaurant", "picture": null }, "geometry": { "type": "Point", "coordinates": [ 4.421653, 46.044589 ] } },
{ "type": "Feature", "properties": { "title": "Rue Jean Fabre", "type": "BSB", "observation": "La boite à livre se trouve juste à côté du jardin d'enfant. Elle est tournée vers la place des Jacobins", "picture": null }, "geometry": { "type": "Point", "coordinates": [ 4.8330347, 45.7602682 ] } },
{ "type": "Feature", "properties": { "title": "89 Mail Marcel Cachin", "type": "BSB", "observation": "Dans le hall de la mairie. Dans un frigo. Accessible les jours d'ouverture de la mairie", "picture": null }, "geometry": { "type": "Point", "coordinates": [ 5.6882809, 45.1918314 ] } },
{ "type": "Feature", "properties": { "title": "31 avenue Hector Berlioz", "type": "BSB", "observation": "Face à l'école de Seyssinet village. une ancienne cabine téléphonique", "picture": null }, "geometry": { "type": "Point", "coordinates": [ 5.6805865, 45.1690129 ] } },
{ "type": "Feature", "properties": { "title": "2 rue des Halles", "type": "BSB", "observation": "Juste en face de la halle, dans une ancienne cabine publique", "picture": null }, "geometry": { "type": "Point", "coordinates": [ 5.3874019, 45.491245 ] } },
{ "type": "Feature", "properties": { "title": "3 rue Pré-Gaudry", "type": "BSB", "observation": "La Commune, tiers-lieu culinaire et culturel à Lyon, propose une échoppe solidaire dans laquelle on peut trouver une bibliothèque partagée ainsi qu une boîte à partage.", "picture": null }, "geometry": { "type": "Point", "coordinates": [ 4.833995, 45.7423226 ] } },
{ "type": "Feature", "properties": { "title": "10 passage du manoir de la Mure", "type": "BSB", "observation": "ce village a 2 boites à lire, une ancienne cabine de téléphone et un petit coin adorable avec table et chaises ou vous pouvez trouver ou donner des livres et un village médiéval adorable à visiter en plus", "picture": null }, "geometry": { "type": "Point", "coordinates": [ 4.0121606, 45.9644328 ] } },
{ "type": "Feature", "properties": { "title": "Place Eugène Riband", "type": "BSB", "observation": "Ancienne cabine téléphonique dans le petit square à côté de l'église", "picture": null }, "geometry": { "type": "Point", "coordinates": [ 5.811456441879272, 45.118652278121495 ] } },
{ "type": "Feature", "properties": { "title": "Chemin du peupliers", "type": "BSB", "observation": "Au niveau de l arrêt de bus de la ligne 89 LES AULNES", "picture": null }, "geometry": { "type": "Point", "coordinates": [ 4.7584863, 45.8136519 ] } },
{ "type": "Feature", "properties": { "title": "D911", "type": "BSB", "observation": "A côté de la poste dans une ancienne cabine téléphonique", "picture": null }, "geometry": { "type": "Point", "coordinates": [ 6.1063459, 45.7139223 ] } },
{ "type": "Feature", "properties": { "title": "Place de la liberté", "type": "BSB", "observation": "À côté de l'office du tourisme", "picture": null }, "geometry": { "type": "Point", "coordinates": [ 5.9840727, 45.5486935 ] } },
{ "type": "Feature", "properties": { "title": "route de Saint-Jean", "type": "BSB", "observation": "A la sortie du parking de Carrefour Market, en direction de Coublevie", "picture": null }, "geometry": { "type": "Point", "coordinates": [ 5.5691237, 45.3338231 ] } },
{ "type": "Feature", "properties": { "title": "Place de la poste", "type": "BSB", "observation": "", "picture": null }, "geometry": { "type": "Point", "coordinates": [ 4.5363891, 45.9463338 ] } },
{ "type": "Feature", "properties": { "title": "parc de vals les bains", "type": "BSB", "observation": "entre la piscine et l aire de jeux pour enfants", "picture": null }, "geometry": { "type": "Point", "coordinates": [ 4.3685094, 44.6559046 ] } },
{ "type": "Feature", "properties": { "title": "445 route du guillon à peu près", "type": "BSB", "observation": "En face du stade de la dalmassiere et de l entrée de la MFR.", "picture": null }, "geometry": { "type": "Point", "coordinates": [ 5.6063347, 45.3590965 ] } },
{ "type": "Feature", "properties": { "title": "PLACE DE RECHARINGES", "type": "BSB", "observation": "La boite à livre est située dans une ancienne cabine téléphonique.", "picture": null }, "geometry": { "type": "Point", "coordinates": [ 4.1589604, 45.0630676 ] } },
{ "type": "Feature", "properties": { "title": "Rue de Longefand", "type": "BSB", "observation": "Ancienne cabine téléphonique sur le parking", "picture": null }, "geometry": { "type": "Point", "coordinates": [ 5.9420146, 45.5763684 ] } },
{ "type": "Feature", "properties": { "title": "Rue des Sablons", "type": "BSB", "observation": "Devant la boucherie, rive gauche du pont.", "picture": null }, "geometry": { "type": "Point", "coordinates": [ 5.9725997, 45.5759628 ] } },
{ "type": "Feature", "properties": { "title": "Route de Chesses", "type": "BSB", "observation": "", "picture": null }, "geometry": { "type": "Point", "coordinates": [ 5.951278, 45.58287 ] } },
{ "type": "Feature", "properties": { "title": "Aqualib, 70, Avenue Charles de Gaulle", "type": "BSB", "observation": "Dans le hall d'accueil de la piscine Aqualib.", "picture": null }, "geometry": { "type": "Point", "coordinates": [ 5.2628205, 45.3880019 ] } },
{ "type": "Feature", "properties": { "title": "14, chemin du villard", "type": "BSB", "observation": "Initiative de l association Vert de Terre", "picture": null }, "geometry": { "type": "Point", "coordinates": [ 5.7929363, 45.1389865 ] } },
{ "type": "Feature", "properties": { "title": "Abri de bus", "type": "BSB", "observation": "A l'entrée de ce petit village en venant de colombier, sous l'abri de bus", "picture": null }, "geometry": { "type": "Point", "coordinates": [ 2.827005386352539, 46.284073749491725 ] } },
{ "type": "Feature", "properties": { "title": "Mairie", "type": "BSB", "observation": "Près de la mairie sous les halles couvertes", "picture": null }, "geometry": { "type": "Point", "coordinates": [ 2.835108, 46.161138 ] } },
{ "type": "Feature", "properties": { "title": "Route de geneve", "type": "BSB", "observation": "Fabriquée par les enfants du periscolaire de la valbonne elle a permis de recycler un vieux frigo", "picture": null }, "geometry": { "type": "Point", "coordinates": [ 5.128598213195802, 45.852328419479377 ] } },
{ "type": "Feature", "properties": { "title": "Bibliothèque", "type": "BSB", "observation": "Dans le parc pour enfants collé a la bibliothèque", "picture": null }, "geometry": { "type": "Point", "coordinates": [ 5.172768831253053, 45.602509015102989 ] } },
{ "type": "Feature", "properties": { "title": "Place des terreaux", "type": "BSB", "observation": "Une ancienne cabine téléphonique transformée en boite à livres !", "picture": null }, "geometry": { "type": "Point", "coordinates": [ 4.583328, 45.852647 ] } },
{ "type": "Feature", "properties": { "title": "Place de la Mairie", "type": "BSB", "observation": "Sur la façade de la bibliothèque, très belle boite à lire, livres bien protégés de l humidité.", "picture": null }, "geometry": { "type": "Point", "coordinates": [ 6.220769, 45.910504 ] } },
{ "type": "Feature", "properties": { "title": "rue des écoles", "type": "BSB", "observation": "TrocBook sur le parking de l école primaire René Cassin", "picture": null }, "geometry": { "type": "Point", "coordinates": [ 5.0134, 45.647101 ] } },
{ "type": "Feature", "properties": { "title": "384 Rue de la République", "type": "BSB", "observation": "Se trouve à l entrée de la Mairie. 4 malles remplies majoritairement de vieux livres et quelques livres en anglais.", "picture": null }, "geometry": { "type": "Point", "coordinates": [ 5.3896398, 45.3421266 ] } },
{ "type": "Feature", "properties": { "title": "Place de la mairie", "type": "BSB", "observation": "", "picture": null }, "geometry": { "type": "Point", "coordinates": [ 5.183755, 46.334427 ] } },
{ "type": "Feature", "properties": { "title": "132 avenue du Pavillon", "type": "BSB", "observation": "Elle se trouve dans la pharmacie. C est une petite caisse en rentrant à gauche.", "picture": null }, "geometry": { "type": "Point", "coordinates": [ 5.7352486, 45.0799137 ] } },
{ "type": "Feature", "properties": { "title": "Le Bourg", "type": "BSB", "observation": "Dans le bourg - A cote de l eglise - Entree du magasin Vival.", "picture": null }, "geometry": { "type": "Point", "coordinates": [ 3.8936289, 46.1062095 ] } },
{ "type": "Feature", "properties": { "title": "Mairie", "type": "BSB", "observation": "", "picture": null }, "geometry": { "type": "Point", "coordinates": [ 4.3648835, 44.6651663 ] } },
{ "type": "Feature", "properties": { "title": "rue de l hôtel de Ville", "type": "BSB", "observation": "Fabriquée par le Conseil des jeunes et le Conseil des senior de la Ville de Commentry", "picture": null }, "geometry": { "type": "Point", "coordinates": [ 2.741199, 46.28906 ] } },
{ "type": "Feature", "properties": { "title": "allée des Florentines", "type": "BSB", "observation": "Boîte à lire des FlorentinesMise en place par la copropriétéJuste derrière les boîtes à lettres à l entrée de la copropriété.", "picture": null }, "geometry": { "type": "Point", "coordinates": [ 5.7915892, 45.2280422 ] } },
{ "type": "Feature", "properties": { "title": "9 Rue Roquette", "type": "BSB", "observation": "Devant le Centre Social et Culturel Pierrette Augier Lyon-Vaise", "picture": null }, "geometry": { "type": "Point", "coordinates": [ 4.8059408, 45.7764201 ] } },
{ "type": "Feature", "properties": { "title": "249 rue Vendome", "type": "BSB", "observation": "devant l entrée de la MJC - salle des Rancy", "picture": null }, "geometry": { "type": "Point", "coordinates": [ 4.8478133, 45.7558726 ] } },
{ "type": "Feature", "properties": { "title": "rue de la Terre Sainte", "type": "BSB", "observation": "Installé par la municipalité d Arvillard sur le bassin de la Terre Sainte en 2017", "picture": null }, "geometry": { "type": "Point", "coordinates": [ 6.11972, 45.444647 ] } },
{ "type": "Feature", "properties": { "title": "Place de l'hôtel de Ville", "type": "BSB", "observation": "Elle se situe dans l'ancien chalet, à proximité de l'entrée du parking", "picture": null }, "geometry": { "type": "Point", "coordinates": [ 4.0723452, 46.0347852 ] } },
{ "type": "Feature", "properties": { "title": "Rue Jules Faron", "type": "BSB", "observation": "Parc Dolto, entre le centre social et centre petite enfance", "picture": null }, "geometry": { "type": "Point", "coordinates": [ 4.0366106, 46.0440973 ] } },
{ "type": "Feature", "properties": { "title": "100 rue boileau", "type": "BSB", "observation": "Mjc", "picture": null }, "geometry": { "type": "Point", "coordinates": [ 4.84904, 45.7675473 ] } },
{ "type": "Feature", "properties": { "title": "959 Chemin de chez Desbois", "type": "BSB", "observation": "Installée par le conseil municipale des Enfants", "picture": null }, "geometry": { "type": "Point", "coordinates": [ 6.3022849, 46.1594858 ] } },
{ "type": "Feature", "properties": { "title": "La ferme du vinatier 95 boulevard pinel", "type": "BSB", "observation": "La boite se trouve dans le hall d accueil de la Ferme du Vinatier, la structure culturelle de l'hôpital du vinatier", "picture": null }, "geometry": { "type": "Point", "coordinates": [ 4.8963057, 45.7389578 ] } },
{ "type": "Feature", "properties": { "title": "Palais des sports", "type": "BSB", "observation": "Cette boîte se trouve dans le hall d?accueil du Palais pour donner livres, magazines ou livres pour enfants.", "picture": null }, "geometry": { "type": "Point", "coordinates": [ 6.6181335, 45.8614276 ] } },
{ "type": "Feature", "properties": { "title": "route de l église, Balmont", "type": "BSB", "observation": "devant l église de Balmont, commune de Seynod", "picture": null }, "geometry": { "type": "Point", "coordinates": [ 6.061928, 45.8328119 ] } },
{ "type": "Feature", "properties": { "title": "rue pierre poitrasson", "type": "BSB", "observation": "situé sur la place devant la chapelle, en face de l église.Un joli frigo recyclé en Biblio-Moiré.", "picture": null }, "geometry": { "type": "Point", "coordinates": [ 4.6034254, 45.927805 ] } },
{ "type": "Feature", "properties": { "title": "285 rue de Savoie", "type": "BSB", "observation": "Télécabine réaménagée en bibliothèque.Située à côté du terrain de pétanque l été et sur le parking de la mairie l'hiver", "picture": null }, "geometry": { "type": "Point", "coordinates": [ 6.5180448, 45.8086735 ] } },
{ "type": "Feature", "properties": { "title": "Route du Bourgeal, la Mairie", "type": "BSB", "observation": "Très jolie boite à livres située à l abris devant la Mairie", "picture": null }, "geometry": { "type": "Point", "coordinates": [ 6.2541651, 45.7499928 ] } },
{ "type": "Feature", "properties": { "title": "Place Lamartine - Chef Lieu", "type": "BSB", "observation": "Entrée de l?immeuble LamartineEntre le fleuriste et le boucher", "picture": null }, "geometry": { "type": "Point", "coordinates": [ 5.847244, 45.8212001 ] } },
{ "type": "Feature", "properties": { "title": "Impasse des Dômes", "type": "BSB", "observation": "Petite boîte très éclectique en face de la Maison du Citoyen. On y trouve pas mal de livres pratiques, de la littérature sentimentale, du polar et des récits type témoignages.", "picture": null }, "geometry": { "type": "Point", "coordinates": [ 3.1924387, 45.7306898 ] } },
{ "type": "Feature", "properties": { "title": "Les cours", "type": "BSB", "observation": "Sur le parking des cours au feu. Je trouve toujours un petit quelque chose", "picture": null }, "geometry": { "type": "Point", "coordinates": [ 3.2902579, 46.3087721 ] } },
{ "type": "Feature", "properties": { "title": "Rue Marcellin Berthelot", "type": "BSB", "observation": "", "picture": null }, "geometry": { "type": "Point", "coordinates": [ 3.2926502, 46.3085688 ] } },
{ "type": "Feature", "properties": { "title": "87, rue de la République", "type": "BSB", "observation": "Pomme de Pain LYON BELLECOUR", "picture": null }, "geometry": { "type": "Point", "coordinates": [ 4.8346659, 45.7581745 ] } },
{ "type": "Feature", "properties": { "title": "C.C Lyon Part-Dieu", "type": "BSB", "observation": "Pomme de Pain LYON PART DIEU", "picture": null }, "geometry": { "type": "Point", "coordinates": [ 4.857321, 45.7605962 ] } },
{ "type": "Feature", "properties": { "title": "place de la mairie", "type": "BSB", "observation": "Sous les arcades place de la Mairie, bien à l abri . Des livres en français et aussi en anglais.", "picture": null }, "geometry": { "type": "Point", "coordinates": [ 4.892158, 44.9331614 ] } },
{ "type": "Feature", "properties": { "title": "Place de la mairie", "type": "BSB", "observation": "Boite derrière le panneau d information en haut de la place. Elle a remplacé le téléphone public.", "picture": null }, "geometry": { "type": "Point", "coordinates": [ 5.4085906, 45.671629 ] } },
{ "type": "Feature", "properties": { "title": "31 rue Claude Le Laboureur", "type": "BSB", "observation": "J ai installé cette boite en 2018.", "picture": null }, "geometry": { "type": "Point", "coordinates": [ 4.8265165, 45.8034319 ] } },
{ "type": "Feature", "properties": { "title": "rue de franche comté", "type": "BSB", "observation": "", "picture": null }, "geometry": { "type": "Point", "coordinates": [ 5.4265254, 46.2643286 ] } },
{ "type": "Feature", "properties": { "title": "10 cours de la Liberté", "type": "BSB", "observation": "Dans l accueil de La Couveuse - MPT de Chadrac, échangez, partagez, découvrez toutes sortes de livres dans La Boîte à Lire.", "picture": null }, "geometry": { "type": "Point", "coordinates": [ 3.905117, 45.0610689 ] } },
{ "type": "Feature", "properties": { "title": "la rue accollée à la mairie", "type": "BSB", "observation": "", "picture": null }, "geometry": { "type": "Point", "coordinates": [ 2.741899, 46.28883 ] } },
{ "type": "Feature", "properties": { "title": "non précisée", "type": "BSB", "observation": "la boite se trouve sous le préau", "picture": null }, "geometry": { "type": "Point", "coordinates": [ 3.162598, 46.185442 ] } },
{ "type": "Feature", "properties": { "title": "plage de paladru", "type": "BSB", "observation": "ouverte lors de l ouverture de la plage", "picture": null }, "geometry": { "type": "Point", "coordinates": [ 5.550368, 45.4725631 ] } },
{ "type": "Feature", "properties": { "title": "lycée de Chamalieres", "type": "BSB", "observation": "Dans le hall du lycée, les élèves peuvent apporter leurs livres et en trouver d autres. Classiques, mangas, romans pour tous les gouts", "picture": null }, "geometry": { "type": "Point", "coordinates": [ 3.0513012, 45.7765594 ] } },
{ "type": "Feature", "properties": { "title": "12 chemin claude debussy", "type": "BSB", "observation": "angle promenade Lenine/Debussy", "picture": null }, "geometry": { "type": "Point", "coordinates": [ 4.9284529, 45.7792364 ] } },
{ "type": "Feature", "properties": { "title": "1 Place de la Mairie", "type": "BSB", "observation": "La boîte est accrochée à un lampadaire devant la mairie.", "picture": null }, "geometry": { "type": "Point", "coordinates": [ 5.6819093, 46.2953835 ] } },
{ "type": "Feature", "properties": { "title": "Avenue Désiré Valette", "type": "BSB", "observation": "Dans le hall du cinéma Le Galaure", "picture": null }, "geometry": { "type": "Point", "coordinates": [ 4.8159649, 45.1760543 ] } },
{ "type": "Feature", "properties": { "title": "Montée du Rabot", "type": "BSB", "observation": "", "picture": null }, "geometry": { "type": "Point", "coordinates": [ 5.7232882, 45.1952693 ] } },
{ "type": "Feature", "properties": { "title": "29 Rue du tilleul", "type": "BSB", "observation": "Se trouve dans la charcuterie", "picture": null }, "geometry": { "type": "Point", "coordinates": [ 5.544779, 46.092959 ] } },
{ "type": "Feature", "properties": { "title": "120 place A. PEGOUD", "type": "BSB", "observation": "", "picture": null }, "geometry": { "type": "Point", "coordinates": [ 5.591543, 45.489463 ] } },
{ "type": "Feature", "properties": { "title": "13 Route de Lyon", "type": "BSB", "observation": "En face du tabac Grand armoire", "picture": null }, "geometry": { "type": "Point", "coordinates": [ 4.8821998, 45.9215068 ] } },
{ "type": "Feature", "properties": { "title": "41 Avenue Georges Pompidou", "type": "BSB", "observation": "La Boîte à Lire s invite à l'Hôtel Auréna !Que vous soyez client de l'hôtel ou tout simplement visiteurs, chacun peut déposer et emprunter des livres gratuitement.", "picture": null }, "geometry": { "type": "Point", "coordinates": [ 2.4554032, 44.9133225 ] } },
{ "type": "Feature", "properties": { "title": "16 Place du Trophée", "type": "BSB", "observation": "Au café \"Aux Petits Galets\".", "picture": null }, "geometry": { "type": "Point", "coordinates": [ 6.020403, 45.817077 ] } },
{ "type": "Feature", "properties": { "title": "Vieux bourg", "type": "BSB", "observation": "Dans le vieux bourg médiéval, sous les arcades ", "picture": null }, "geometry": { "type": "Point", "coordinates": [ 6.0219522, 45.8178248 ] } },
{ "type": "Feature", "properties": { "title": "Chamossat", "type": "BSB", "observation": "Hameau de Chamossat. Dans le 1er virage après les poubelles, en montant vers Chainaz-Les-Frasses.", "picture": null }, "geometry": { "type": "Point", "coordinates": [ 5.9780159, 45.8025729 ] } },
{ "type": "Feature", "properties": { "title": "Place du docteur Girard", "type": "BSB", "observation": "Contre le mur devant l église.", "picture": null }, "geometry": { "type": "Point", "coordinates": [ 5.7369936, 45.1970637 ] } },
{ "type": "Feature", "properties": { "title": "Place de la Mairie", "type": "BSB", "observation": "", "picture": null }, "geometry": { "type": "Point", "coordinates": [ 4.7442134, 45.7782684 ] } },
{ "type": "Feature", "properties": { "title": "20 Route du Chanay", "type": "BSB", "observation": "C?est une grande étagère a côté du parking en face du boulanger", "picture": null }, "geometry": { "type": "Point", "coordinates": [ 4.8801748, 45.9218895 ] } },
{ "type": "Feature", "properties": { "title": "Place de l église", "type": "BSB", "observation": "Elle est située en face du parking de l église à proximité de la mairie.", "picture": null }, "geometry": { "type": "Point", "coordinates": [ 4.2803368, 45.7973836 ] } },
{ "type": "Feature", "properties": { "title": "Place de l?église", "type": "BSB", "observation": "Boite située auprès de l?église", "picture": null }, "geometry": { "type": "Point", "coordinates": [ 6.1590596, 46.1523291 ] } },
{ "type": "Feature", "properties": { "title": "3 avenue de geneve", "type": "BSB", "observation": "Entre la bibliothèque et l'arrêt de bus", "picture": null }, "geometry": { "type": "Point", "coordinates": [ 6.0820999, 46.1450223 ] } },
{ "type": "Feature", "properties": { "title": "1 avenue Saint Martin", "type": "BSB", "observation": "Dans le hall d entrée du Musée d'Art Contemporain", "picture": null }, "geometry": { "type": "Point", "coordinates": [ 4.7536075, 44.5630868 ] } },
{ "type": "Feature", "properties": { "title": "Rue de lionne", "type": "BSB", "observation": "", "picture": null }, "geometry": { "type": "Point", "coordinates": [ 5.729692, 45.193886 ] } },
{ "type": "Feature", "properties": { "title": "place Charles Albert", "type": "BSB", "observation": "Elle se trouve dans la cabane en bois", "picture": null }, "geometry": { "type": "Point", "coordinates": [ 6.6319654, 45.9355442 ] } },
{ "type": "Feature", "properties": { "title": "Place du midi", "type": "BSB", "observation": "C est l'une des 3 boites installées grâce à un partenariat entre la Ville et le Lions club.Elle est dans le parc en face de la boulangerie de la Vallée.", "picture": null }, "geometry": { "type": "Point", "coordinates": [ 6.6321366, 45.932986 ] } },
{ "type": "Feature", "properties": { "title": "Esplanade de Saint Martin", "type": "BSB", "observation": "C est l'une des 3 boites installées grâce à un partenariat entre la Ville et le Lions club.Elle est sous le préau à côté du parc de jeux.", "picture": null }, "geometry": { "type": "Point", "coordinates": [ 6.6420442, 45.9403678 ] } },
{ "type": "Feature", "properties": { "title": "625 rue Dominique Cancelliéri", "type": "BSB", "observation": "C est l'une des 3 boites installées grâce à un partenariat entre la Ville et le Lions club.Elle est dans le parc de jeux à côté de l'espace animation", "picture": null }, "geometry": { "type": "Point", "coordinates": [ 6.6343211, 45.9435522 ] } },
{ "type": "Feature", "properties": { "title": "Les Ilettes 1er parking", "type": "BSB", "observation": "Une boite à lire saisonnière à cause de l humidité des lacs.Du printemps à l'automne, elle s'installe sous le préau à côté du 1er parking et du lac des pêcheurs.", "picture": null }, "geometry": { "type": "Point", "coordinates": [ 6.641995, 45.946306 ] } },
{ "type": "Feature", "properties": { "title": "École Barthelot", "type": "BSB", "observation": "Boîte à livres située devant l école.", "picture": null }, "geometry": { "type": "Point", "coordinates": [ 4.8987613, 44.9308414 ] } },
{ "type": "Feature", "properties": { "title": "Le village - Mairie", "type": "BSB", "observation": "Ex extérieur, bien à l abri", "picture": null }, "geometry": { "type": "Point", "coordinates": [ 4.5980508, 44.4488638 ] } },
{ "type": "Feature", "properties": { "title": "Route des Chavannes, les Chavannes", "type": "BSB", "observation": "2 boites à l abris du bassin à l'intersection des routes des celliers et des chavannes", "picture": null }, "geometry": { "type": "Point", "coordinates": [ 6.2934407, 45.626522 ] } },
{ "type": "Feature", "properties": { "title": "Mairie", "type": "BSB", "observation": "Au pied de la montée pour se rendre à la mairie", "picture": null }, "geometry": { "type": "Point", "coordinates": [ 5.937970876693726, 45.581172232053824 ] } },
{ "type": "Feature", "properties": { "title": "Allée des coquelicots", "type": "BSB", "observation": "Boîte réalisée personnellement", "picture": null }, "geometry": { "type": "Point", "coordinates": [ 4.7640103, 45.97625 ] } },
{ "type": "Feature", "properties": { "title": "Centre nautique des décines", "type": "BSB", "observation": "Boîte à livres située dans le centre aquatique.", "picture": null }, "geometry": { "type": "Point", "coordinates": [ 4.953462, 45.76382 ] } },
{ "type": "Feature", "properties": { "title": "Avenue de la gare", "type": "BSB", "observation": "Sur le petit parking devant la gare SNCF.", "picture": null }, "geometry": { "type": "Point", "coordinates": [ 5.4473889, 45.5608993 ] } },
{ "type": "Feature", "properties": { "title": "Rue de la mairie", "type": "BSB", "observation": "A l initiative de la mairie et des bénévoles de la bibliotheque", "picture": null }, "geometry": { "type": "Point", "coordinates": [ 4.5537707, 45.7768862 ] } },
{ "type": "Feature", "properties": { "title": "rue Gambetta", "type": "BSB", "observation": "", "picture": null }, "geometry": { "type": "Point", "coordinates": [ 4.3268245, 45.4331018 ] } },
{ "type": "Feature", "properties": { "title": "Lotissement Parc les Clos,", "type": "BSB", "observation": "Devant la pharmacie", "picture": null }, "geometry": { "type": "Point", "coordinates": [ 4.9765072, 44.8030372 ] } },
{ "type": "Feature", "properties": { "title": "Place Soljenitsyne", "type": "BSB", "observation": "A l'intérieur du hall de la médiathèque", "picture": null }, "geometry": { "type": "Point", "coordinates": [ 5.015291, 44.7308207 ] } },
{ "type": "Feature", "properties": { "title": "Gymnase Malherbe", "type": "BSB", "observation": "", "picture": null }, "geometry": { "type": "Point", "coordinates": [ 5.7387078, 45.1720118 ] } },
{ "type": "Feature", "properties": { "title": "1 place général de gaulle", "type": "BSB", "observation": "frigidaire à gauche de l eglise", "picture": null }, "geometry": { "type": "Point", "coordinates": [ 4.3326933, 45.9732684 ] } },
{ "type": "Feature", "properties": { "title": "place du génral de gaulle", "type": "BSB", "observation": "petite boite juste devant la mairie", "picture": null }, "geometry": { "type": "Point", "coordinates": [ 4.7176095, 45.9362139 ] } },
{ "type": "Feature", "properties": { "title": "rue peigneaux dames", "type": "BSB", "observation": "une fois arrivé à l eglise ,vous tournez à droite sur la place ,toujours tout droit et c'est sur la gauche dans une encoche dans le mur ,dans une ruelle, entre 2 magasins", "picture": null }, "geometry": { "type": "Point", "coordinates": [ 4.5821977, 45.9231768 ] } },
{ "type": "Feature", "properties": { "title": "Place Meunier", "type": "BSB", "observation": "A côté du vival", "picture": null }, "geometry": { "type": "Point", "coordinates": [ 4.7496667, 45.3825035 ] } },
{ "type": "Feature", "properties": { "title": "Place des croix", "type": "BSB", "observation": "A côté de l épicerie Vival", "picture": null }, "geometry": { "type": "Point", "coordinates": [ 4.6758961, 45.4171039 ] } },
{ "type": "Feature", "properties": { "title": "Parc Magdeleine Durand", "type": "BSB", "observation": "Une boîte à lire dans le parc au centre du village", "picture": null }, "geometry": { "type": "Point", "coordinates": [ 5.5597844, 45.1830798 ] } },
{ "type": "Feature", "properties": { "title": "Place du village", "type": "BSB", "observation": "Une boîte à livre dans une cabine téléphonique", "picture": null }, "geometry": { "type": "Point", "coordinates": [ 5.527561, 45.126749 ] } },
{ "type": "Feature", "properties": { "title": "Jardin des plantes", "type": "BSB", "observation": "", "picture": null }, "geometry": { "type": "Point", "coordinates": [ 5.735625, 45.1875797 ] } },
{ "type": "Feature", "properties": { "title": "rue des allobroges", "type": "BSB", "observation": "Abri avec panneau d affichage et carte de Saint Cergues vers le fleuriste Douceurs Florales", "picture": null }, "geometry": { "type": "Point", "coordinates": [ 6.320762, 46.234954 ] } },
{ "type": "Feature", "properties": { "title": "Rue de la gare", "type": "BSB", "observation": "", "picture": null }, "geometry": { "type": "Point", "coordinates": [ 4.118601, 45.143253 ] } },
{ "type": "Feature", "properties": { "title": "Jozerand", "type": "BSB", "observation": "2 boîtes sous les abribus du village :-rue Saint Christophe face au château-sur le parking de l école", "picture": null }, "geometry": { "type": "Point", "coordinates": [ 3.097485, 46.025106 ] } },
{ "type": "Feature", "properties": { "title": "rue de l église", "type": "BSB", "observation": "Une boite à lire insolite qui a utilisé un ancien outil à ferrer de paysannerie.  Les livres sont ainsi à l abri. A côté de l église , dans le centre du village. Avec un panneau livre-voyageur qui indique le chemin. C est aussi le départ d'une très belle rando.", "picture": null }, "geometry": { "type": "Point", "coordinates": [ 3.034123, 45.690471 ] } },
{ "type": "Feature", "properties": { "title": "1 Avenue de la Gare", "type": "BSB", "observation": "Une étagère dans le hall de la gare. Donc accessible selon les horaires du bâtiment.", "picture": null }, "geometry": { "type": "Point", "coordinates": [ 6.0211977, 45.4320139 ] } },
{ "type": "Feature", "properties": { "title": "Place de l eglise", "type": "BSB", "observation": "Cabine téléphonique ancien modele repeinte en orange", "picture": null }, "geometry": { "type": "Point", "coordinates": [ 6.426434, 46.355569 ] } },
{ "type": "Feature", "properties": { "title": "2 avenue Jean Jaurès", "type": "BSB", "observation": "Accessible aux horaires d'ouverture de l'établissement", "picture": null }, "geometry": { "type": "Point", "coordinates": [ 5.9145464, 45.5674962 ] } },
{ "type": "Feature", "properties": { "title": "59 Place des Arcades", "type": "BSB", "observation": "Cette boîte ou bibliothèque ce trouve dans le hall d'entrée du supermarché Bi1, accessible à tous aux ouvertures du magasin. Bonne lecture à tous.", "picture": null }, "geometry": { "type": "Point", "coordinates": [ 6.3747406, 46.0581503 ] } },
{ "type": "Feature", "properties": { "title": "Gare de Goncelin", "type": "BSB", "observation": "Dans le hall de la gare, 3 petites étagères.Accessible seulement aux horaires d'ouverture du hall.", "picture": null }, "geometry": { "type": "Point", "coordinates": [ 5.974206, 45.34202 ] } },
{ "type": "Feature", "properties": { "title": "parc Aubry ", "type": "BSB", "observation": "Boite à Livre Lions installée par le Lions Club Albertville Olympique", "picture": null }, "geometry": { "type": "Point", "coordinates": [ 6.3670294, 45.6636032 ] } },
{ "type": "Feature", "properties": { "title": "Rue des Écoles", "type": "BSB", "observation": "", "picture": null }, "geometry": { "type": "Point", "coordinates": [ 5.8135945, 45.1220004 ] } },
{ "type": "Feature", "properties": { "title": "Le bourg", "type": "BSB", "observation": "Se situe sous le préau de la mairie dans des armoires en bois", "picture": null }, "geometry": { "type": "Point", "coordinates": [ 2.8416208, 45.6825766 ] } },
{ "type": "Feature", "properties": { "title": "Maison Sociale", "type": "BSB", "observation": "Dans le hall de la maison sociale", "picture": null }, "geometry": { "type": "Point", "coordinates": [ 5.235757, 44.3875987 ] } },
{ "type": "Feature", "properties": { "title": "ST ALBAN", "type": "BSB", "observation": "Sous le préau du four communal", "picture": null }, "geometry": { "type": "Point", "coordinates": [ 5.4480062, 46.0939112 ] } },
{ "type": "Feature", "properties": { "title": "BELLECOMBE", "type": "BSB", "observation": "sur le parking de la farfouille de la croix rouge", "picture": null }, "geometry": { "type": "Point", "coordinates": [ 5.6032719, 45.973541 ] } },
{ "type": "Feature", "properties": { "title": "Parc Saint Exupery", "type": "BSB", "observation": "", "picture": null }, "geometry": { "type": "Point", "coordinates": [ 4.6687616, 45.2458443 ] } },
{ "type": "Feature", "properties": { "title": "2 rue Pauline-Marie Jaricot", "type": "BSB", "observation": "boite d échange", "picture": null }, "geometry": { "type": "Point", "coordinates": [ 4.8162868, 45.7603117 ] } },
{ "type": "Feature", "properties": { "title": "194 avenue du docteur Bollet", "type": "BSB", "observation": "située à l entrée du parking, côté rond point", "picture": null }, "geometry": { "type": "Point", "coordinates": [ 4.769176840782166, 45.940518946625545 ] } },
{ "type": "Feature", "properties": { "title": "Parking", "type": "BSB", "observation": "", "picture": null }, "geometry": { "type": "Point", "coordinates": [ 5.0636018, 44.646037 ] } },
{ "type": "Feature", "properties": { "title": "CARREFOUR Rond Point des Présidents", "type": "BSB", "observation": "Dans la galerie marchande de Carrefour", "picture": null }, "geometry": { "type": "Point", "coordinates": [ 4.7479083, 44.5325159 ] } },
{ "type": "Feature", "properties": { "title": "Avenue d occitanie", "type": "BSB", "observation": "Ancienne cabine téléphonique, boîte à livres installée récemment, toutes sortes de livres, tout public", "picture": null }, "geometry": { "type": "Point", "coordinates": [ 3.1690952, 45.6679695 ] } },
{ "type": "Feature", "properties": { "title": "Parc de Déomas", "type": "BSB", "observation": "Boite à livres située dans un Parc à proximité de la MJC et d un complexe sportif", "picture": null }, "geometry": { "type": "Point", "coordinates": [ 4.6737174, 45.255644 ] } },
{ "type": "Feature", "properties": { "title": "rue de Merlo", "type": "BSB", "observation": "Boîte construite et gérée par l Association du Quartier du Merlo, le CILQM. A l'entée du Parc Naturel de l Yzeron, près de l'aire de jeux", "picture": null }, "geometry": { "type": "Point", "coordinates": [ 4.7821891, 45.7221204 ] } },
{ "type": "Feature", "properties": { "title": "Place du cirque, groupe scolaire du Parmelan", "type": "BSB", "observation": "Boite installée par Le Lions Club et située place du Cirque à coté du groupe scolaire du Parmelan .", "picture": null }, "geometry": { "type": "Point", "coordinates": [ 6.135864257812501, 45.908017276994876 ] } },
{ "type": "Feature", "properties": { "title": "149 rue de la République", "type": "BSB", "observation": "devant la mairiegrande boîte à lire RESERVEE AUX ENFANTS !!!", "picture": null }, "geometry": { "type": "Point", "coordinates": [ 3.0784036, 45.8293925 ] } },
{ "type": "Feature", "properties": { "title": "9 rue des Pommaries", "type": "BSB", "observation": "Installée par le Lions-Club à l intersection des rue des Pommaries et rue de l'Aurore.", "picture": null }, "geometry": { "type": "Point", "coordinates": [ 6.1438251, 45.910115 ] } },
{ "type": "Feature", "properties": { "title": "Rue haute", "type": "BSB", "observation": "Une boîte à lire dans une vieille cabine téléphonique peinte en rouge. Située dans une ancienne aire de jeux. A l entrée du village, près du musée archéologique.Bien fournie. Pour tous. Essentiellement des livres grand format.", "picture": null }, "geometry": { "type": "Point", "coordinates": [ 3.1938398, 45.6663975 ] } },
{ "type": "Feature", "properties": { "title": "353 rue Etienne Vassy", "type": "BSB", "observation": "Située à l entrée du parking P2 du Palais idéal, sous les arbres.", "picture": null }, "geometry": { "type": "Point", "coordinates": [ 5.0285125, 45.2555799 ] } },
{ "type": "Feature", "properties": { "title": "École Primaire des Cordeliers", "type": "BSB", "observation": "Boîte en libre accès située devant l école.", "picture": null }, "geometry": { "type": "Point", "coordinates": [ 6.103499, 45.8840866 ] } },
{ "type": "Feature", "properties": { "title": "420 rue principale", "type": "BSB", "observation": "Ancienne cabine téléphonique sur le bord de route.", "picture": null }, "geometry": { "type": "Point", "coordinates": [ 5.4999668, 45.9606737 ] } },
{ "type": "Feature", "properties": { "title": "41 boulevard Henri IV", "type": "BSB", "observation": "Boite à Lire Lions Club, située devant l annexe de la mairie", "picture": null }, "geometry": { "type": "Point", "coordinates": [ 3.7405424, 45.5493158 ] } },
{ "type": "Feature", "properties": { "title": "chemin de la fontaine", "type": "BSB", "observation": "sur le parking de l école primaire, grande boite à livres dans une ancienne cabine téléphonique", "picture": null }, "geometry": { "type": "Point", "coordinates": [ 5.072453, 45.519293 ] } },
{ "type": "Feature", "properties": { "title": "40 place des halles", "type": "BSB", "observation": "grande cabane à livres juste devant la crèche, en face des halles", "picture": null }, "geometry": { "type": "Point", "coordinates": [ 4.9565037, 46.118769 ] } },
{ "type": "Feature", "properties": { "title": "5 rue Emile Zola", "type": "BSB", "observation": "Boîte à l intérieur du Carrefour à la sortie de celui-ci", "picture": null }, "geometry": { "type": "Point", "coordinates": [ 4.3228783, 45.3967964 ] } },
{ "type": "Feature", "properties": { "title": "4890 route de Ferrières", "type": "BSB", "observation": "Boite Lions Club située devant la mairie de Ferrières et tenue par l Association du quartier de Ferrières.", "picture": null }, "geometry": { "type": "Point", "coordinates": [ 6.0890762, 45.9671769 ] } },
{ "type": "Feature", "properties": { "title": "LA GARE", "type": "BSB", "observation": "INSTALLEE PAR LE LIONS CLUB AMBERT LIVRADOIS ET LA MUNICIPALITE D'AMBERT", "picture": null }, "geometry": { "type": "Point", "coordinates": [ 3.735029697418213, 45.549489948799263 ] } },
{ "type": "Feature", "properties": { "title": "100 route d Annecy", "type": "BSB", "observation": "Située à l entrée du parking de la pharmacie.", "picture": null }, "geometry": { "type": "Point", "coordinates": [ 6.1218838, 45.9392024 ] } },
{ "type": "Feature", "properties": { "title": "devant la mairie", "type": "BSB", "observation": "Dans une ancienne cabine téléphonique, près de la bibliothèque et l espace Deydier, très bien entretenue et alimentée régulièrement", "picture": null }, "geometry": { "type": "Point", "coordinates": [ 4.383416, 44.6424049 ] } },
{ "type": "Feature", "properties": { "title": "62, rue Oreste Zénézini", "type": "BSB", "observation": "Dépôt de livre dans la médiathèque de Chassieu", "picture": null }, "geometry": { "type": "Point", "coordinates": [ 4.9701289, 45.743869 ] } },
{ "type": "Feature", "properties": { "title": "Place de la Mairie", "type": "BSB", "observation": "Ancienne cabine téléphonique", "picture": null }, "geometry": { "type": "Point", "coordinates": [ 5.0479082, 45.0936234 ] } },
{ "type": "Feature", "properties": { "title": "Parc Jean Bignon", "type": "BSB", "observation": "", "picture": null }, "geometry": { "type": "Point", "coordinates": [ 3.054338, 46.585385 ] } },
{ "type": "Feature", "properties": { "title": "PLace Qui Qu en grogne", "type": "BSB", "observation": "", "picture": null }, "geometry": { "type": "Point", "coordinates": [ 3.0583837, 46.5865201 ] } },
{ "type": "Feature", "properties": { "title": "Parc Thermal", "type": "BSB", "observation": "", "picture": null }, "geometry": { "type": "Point", "coordinates": [ 3.0566927, 46.5847457 ] } },
{ "type": "Feature", "properties": { "title": "rue charles de Gaulle", "type": "BSB", "observation": "Installee conjointement par le Lions club Ambert Livradois et la municipalité d Arlanc", "picture": null }, "geometry": { "type": "Point", "coordinates": [ 3.7245717, 45.4133572 ] } },
{ "type": "Feature", "properties": { "title": "église Saint Martin", "type": "BSB", "observation": "sur la place devant l église et le cimetière", "picture": null }, "geometry": { "type": "Point", "coordinates": [ 4.9513956, 45.8244902 ] } },
{ "type": "Feature", "properties": { "title": "Place du village", "type": "BSB", "observation": "Ancienne cabine téléphonique près de la poste", "picture": null }, "geometry": { "type": "Point", "coordinates": [ 4.239051, 44.898407 ] } },
{ "type": "Feature", "properties": { "title": "Le Rosai", "type": "BSB", "observation": "Situé sous le préau du bassin du hameau du rosai.", "picture": null }, "geometry": { "type": "Point", "coordinates": [ 6.0635587, 45.0748297 ] } },
{ "type": "Feature", "properties": { "title": "Lieu-dit de Dugny, dans le lavoir", "type": "BSB", "observation": "", "picture": null }, "geometry": { "type": "Point", "coordinates": [ 6.40279, 46.265694 ] } },
{ "type": "Feature", "properties": { "title": "place Aristide Briand", "type": "BSB", "observation": "Belle boîte avec plusieurs compartiments et vitrée faîte par les élèves d'un lycée professionnel", "picture": null }, "geometry": { "type": "Point", "coordinates": [ 4.889835, 44.9289384 ] } },
{ "type": "Feature", "properties": { "title": "mairie", "type": "BSB", "observation": "abri arrêt de bus", "picture": null }, "geometry": { "type": "Point", "coordinates": [ 5.089792013168336, 46.270803859356526 ] } },
{ "type": "Feature", "properties": { "title": "Place Laurent-ferrand", "type": "BSB", "observation": "", "picture": null }, "geometry": { "type": "Point", "coordinates": [ 5.2897816, 46.0031587 ] } },
{ "type": "Feature", "properties": { "title": "1 Place de l Hôpital", "type": "BSB", "observation": "Dans la cour du cloître", "picture": null }, "geometry": { "type": "Point", "coordinates": [ 4.8358695, 45.7593263 ] } },
{ "type": "Feature", "properties": { "title": "La montagne", "type": "BSB", "observation": "", "picture": null }, "geometry": { "type": "Point", "coordinates": [ 3.0748286, 45.7751469 ] } },
{ "type": "Feature", "properties": { "title": "rue du lavoir", "type": "BSB", "observation": "Au bloc sanitaire", "picture": null }, "geometry": { "type": "Point", "coordinates": [ 3.3956902, 46.3804345 ] } },
{ "type": "Feature", "properties": { "title": "Place de la mairie", "type": "BSB", "observation": "", "picture": null }, "geometry": { "type": "Point", "coordinates": [ 5.6226153, 44.8272552 ] } },
{ "type": "Feature", "properties": { "title": "1 avenue de Mering", "type": "BSB", "observation": "Au coin de la piscine", "picture": null }, "geometry": { "type": "Point", "coordinates": [ 5.3440325, 45.9626288 ] } },
{ "type": "Feature", "properties": { "title": "Impasse de la combe", "type": "BSB", "observation": "Petite boite de hameau", "picture": null }, "geometry": { "type": "Point", "coordinates": [ 4.5750042, 45.7856141 ] } },
{ "type": "Feature", "properties": { "title": "Place du général de Gaulle", "type": "BSB", "observation": "Boîte à lire mise en place par le conseil municipal jeunes", "picture": null }, "geometry": { "type": "Point", "coordinates": [ 4.5698108, 45.5054911 ] } },
{ "type": "Feature", "properties": { "title": "7 place de la bascule", "type": "BSB", "observation": "située sur la petite place au croisement de la route nationale et de la rue de l égalité, en face de la boulangerie", "picture": null }, "geometry": { "type": "Point", "coordinates": [ 5.0678451, 45.7578572 ] } },
{ "type": "Feature", "properties": { "title": "Place Arélis", "type": "BSB", "observation": "Boîte à livres à étages. Se trouve devant la mairie", "picture": null }, "geometry": { "type": "Point", "coordinates": [ 4.8723182, 45.4498091 ] } },
{ "type": "Feature", "properties": { "title": "Rue de l'Europe", "type": "BSB", "observation": "", "picture": null }, "geometry": { "type": "Point", "coordinates": [ 4.9573395, 45.516855 ] } },
{ "type": "Feature", "properties": { "title": "Scarabée", "type": "BSB", "observation": "Boîte à lire située à Chambéry le haut juste à côté de la salle de spectacle du scarabée", "picture": null }, "geometry": { "type": "Point", "coordinates": [ 5.9201385, 45.5913578 ] } },
{ "type": "Feature", "properties": { "title": "100 Place des Halles", "type": "BSB", "observation": "Petite boite à lire sous les halles", "picture": null }, "geometry": { "type": "Point", "coordinates": [ 5.470531582832337, 45.676490441495055 ] } },
{ "type": "Feature", "properties": { "title": "Rue Léon Berthet", "type": "BSB", "observation": "Frigo boite à lire sous l'abribus", "picture": null }, "geometry": { "type": "Point", "coordinates": [ 5.429315, 45.687262 ] } },
{ "type": "Feature", "properties": { "title": "Chemin de Belledonne", "type": "BSB", "observation": "Dans le parc        à côté de la Mairie", "picture": null }, "geometry": { "type": "Point", "coordinates": [ 5.899918, 45.667658 ] } },
{ "type": "Feature", "properties": { "title": "rue des Ecoles", "type": "BSB", "observation": "Installée le 9 juin 2018 elle se situe à l angle de la rue des écoles et de la rue de la gare dans un espace ombragé qui favorise la consultation des livres sur place avant d'en choisir un pour le lire à la maison", "picture": null }, "geometry": { "type": "Point", "coordinates": [ 5.1668818, 46.1330509 ] } },
{ "type": "Feature", "properties": { "title": "Le Bourg Bully 42260", "type": "BSB", "observation": "Cabine à Livres à Bullly dans la Loire.", "picture": null }, "geometry": { "type": "Point", "coordinates": [ 4.0015235, 45.9269149 ] } },
{ "type": "Feature", "properties": { "title": "1 Allée Bernard Clavel Zone Interval", "type": "BSB", "observation": "Dans le hall d accueil du Intermarché", "picture": null }, "geometry": { "type": "Point", "coordinates": [ 4.8134721, 45.171612 ] } },
{ "type": "Feature", "properties": { "title": "1 Place de la Mariette", "type": "BSB", "observation": "Derrière le mur, à droite en se garant sur le parking", "picture": null }, "geometry": { "type": "Point", "coordinates": [ 4.8162442, 45.2036751 ] } },
{ "type": "Feature", "properties": { "title": "rue de Malivert", "type": "BSB", "observation": "devant le lycée côté entrée", "picture": null }, "geometry": { "type": "Point", "coordinates": [ 6.0358073, 46.2445295 ] } },
{ "type": "Feature", "properties": { "title": "vertes campagnes", "type": "BSB", "observation": "Dans le hall du carrefour market", "picture": null }, "geometry": { "type": "Point", "coordinates": [ 6.0506238, 46.3257016 ] } },
{ "type": "Feature", "properties": { "title": "Intermarché", "type": "BSB", "observation": "Dans l entrée d'intermarché", "picture": null }, "geometry": { "type": "Point", "coordinates": [ 5.9289426, 46.184449 ] } },
{ "type": "Feature", "properties": { "title": "4 Place Victor Bérard", "type": "BSB", "observation": "Devant swisslife.Toute petite boîte", "picture": null }, "geometry": { "type": "Point", "coordinates": [ 5.8298333, 46.1084392 ] } },
{ "type": "Feature", "properties": { "title": "179 avenue de Savoie", "type": "BSB", "observation": "Située devant le local La Ressourcerie du Val d Arly qui est une association qui donne une 2ème vie aux objets.https://laressourcerieduvaldarly.com/", "picture": null }, "geometry": { "type": "Point", "coordinates": [ 6.5114864, 45.8159044 ] } },
{ "type": "Feature", "properties": { "title": "Route de Trevoux", "type": "BSB", "observation": "En face de la crèche sur le parking de l église", "picture": null }, "geometry": { "type": "Point", "coordinates": [ 4.8068435, 45.937684 ] } },
{ "type": "Feature", "properties": { "title": "2, Boulevard des Anglais", "type": "BSB", "observation": "Ancienne cabine téléphonique transformée en boite à livre ou lire.", "picture": null }, "geometry": { "type": "Point", "coordinates": [ 5.915652, 45.692944 ] } },
{ "type": "Feature", "properties": { "title": "rue  saint Maurice", "type": "BSB", "observation": "a côté de l ancienne poste", "picture": null }, "geometry": { "type": "Point", "coordinates": [ 6.0414258, 46.281828 ] } },
{ "type": "Feature", "properties": { "title": "rue de villard", "type": "BSB", "observation": "près de la nouvelle école", "picture": null }, "geometry": { "type": "Point", "coordinates": [ 6.085032, 46.2834237 ] } },
{ "type": "Feature", "properties": { "title": "route de divonne", "type": "BSB", "observation": "dans la boulangerie du rond point", "picture": null }, "geometry": { "type": "Point", "coordinates": [ 6.094671, 46.348963 ] } },
{ "type": "Feature", "properties": { "title": "34 chemin Jacques Belay", "type": "BSB", "observation": "Elle se trouve dans La Poste de Grilly", "picture": null }, "geometry": { "type": "Point", "coordinates": [ 6.1147271, 46.3313876 ] } },
{ "type": "Feature", "properties": { "title": "Les Déserts", "type": "BSB", "observation": "A l'arrêt de bus", "picture": null }, "geometry": { "type": "Point", "coordinates": [ 6.0123239, 45.639663 ] } },
{ "type": "Feature", "properties": { "title": "Parc de l'Yzeron", "type": "BSB", "observation": "A l entrée du parc de l'Yzeron, une boite à lire installée par la mairie d'Oullins", "picture": null }, "geometry": { "type": "Point", "coordinates": [ 4.8021345, 45.7204195 ] } },
{ "type": "Feature", "properties": { "title": "chemin de parsonge", "type": "BSB", "observation": "La boite à livre est située à l intersection des chemins de parsonge et du Jubin, entre l'école et le gymnase.", "picture": null }, "geometry": { "type": "Point", "coordinates": [ 4.7561785, 45.8170734 ] } },
{ "type": "Feature", "properties": { "title": "1 place boncompain", "type": "BSB", "observation": "devant les commerces de proximité Vival, très belle initiative.", "picture": null }, "geometry": { "type": "Point", "coordinates": [ 4.0334176, 45.2043355 ] } },
{ "type": "Feature", "properties": { "title": "place du square", "type": "BSB", "observation": "devant les commerces de proximité Vival, très belle initiative.", "picture": null }, "geometry": { "type": "Point", "coordinates": [ 5.3059722, 45.5564689 ] } },
{ "type": "Feature", "properties": { "title": "7 place pierre mooissinac", "type": "BSB", "observation": "devant les commerces de proximité Vival, très belle initiative.", "picture": null }, "geometry": { "type": "Point", "coordinates": [ 2.3651664, 44.9113153 ] } },
{ "type": "Feature", "properties": { "title": "10 place de la mairie", "type": "BSB", "observation": "Devant tous les commerces de proximité Vival, très belle initiative", "picture": null }, "geometry": { "type": "Point", "coordinates": [ 3.2634577, 46.4705592 ] } },
{ "type": "Feature", "properties": { "title": "immeuble le volderine", "type": "BSB", "observation": "Devant tous les commerces de proximité Vival, très belle initiative", "picture": null }, "geometry": { "type": "Point", "coordinates": [ 5.816733, 46.193896 ] } },
{ "type": "Feature", "properties": { "title": "Rue de La Chapelle - Brécorens", "type": "BSB", "observation": "La boîte à livres se nomme Au petit coin du bouquin car elle se situe dans des anciennes toilettes publiques qui ont été réhabilitées par l'association des Amis du Vieux Brécorens. On peut y trouver des livres pour adultes -étagères du haut- mais aussi pour enfants -étagères du bas-. Les journaux magazines et les livres en mauvais état ne sont pas admis !", "picture": null }, "geometry": { "type": "Point", "coordinates": [ 6.4235282, 46.2969915 ] } },
{ "type": "Feature", "properties": { "title": "quartier des Chaneaux", "type": "BSB", "observation": "", "picture": null }, "geometry": { "type": "Point", "coordinates": [ 3.070401, 45.8729749 ] } },
{ "type": "Feature", "properties": { "title": "Devant la bibliothèque", "type": "BSB", "observation": "", "picture": null }, "geometry": { "type": "Point", "coordinates": [ 3.0497329, 45.8989339 ] } },
{ "type": "Feature", "properties": { "title": "Devant la boulangerie", "type": "BSB", "observation": "", "picture": null }, "geometry": { "type": "Point", "coordinates": [ 3.1173414, 45.8763959 ] } },
{ "type": "Feature", "properties": { "title": "Parc thermal", "type": "BSB", "observation": "Dans ancienne librairie.Fonctionne d avril à fin septembre pendant la saison des cures.", "picture": null }, "geometry": { "type": "Point", "coordinates": [ 3.0616365, 45.9188509 ] } },
{ "type": "Feature", "properties": { "title": "place de l église", "type": "BSB", "observation": "Boite à lire dans l ancienne cabine téléphonique", "picture": null }, "geometry": { "type": "Point", "coordinates": [ 4.684558, 45.362865 ] } },
{ "type": "Feature", "properties": { "title": "place d Eculieu", "type": "BSB", "observation": "Imaginée et fabriquée par les habitants du hameau d Eculieu", "picture": null }, "geometry": { "type": "Point", "coordinates": [ 4.338412, 45.495641 ] } },
{ "type": "Feature", "properties": { "title": "1 place du bourg", "type": "BSB", "observation": "Les commerces de proximité Vival en installent devant toutes leurs boutiques", "picture": null }, "geometry": { "type": "Point", "coordinates": [ 4.7640032, 45.736905 ] } },