{
"type": "FeatureCollection",
"crs": { "type": "name", "properties": { "name": "urn:ogc:def:crs:OGC:1.3:CRS84" } },
"features": [
{ "type": "Feature", "properties": { "name": "Millefeuilles du square Monod", "codetype": "BSB", "type": "delivrez bookcase", "desc": "boîte à livres accessible 24/24", "color": "#00842b", "background": "square", "website": null, "amenity_subtype": "public_bookcase", "icon": "public_bookcase" }, "geometry": { "type": "Point", "coordinates": [ 4.8288388, 45.7304838 ] } },
{ "type": "Feature", "properties": { "name": "la ville", "codetype": "BSB", "type": "delivrez bookcase", "desc": "_", "color": "#00842b", "background": "square", "website": null, "amenity_subtype": "public_bookcase", "icon": "public_bookcase" }, "geometry": { "type": "Point", "coordinates": [ 5.8027338, 45.1738592 ] } },
{ "type": "Feature", "properties": { "name": "Mont de Lans Mairie", "codetype": "BSB", "type": "delivrez bookcase", "desc": "_", "color": "#00842b", "background": "square", "website": "https://delivrez.fr/public/posts/img.63b98905bc910.png", "amenity_subtype": "public_bookcase", "icon": "public_bookcase" }, "geometry": { "type": "Point", "coordinates": [ 6.1304311, 45.0359933 ] } },
{ "type": "Feature", "properties": { "name": "Passage des Marguilliers", "codetype": "BSB", "type": "delivrez bookcase", "desc": "superbe arbre à livres dans le jardin", "color": "#00842b", "background": "square", "website": "https://delivrez.fr/public/posts/img.639ae8ba7363e.png", "amenity_subtype": "public_bookcase", "icon": "public_bookcase" }, "geometry": { "type": "Point", "coordinates": [ 4.9968297, 45.7331826 ] } },
{ "type": "Feature", "properties": { "name": "Place Maxime Chantier", "codetype": "BSB", "type": "delivrez bookcase", "desc": "dans le magasin SPAR", "color": "#00842b", "background": "square", "website": "https://delivrez.fr/public/posts/img.638628a94b8f9.png", "amenity_subtype": "public_bookcase", "icon": "public_bookcase" }, "geometry": { "type": "Point", "coordinates": [ 4.799318, 45.2400485 ] } },
{ "type": "Feature", "properties": { "name": "Place Maxime Chantier", "codetype": "BSB", "type": "delivrez bookcase", "desc": "ce trouve au numéro 3 de la place Maxime Chantier", "color": "#00842b", "background": "square", "website": "https://delivrez.fr/public/posts/img.6384a9d3c8d81.png", "amenity_subtype": "public_bookcase", "icon": "public_bookcase" }, "geometry": { "type": "Point", "coordinates": [ 4.7989265, 45.2398825 ] } },
{ "type": "Feature", "properties": { "name": "Chemin de Ployé", "codetype": "BSB", "type": "delivrez bookcase", "desc": "Au bord de la route", "color": "#00842b", "background": "square", "website": "https://delivrez.fr/public/posts/img.636d1a4f640eb.png", "amenity_subtype": "public_bookcase", "icon": "public_bookcase" }, "geometry": { "type": "Point", "coordinates": [ 4.8403589, 44.9285555 ] } },
{ "type": "Feature", "properties": { "name": "Rue Soeur Dominique", "codetype": "BSB", "type": "delivrez bookcase", "desc": "_", "color": "#00842b", "background": "square", "website": "https://delivrez.fr/public/posts/img.636a56b0a5f3f.png", "amenity_subtype": "public_bookcase", "icon": "public_bookcase" }, "geometry": { "type": "Point", "coordinates": [ 4.8418655, 44.9455637 ] } },
{ "type": "Feature", "properties": { "name": "Montée Lucien Magnat", "codetype": "BSB", "type": "delivrez bookcase", "desc": "ancienne cabine octogonale", "color": "#00842b", "background": "square", "website": null, "amenity_subtype": "public_bookcase", "icon": "public_bookcase" }, "geometry": { "type": "Point", "coordinates": [ 4.9080607, 45.5306156 ] } },
{ "type": "Feature", "properties": { "name": "Rue Charles Robin", "codetype": "BSB", "type": "delivrez bookcase", "desc": "sur la place dans une belle cabine", "color": "#00842b", "background": "square", "website": null, "amenity_subtype": "public_bookcase", "icon": "public_bookcase" }, "geometry": { "type": "Point", "coordinates": [ 5.3268479, 46.2122613 ] } },
{ "type": "Feature", "properties": { "name": "Rue du Lavoir", "codetype": "BSB", "type": "delivrez bookcase", "desc": "_", "color": "#00842b", "background": "square", "website": "https://delivrez.fr/public/posts/img.63399ce91d788.png", "amenity_subtype": "public_bookcase", "icon": "public_bookcase" }, "geometry": { "type": "Point", "coordinates": [ 5.1780858, 45.0778061 ] } },
{ "type": "Feature", "properties": { "name": "Place Moulin", "codetype": "BSB", "type": "delivrez bookcase", "desc": "Dans l'entrée d'un particulier au numéro 1", "color": "#00842b", "background": "square", "website": "https://delivrez.fr/public/posts/img.630a119830a9c.png", "amenity_subtype": "public_bookcase", "icon": "public_bookcase" }, "geometry": { "type": "Point", "coordinates": [ 6.670296, 45.2031799 ] } },
{ "type": "Feature", "properties": { "name": "Route du Port", "codetype": "BSB", "type": "delivrez bookcase", "desc": "Sur l'esplanade,  près des jeux pour enfants.", "color": "#00842b", "background": "square", "website": null, "amenity_subtype": "public_bookcase", "icon": "public_bookcase" }, "geometry": { "type": "Point", "coordinates": [ 6.1659345, 45.8337576 ] } },
{ "type": "Feature", "properties": { "name": "Route des Chavannes", "codetype": "BSB", "type": "delivrez bookcase", "desc": "Lavoir", "color": "#00842b", "background": "square", "website": "https://delivrez.fr/public/posts/img.62ffb6b69f368.png", "amenity_subtype": "public_bookcase", "icon": "public_bookcase" }, "geometry": { "type": "Point", "coordinates": [ 6.28944, 45.6242112 ] } },
{ "type": "Feature", "properties": { "name": "Impasse des Mouettes", "codetype": "BSB", "type": "delivrez bookcase", "desc": "Bord du lac,  près du ponton", "color": "#00842b", "background": "square", "website": "https://delivrez.fr/public/posts/img.62fe5fb9eceab.png", "amenity_subtype": "public_bookcase", "icon": "public_bookcase" }, "geometry": { "type": "Point", "coordinates": [ 6.1748313, 45.8433824 ] } },
{ "type": "Feature", "properties": { "name": "Boîte à livres", "codetype": "BSB", "type": "delivrez bookcase", "desc": "Quelques ouvrages", "color": "#00842b", "background": "square", "website": null, "amenity_subtype": "public_bookcase", "icon": "public_bookcase" }, "geometry": { "type": "Point", "coordinates": [ 4.4444218, 44.7686141 ] } },
{ "type": "Feature", "properties": { "name": "Route des Droblesses", "codetype": "BSB", "type": "delivrez bookcase", "desc": "Arrêt de bus", "color": "#00842b", "background": "square", "website": null, "amenity_subtype": "public_bookcase", "icon": "public_bookcase" }, "geometry": { "type": "Point", "coordinates": [ 6.1893818, 45.7979198 ] } },
{ "type": "Feature", "properties": { "name": "Route des Esserts", "codetype": "BSB", "type": "delivrez bookcase", "desc": "vers l'abribus", "color": "#00842b", "background": "square", "website": null, "amenity_subtype": "public_bookcase", "icon": "public_bookcase" }, "geometry": { "type": "Point", "coordinates": [ 6.4113908, 46.3482027 ] } },
{ "type": "Feature", "properties": { "name": "Route du Lac Bleu", "codetype": "BSB", "type": "delivrez bookcase", "desc": "à côté du poste de secours", "color": "#00842b", "background": "square", "website": null, "amenity_subtype": "public_bookcase", "icon": "public_bookcase" }, "geometry": { "type": "Point", "coordinates": [ 6.6795009, 46.0866412 ] } },
{ "type": "Feature", "properties": { "name": "Route des Gorges du Borne", "codetype": "BSB", "type": "delivrez bookcase", "desc": "dans un oeuf!", "color": "#00842b", "background": "square", "website": null, "amenity_subtype": "public_bookcase", "icon": "public_bookcase" }, "geometry": { "type": "Point", "coordinates": [ 6.3752242, 46.057165 ] } },
{ "type": "Feature", "properties": { "name": "Route de Meylan", "codetype": "BSB", "type": "delivrez bookcase", "desc": "a l'entrée du petit parc sous les immeubles", "color": "#00842b", "background": "square", "website": "https://delivrez.fr/public/posts/img.62f374a4208d4.png", "amenity_subtype": "public_bookcase", "icon": "public_bookcase" }, "geometry": { "type": "Point", "coordinates": [ 5.8041565, 45.238093 ] } },
{ "type": "Feature", "properties": { "name": "Chemin des Tières", "codetype": "BSB", "type": "delivrez bookcase", "desc": "a coté de la pharmacie", "color": "#00842b", "background": "square", "website": "https://delivrez.fr/public/posts/img.62f3720404355.png", "amenity_subtype": "public_bookcase", "icon": "public_bookcase" }, "geometry": { "type": "Point", "coordinates": [ 5.8054288, 45.2365016 ] } },
{ "type": "Feature", "properties": { "name": "Le Village", "codetype": "BSB", "type": "delivrez bookcase", "desc": "_", "color": "#00842b", "background": "square", "website": "https://delivrez.fr/public/posts/img.61751946e40ea.png", "amenity_subtype": "public_bookcase", "icon": "public_bookcase" }, "geometry": { "type": "Point", "coordinates": [ 4.4317057, 44.3059907 ] } },
{ "type": "Feature", "properties": { "name": "Saint Martin d'Hères Place de la Liberté", "codetype": "BSB", "type": "delivrez bookcase", "desc": "en haut de la place à l'intersection des rues", "color": "#00842b", "background": "square", "website": "https://delivrez.fr/public/posts/img.62ea4a4fa1be7.png", "amenity_subtype": "public_bookcase", "icon": "public_bookcase" }, "geometry": { "type": "Point", "coordinates": [ 5.7681023, 45.1646816 ] } },
{ "type": "Feature", "properties": { "name": "Rue René Marssin", "codetype": "BSB", "type": "delivrez bookcase", "desc": "sous la halle", "color": "#00842b", "background": "square", "website": "https://delivrez.fr/public/posts/img.62eab1018ce98.png", "amenity_subtype": "public_bookcase", "icon": "public_bookcase" }, "geometry": { "type": "Point", "coordinates": [ 3.1979256, 45.7702203 ] } },
{ "type": "Feature", "properties": { "name": "Chemin de l'Egue", "codetype": "BSB", "type": "delivrez bookcase", "desc": "_", "color": "#00842b", "background": "square", "website": "https://delivrez.fr/public/posts/img.62efbc6c6b217.png", "amenity_subtype": "public_bookcase", "icon": "public_bookcase" }, "geometry": { "type": "Point", "coordinates": [ 3.2577997, 45.7941457 ] } },
{ "type": "Feature", "properties": { "name": "Route des Semaises", "codetype": "BSB", "type": "delivrez bookcase", "desc": "_", "color": "#00842b", "background": "square", "website": "https://delivrez.fr/public/posts/img.62ee3c377114b.png", "amenity_subtype": "public_bookcase", "icon": "public_bookcase" }, "geometry": { "type": "Point", "coordinates": [ 5.8182021, 45.2290155 ] } },
{ "type": "Feature", "properties": { "name": "Chemin Clos Mars", "codetype": "BSB", "type": "delivrez bookcase", "desc": "_", "color": "#00842b", "background": "square", "website": "https://delivrez.fr/public/posts/img.62ee368a95634.png", "amenity_subtype": "public_bookcase", "icon": "public_bookcase" }, "geometry": { "type": "Point", "coordinates": [ 5.8535602, 45.2404338 ] } },
{ "type": "Feature", "properties": { "name": "Avenue de Bouvard", "codetype": "BSB", "type": "delivrez bookcase", "desc": "en face de l'eglise, pres de la pharmacie.", "color": "#00842b", "background": "square", "website": null, "amenity_subtype": "public_bookcase", "icon": "public_bookcase" }, "geometry": { "type": "Point", "coordinates": [ 6.1183075, 45.9026867 ] } },
{ "type": "Feature", "properties": { "name": "Rue Marius Blanchot", "codetype": "BSB", "type": "delivrez bookcase", "desc": "dans une ancienne cabine téléphonique @@__rue en face de l eglise", "color": "#00842b", "background": "square", "website": "https://delivrez.fr/public/posts/img.62ea49ffd7497.png", "amenity_subtype": "public_bookcase", "icon": "public_bookcase" }, "geometry": { "type": "Point", "coordinates": [ 3.1412364, 45.7396968 ] } },
{ "type": "Feature", "properties": { "name": "Poisat École Jean Mermoz", "codetype": "BSB", "type": "delivrez bookcase", "desc": "près de l'école, accessible librement", "color": "#00842b", "background": "square", "website": null, "amenity_subtype": "public_bookcase", "icon": "public_bookcase" }, "geometry": { "type": "Point", "coordinates": [ 5.7575387, 45.158468 ] } },
{ "type": "Feature", "properties": { "name": "Poisat Mairie", "codetype": "BSB", "type": "delivrez bookcase", "desc": "à côté de l'entrée de la mairie", "color": "#00842b", "background": "square", "website": null, "amenity_subtype": "public_bookcase", "icon": "public_bookcase" }, "geometry": { "type": "Point", "coordinates": [ 5.7593204, 45.1593273 ] } },
{ "type": "Feature", "properties": { "name": "Bourg d'Arud", "codetype": "BSB", "type": "delivrez bookcase", "desc": "À  droite du téléphérique", "color": "#00842b", "background": "square", "website": "https://delivrez.fr/public/posts/img.62e8ee56b150c.png", "amenity_subtype": "public_bookcase", "icon": "public_bookcase" }, "geometry": { "type": "Point", "coordinates": [ 6.1160956, 44.987432 ] } },
{ "type": "Feature", "properties": { "name": "Rue du Câble", "codetype": "BSB", "type": "delivrez bookcase", "desc": "_", "color": "#00842b", "background": "square", "website": "https://delivrez.fr/public/posts/img.62e63f306e1b2.png", "amenity_subtype": "public_bookcase", "icon": "public_bookcase" }, "geometry": { "type": "Point", "coordinates": [ 6.1166448, 44.9899729 ] } },
{ "type": "Feature", "properties": { "name": "Boite à livre Sandrans", "codetype": "BSB", "type": "delivrez bookcase", "desc": "Petite boîte à livres sous l'abri bus", "color": "#00842b", "background": "square", "website": "https://delivrez.fr/public/posts/img.62e58b3e3a48b.png", "amenity_subtype": "public_bookcase", "icon": "public_bookcase" }, "geometry": { "type": "Point", "coordinates": [ 4.9795483, 46.0636717 ] } },
{ "type": "Feature", "properties": { "name": "Place du Maréchal de Lattre de Tassigny", "codetype": "BSB", "type": "delivrez bookcase", "desc": "boite a livre devant la bibliothèque", "color": "#00842b", "background": "square", "website": null, "amenity_subtype": "public_bookcase", "icon": "public_bookcase" }, "geometry": { "type": "Point", "coordinates": [ 5.2478569, 45.724961 ] } },
{ "type": "Feature", "properties": { "name": "Place du Centre", "codetype": "BSB", "type": "delivrez bookcase", "desc": "_", "color": "#00842b", "background": "square", "website": null, "amenity_subtype": "public_bookcase", "icon": "public_bookcase" }, "geometry": { "type": "Point", "coordinates": [ 2.6900424, 45.5326902 ] } },
{ "type": "Feature", "properties": { "name": "Avenue Maréchal Randon", "codetype": "BSB", "type": "delivrez bookcase", "desc": "proche musée de peonture", "color": "#00842b", "background": "square", "website": "https://delivrez.fr/public/posts/img.629392431e1c5.png", "amenity_subtype": "public_bookcase", "icon": "public_bookcase" }, "geometry": { "type": "Point", "coordinates": [ 5.7329801, 45.1939969 ] } },
{ "type": "Feature", "properties": { "name": "Place de l'Église", "codetype": "BSB", "type": "delivrez bookcase", "desc": "boîte rouge devant la bibliothèque", "color": "#00842b", "background": "square", "website": null, "amenity_subtype": "public_bookcase", "icon": "public_bookcase" }, "geometry": { "type": "Point", "coordinates": [ 4.1082584, 46.1430749 ] } },
{ "type": "Feature", "properties": { "name": "Rue de la Mairie", "codetype": "BSB", "type": "delivrez bookcase", "desc": "Installée dans une ancienne cabine téléphonique, juste devant l'école", "color": "#00842b", "background": "square", "website": null, "amenity_subtype": "public_bookcase", "icon": "public_bookcase" }, "geometry": { "type": "Point", "coordinates": [ 4.6218305, 44.7341434 ] } },
{ "type": "Feature", "properties": { "name": "setthe@gmail.com", "codetype": "BSB", "type": "delivrez bookcase", "desc": "sur la place de la mairie", "color": "#00842b", "background": "square", "website": "https://delivrez.fr/public/posts/img.628ccff33d734.png", "amenity_subtype": "public_bookcase", "icon": "public_bookcase" }, "geometry": { "type": "Point", "coordinates": [ 5.3456668, 46.3827042 ] } },
{ "type": "Feature", "properties": { "name": "Rue Élie Cartan", "codetype": "BSB", "type": "delivrez bookcase", "desc": "pendant les heures d ouverture.@@__", "color": "#00842b", "background": "square", "website": "https://delivrez.fr/public/posts/img.627e3b2c27928.png", "amenity_subtype": "public_bookcase", "icon": "public_bookcase" }, "geometry": { "type": "Point", "coordinates": [ 5.7447773, 45.1794268 ] } },
{ "type": "Feature", "properties": { "name": "setthe@gmail.com", "codetype": "BSB", "type": "delivrez bookcase", "desc": "à l'entrée de la salle des fêtes", "color": "#00842b", "background": "square", "website": "https://delivrez.fr/public/posts/img.62824370dac7b.png", "amenity_subtype": "public_bookcase", "icon": "public_bookcase" }, "geometry": { "type": "Point", "coordinates": [ 4.8892984, 46.3340555 ] } },
{ "type": "Feature", "properties": { "name": "casier à livres", "codetype": "BSB", "type": "delivrez bookcase", "desc": "casier à livres", "color": "#00842b", "background": "square", "website": "https://delivrez.fr/public/posts/img.6282332c610c3.png", "amenity_subtype": "public_bookcase", "icon": "public_bookcase" }, "geometry": { "type": "Point", "coordinates": [ 4.9985715, 46.2389951 ] } },
{ "type": "Feature", "properties": { "name": "Avenue Jean Perrin", "codetype": "BSB", "type": "delivrez bookcase", "desc": "_", "color": "#00842b", "background": "square", "website": null, "amenity_subtype": "public_bookcase", "icon": "public_bookcase" }, "geometry": { "type": "Point", "coordinates": [ 4.773137, 44.3493601 ] } },
{ "type": "Feature", "properties": { "name": "laurianne.larderet@outlook.fr", "codetype": "BSB", "type": "delivrez bookcase", "desc": "A l'intérieur du parc de la maison du fleuve Rhône", "color": "#00842b", "background": "square", "website": "https://delivrez.fr/public/posts/img.6231feab46a7d.png", "amenity_subtype": "public_bookcase", "icon": "public_bookcase" }, "geometry": { "type": "Point", "coordinates": [ 4.7750386, 45.584369 ] } },
{ "type": "Feature", "properties": { "name": "Rue de la Chocolaterie", "codetype": "BSB", "type": "delivrez bookcase", "desc": "_", "color": "#00842b", "background": "square", "website": null, "amenity_subtype": "public_bookcase", "icon": "public_bookcase" }, "geometry": { "type": "Point", "coordinates": [ 4.7084138, 44.4386858 ] } },
{ "type": "Feature", "properties": { "name": "Lotissement les Genêts", "codetype": "BSB", "type": "delivrez bookcase", "desc": "Face aux remparts", "color": "#00842b", "background": "square", "website": null, "amenity_subtype": "public_bookcase", "icon": "public_bookcase" }, "geometry": { "type": "Point", "coordinates": [ 4.7084705, 44.4472255 ] } },
{ "type": "Feature", "properties": { "name": "Boulevard du Défilé", "codetype": "BSB", "type": "delivrez bookcase", "desc": "dans le parc quartier des Roches", "color": "#00842b", "background": "square", "website": null, "amenity_subtype": "public_bookcase", "icon": "public_bookcase" }, "geometry": { "type": "Point", "coordinates": [ 4.7052166, 44.4463023 ] } },
{ "type": "Feature", "properties": { "name": "Rue de la Colline", "codetype": "BSB", "type": "delivrez bookcase", "desc": "Dans le parc quartier des Roches", "color": "#00842b", "background": "square", "website": null, "amenity_subtype": "public_bookcase", "icon": "public_bookcase" }, "geometry": { "type": "Point", "coordinates": [ 4.7050359, 44.4478944 ] } },
{ "type": "Feature", "properties": { "name": "Boulevard des Barrys", "codetype": "BSB", "type": "delivrez bookcase", "desc": "dans le parc", "color": "#00842b", "background": "square", "website": null, "amenity_subtype": "public_bookcase", "icon": "public_bookcase" }, "geometry": { "type": "Point", "coordinates": [ 4.7074727, 44.4437406 ] } },
{ "type": "Feature", "properties": { "name": "Boîte à livre", "codetype": "BSB", "type": "delivrez bookcase", "desc": "Devant la pharmacie", "color": "#00842b", "background": "square", "website": null, "amenity_subtype": "public_bookcase", "icon": "public_bookcase" }, "geometry": { "type": "Point", "coordinates": [ 6.2929581, 46.3508865 ] } },
{ "type": "Feature", "properties": { "name": "intermarché 1er etage", "codetype": "BSB", "type": "delivrez bookcase", "desc": "_", "color": "#00842b", "background": "square", "website": null, "amenity_subtype": "public_bookcase", "icon": "public_bookcase" }, "geometry": { "type": "Point", "coordinates": [ 3.0668895, 45.7426033 ] } },
{ "type": "Feature", "properties": { "name": "la frênaie", "codetype": "BSB", "type": "delivrez bookcase", "desc": "dans l'abri bus", "color": "#00842b", "background": "square", "website": null, "amenity_subtype": "public_bookcase", "icon": "public_bookcase" }, "geometry": { "type": "Point", "coordinates": [ 5.7952344, 45.1732837 ] } },
{ "type": "Feature", "properties": { "name": "venon mairie", "codetype": "BSB", "type": "delivrez bookcase", "desc": "dans l'abri bus", "color": "#00842b", "background": "square", "website": null, "amenity_subtype": "public_bookcase", "icon": "public_bookcase" }, "geometry": { "type": "Point", "coordinates": [ 5.8047684, 45.171821 ] } },
{ "type": "Feature", "properties": { "name": "Pied de Venon", "codetype": "BSB", "type": "delivrez bookcase", "desc": "dans l'abri bus", "color": "#00842b", "background": "square", "website": null, "amenity_subtype": "public_bookcase", "icon": "public_bookcase" }, "geometry": { "type": "Point", "coordinates": [ 5.7949748, 45.1750921 ] } },
{ "type": "Feature", "properties": { "name": "boite a livres CLM", "codetype": "BSB", "type": "delivrez bookcase", "desc": "Angle des rues Paul Collomp et d'Amboise", "color": "#00842b", "background": "square", "website": null, "amenity_subtype": "public_bookcase", "icon": "public_bookcase" }, "geometry": { "type": "Point", "coordinates": [ 3.0919604, 45.7747544 ] } },
{ "type": "Feature", "properties": { "name": "Route de Bonneville", "codetype": "BSB", "type": "delivrez bookcase", "desc": "_", "color": "#00842b", "background": "square", "website": null, "amenity_subtype": "public_bookcase", "icon": "public_bookcase" }, "geometry": { "type": "Point", "coordinates": [ 6.3543308, 46.1451771 ] } },
{ "type": "Feature", "properties": { "name": "Route de la Gare", "codetype": "BSB", "type": "delivrez bookcase", "desc": "Dans abris bus près des conteneur de recyclage", "color": "#00842b", "background": "square", "website": null, "amenity_subtype": "public_bookcase", "icon": "public_bookcase" }, "geometry": { "type": "Point", "coordinates": [ 6.3025078, 46.2249778 ] } },
{ "type": "Feature", "properties": { "name": "Square du 29 Juin", "codetype": "BSB", "type": "delivrez bookcase", "desc": "au centre de la ville parking à côté", "color": "#00842b", "background": "square", "website": "https://delivrez.fr/public/posts/img.6180fef24a636.png", "amenity_subtype": "public_bookcase", "icon": "public_bookcase" }, "geometry": { "type": "Point", "coordinates": [ 5.2926621, 45.0176943 ] } },
{ "type": "Feature", "properties": { "name": "Place de la mairie", "codetype": "BSB", "type": "delivrez bookcase", "desc": "_", "color": "#00842b", "background": "square", "website": null, "amenity_subtype": "public_bookcase", "icon": "public_bookcase" }, "geometry": { "type": "Point", "coordinates": [ 6.4586427, 46.1381228 ] } },
{ "type": "Feature", "properties": { "name": "Rue des Granges", "codetype": "BSB", "type": "delivrez bookcase", "desc": "Lavoire de detrier , Savoie", "color": "#00842b", "background": "square", "website": "https://delivrez.fr/public/posts/img.617bb5d24240b.png", "amenity_subtype": "public_bookcase", "icon": "public_bookcase" }, "geometry": { "type": "Point", "coordinates": [ 6.094504, 45.4459443 ] } },
{ "type": "Feature", "properties": { "name": "Chemin de la Chapelle", "codetype": "BSB", "type": "delivrez bookcase", "desc": "dans un ancienne cabine téléphonique", "color": "#00842b", "background": "square", "website": null, "amenity_subtype": "public_bookcase", "icon": "public_bookcase" }, "geometry": { "type": "Point", "coordinates": [ 5.1030626, 45.4751511 ] } },
{ "type": "Feature", "properties": { "name": "boîte à livre de moulin", "codetype": "BSB", "type": "delivrez bookcase", "desc": "place de la mairie", "color": "#00842b", "background": "square", "website": "https://delivrez.fr/public/posts/img.61757802f015e.png", "amenity_subtype": "public_bookcase", "icon": "public_bookcase" }, "geometry": { "type": "Point", "coordinates": [ 3.3327399, 46.5661357 ] } },
{ "type": "Feature", "properties": { "name": "Place de l'Eglise", "codetype": "BSB", "type": "delivrez bookcase", "desc": "_", "color": "#00842b", "background": "square", "website": null, "amenity_subtype": "public_bookcase", "icon": "public_bookcase" }, "geometry": { "type": "Point", "coordinates": [ 6.4715843, 46.2489546 ] } },
{ "type": "Feature", "properties": { "name": "Route de Berardier", "codetype": "BSB", "type": "delivrez bookcase", "desc": "Devant le Vival", "color": "#00842b", "background": "square", "website": null, "amenity_subtype": "public_bookcase", "icon": "public_bookcase" }, "geometry": { "type": "Point", "coordinates": [ 4.9091005, 45.5056971 ] } },
{ "type": "Feature", "properties": { "name": "Place de la Liberté", "codetype": "BSB", "type": "delivrez bookcase", "desc": "petite boîte sur la place, en face de la poste", "color": "#00842b", "background": "square", "website": null, "amenity_subtype": "public_bookcase", "icon": "public_bookcase" }, "geometry": { "type": "Point", "coordinates": [ 4.7685604, 45.4532568 ] } },
{ "type": "Feature", "properties": { "name": "Chemin de l'Église", "codetype": "BSB", "type": "delivrez bookcase", "desc": "petite boîte a côté des kinés", "color": "#00842b", "background": "square", "website": null, "amenity_subtype": "public_bookcase", "icon": "public_bookcase" }, "geometry": { "type": "Point", "coordinates": [ 4.8107467, 45.461747 ] } },
{ "type": "Feature", "properties": { "name": "Route de Fau", "codetype": "BSB", "type": "delivrez bookcase", "desc": "Boite à livre à l'entrée de l'hopital", "color": "#00842b", "background": "square", "website": null, "amenity_subtype": "public_bookcase", "icon": "public_bookcase" }, "geometry": { "type": "Point", "coordinates": [ 3.5203184, 45.8558318 ] } },
{ "type": "Feature", "properties": { "name": "Route du Chef Lieu", "codetype": "BSB", "type": "delivrez bookcase", "desc": "dans l'abribus", "color": "#00842b", "background": "square", "website": null, "amenity_subtype": "public_bookcase", "icon": "public_bookcase" }, "geometry": { "type": "Point", "coordinates": [ 6.3427369, 46.1596014 ] } },
{ "type": "Feature", "properties": { "name": "Rue Perrine", "codetype": "BSB", "type": "delivrez bookcase", "desc": "facade du magasin Unalome", "color": "#00842b", "background": "square", "website": null, "amenity_subtype": "public_bookcase", "icon": "public_bookcase" }, "geometry": { "type": "Point", "coordinates": [ 6.311335, 46.0659256 ] } },
{ "type": "Feature", "properties": { "name": "Place du Tilleul", "codetype": "BSB", "type": "delivrez bookcase", "desc": "sur la facade d'une maison@@__boite mal protégée de la pluie!", "color": "#00842b", "background": "square", "website": null, "amenity_subtype": "public_bookcase", "icon": "public_bookcase" }, "geometry": { "type": "Point", "coordinates": [ 6.2999883, 46.0931298 ] } },
{ "type": "Feature", "properties": { "name": "Place de l'Église", "codetype": "BSB", "type": "delivrez bookcase", "desc": "_", "color": "#00842b", "background": "square", "website": null, "amenity_subtype": "public_bookcase", "icon": "public_bookcase" }, "geometry": { "type": "Point", "coordinates": [ 5.0621644, 44.6463088 ] } },
{ "type": "Feature", "properties": { "name": "Avenue des Raux", "codetype": "BSB", "type": "delivrez bookcase", "desc": "Cabine téléphonique jaune", "color": "#00842b", "background": "square", "website": null, "amenity_subtype": "public_bookcase", "icon": "public_bookcase" }, "geometry": { "type": "Point", "coordinates": [ 2.4208201, 44.9915887 ] } },
{ "type": "Feature", "properties": { "name": "lire rêver s'évader", "codetype": "BSB", "type": "delivrez bookcase", "desc": "Après l'entrée via le parking", "color": "#00842b", "background": "square", "website": null, "amenity_subtype": "public_bookcase", "icon": "public_bookcase" }, "geometry": { "type": "Point", "coordinates": [ 2.485651, 45.0518463 ] } },
{ "type": "Feature", "properties": { "name": "D52", "codetype": "BSB", "type": "delivrez bookcase", "desc": "ancienne cabine téléphonique sur la place", "color": "#00842b", "background": "square", "website": null, "amenity_subtype": "public_bookcase", "icon": "public_bookcase" }, "geometry": { "type": "Point", "coordinates": [ 5.1222872, 45.1450871 ] } },
{ "type": "Feature", "properties": { "name": "Rue du Collège", "codetype": "BSB", "type": "delivrez bookcase", "desc": "_", "color": "#00842b", "background": "square", "website": null, "amenity_subtype": "public_bookcase", "icon": "public_bookcase" }, "geometry": { "type": "Point", "coordinates": [ 2.3305219, 45.2169086 ] } },
{ "type": "Feature", "properties": { "name": "Boulevard du 11 Novembre", "codetype": "BSB", "type": "delivrez bookcase", "desc": "dans la cabine téléphonique", "color": "#00842b", "background": "square", "website": null, "amenity_subtype": "public_bookcase", "icon": "public_bookcase" }, "geometry": { "type": "Point", "coordinates": [ 4.4565523, 45.6304862 ] } },
{ "type": "Feature", "properties": { "name": "Boulevard Ravel de Malval", "codetype": "BSB", "type": "delivrez bookcase", "desc": "a l'angle du marché", "color": "#00842b", "background": "square", "website": null, "amenity_subtype": "public_bookcase", "icon": "public_bookcase" }, "geometry": { "type": "Point", "coordinates": [ 4.372911, 45.529184 ] } },
{ "type": "Feature", "properties": { "name": "Rue des Érables", "codetype": "BSB", "type": "delivrez bookcase", "desc": "devant mairie, à côté bibliothèque municipale", "color": "#00842b", "background": "square", "website": null, "amenity_subtype": "public_bookcase", "icon": "public_bookcase" }, "geometry": { "type": "Point", "coordinates": [ 4.370539, 45.5656228 ] } },
{ "type": "Feature", "properties": { "name": "Rue blanche", "codetype": "BSB", "type": "delivrez bookcase", "desc": "Galerie Marchande Lenanska'do@@__petite boîte style pallete @@__une rangé  de livre @@__", "color": "#00842b", "background": "square", "website": null, "amenity_subtype": "public_bookcase", "icon": "public_bookcase" }, "geometry": { "type": "Point", "coordinates": [ 6.258325, 45.2549095 ] } },
{ "type": "Feature", "properties": { "name": "Place du 4 Avril 1929", "codetype": "BSB", "type": "delivrez bookcase", "desc": "dans l'abri bus", "color": "#00842b", "background": "square", "website": null, "amenity_subtype": "public_bookcase", "icon": "public_bookcase" }, "geometry": { "type": "Point", "coordinates": [ 5.6303477, 45.1706841 ] } },
{ "type": "Feature", "properties": { "name": "Place du Bosquet", "codetype": "BSB", "type": "delivrez bookcase", "desc": "_", "color": "#00842b", "background": "square", "website": null, "amenity_subtype": "public_bookcase", "icon": "public_bookcase" }, "geometry": { "type": "Point", "coordinates": [ 3.2686412, 45.3865002 ] } },
{ "type": "Feature", "properties": { "name": "D32", "codetype": "BSB", "type": "delivrez bookcase", "desc": "cabine téléphonique", "color": "#00842b", "background": "square", "website": null, "amenity_subtype": "public_bookcase", "icon": "public_bookcase" }, "geometry": { "type": "Point", "coordinates": [ 2.1817084, 44.9018661 ] } },
{ "type": "Feature", "properties": { "name": "jardin lecocq", "codetype": "BSB", "type": "delivrez bookcase", "desc": "a l'entrée du jardin dans une cabine téléphonique", "color": "#00842b", "background": "square", "website": null, "amenity_subtype": "public_bookcase", "icon": "public_bookcase" }, "geometry": { "type": "Point", "coordinates": [ 3.0871133, 45.7736546 ] } },
{ "type": "Feature", "properties": { "name": "D224", "codetype": "BSB", "type": "delivrez bookcase", "desc": "a côté de l'abris bus", "color": "#00842b", "background": "square", "website": null, "amenity_subtype": "public_bookcase", "icon": "public_bookcase" }, "geometry": { "type": "Point", "coordinates": [ 3.410958, 45.899549 ] } },
{ "type": "Feature", "properties": { "name": "square verdun", "codetype": "BSB", "type": "delivrez bookcase", "desc": "située à gauche du monument aux morts", "color": "#00842b", "background": "square", "website": null, "amenity_subtype": "public_bookcase", "icon": "public_bookcase" }, "geometry": { "type": "Point", "coordinates": [ 3.5481337, 45.856643 ] } },
{ "type": "Feature", "properties": { "name": "square du 8 mai", "codetype": "BSB", "type": "delivrez bookcase", "desc": "située dans une tour au milieu du square", "color": "#00842b", "background": "square", "website": null, "amenity_subtype": "public_bookcase", "icon": "public_bookcase" }, "geometry": { "type": "Point", "coordinates": [ 3.3420595, 45.7229468 ] } },
{ "type": "Feature", "properties": { "name": "Route du Col de Plainpalais", "codetype": "BSB", "type": "delivrez bookcase", "desc": "arrêt de bus", "color": "#00842b", "background": "square", "website": null, "amenity_subtype": "public_bookcase", "icon": "public_bookcase" }, "geometry": { "type": "Point", "coordinates": [ 6.0133156, 45.6117007 ] } },
{ "type": "Feature", "properties": { "name": "Avenue de Chambéry", "codetype": "BSB", "type": "delivrez bookcase", "desc": "agence Immobilier Laforêt", "color": "#00842b", "background": "square", "website": null, "amenity_subtype": "public_bookcase", "icon": "public_bookcase" }, "geometry": { "type": "Point", "coordinates": [ 5.9848871, 45.549145 ] } },
{ "type": "Feature", "properties": { "name": "Montée de la Grande-Côte", "codetype": "BSB", "type": "delivrez bookcase", "desc": "boîte à livres et boîte à dons", "color": "#00842b", "background": "square", "website": null, "amenity_subtype": "public_bookcase", "icon": "public_bookcase" }, "geometry": { "type": "Point", "coordinates": [ 4.8318077, 45.7719397 ] } },
{ "type": "Feature", "properties": { "name": "Rue de la Croix", "codetype": "BSB", "type": "delivrez bookcase", "desc": "ancienne cabine téléphonique  en face du tabac", "color": "#00842b", "background": "square", "website": null, "amenity_subtype": "public_bookcase", "icon": "public_bookcase" }, "geometry": { "type": "Point", "coordinates": [ 5.9424426, 45.5807272 ] } },
{ "type": "Feature", "properties": { "name": "Rue du Collège", "codetype": "BSB", "type": "delivrez bookcase", "desc": "dans le parc", "color": "#00842b", "background": "square", "website": null, "amenity_subtype": "public_bookcase", "icon": "public_bookcase" }, "geometry": { "type": "Point", "coordinates": [ 2.3306161, 45.216959 ] } },
{ "type": "Feature", "properties": { "name": "Rue du Pont", "codetype": "BSB", "type": "delivrez bookcase", "desc": "sur la place", "color": "#00842b", "background": "square", "website": null, "amenity_subtype": "public_bookcase", "icon": "public_bookcase" }, "geometry": { "type": "Point", "coordinates": [ 2.1899974, 44.9677287 ] } },
{ "type": "Feature", "properties": { "name": "Rue du Sallin", "codetype": "BSB", "type": "delivrez bookcase", "desc": "boite à livre orange devant l 'hangar associatif", "color": "#00842b", "background": "square", "website": null, "amenity_subtype": "public_bookcase", "icon": "public_bookcase" }, "geometry": { "type": "Point", "coordinates": [ 4.9981302, 45.4734203 ] } },
{ "type": "Feature", "properties": { "name": "place du breuil", "codetype": "BSB", "type": "delivrez bookcase", "desc": "entre l'école st firmin et la mairie ( devant l'accès handicapés et poussette de cette dernière)", "color": "#00842b", "background": "square", "website": null, "amenity_subtype": "public_bookcase", "icon": "public_bookcase" }, "geometry": { "type": "Point", "coordinates": [ 4.2873992, 45.3890278 ] } },
{ "type": "Feature", "properties": { "name": "Place du Commerce", "codetype": "BSB", "type": "delivrez bookcase", "desc": "_", "color": "#00842b", "background": "square", "website": null, "amenity_subtype": "public_bookcase", "icon": "public_bookcase" }, "geometry": { "type": "Point", "coordinates": [ 2.3463231, 44.8833547 ] } },
{ "type": "Feature", "properties": { "name": "parc d unieux", "codetype": "BSB", "type": "delivrez bookcase", "desc": "deux boites a côté du jeux pour les tout petit", "color": "#00842b", "background": "square", "website": null, "amenity_subtype": "public_bookcase", "icon": "public_bookcase" }, "geometry": { "type": "Point", "coordinates": [ 4.2611285, 45.3972339 ] } },
{ "type": "Feature", "properties": { "name": "Chemin des Jardins", "codetype": "BSB", "type": "delivrez bookcase", "desc": "au bord de la route", "color": "#00842b", "background": "square", "website": null, "amenity_subtype": "public_bookcase", "icon": "public_bookcase" }, "geometry": { "type": "Point", "coordinates": [ 6.2284867, 46.1805841 ] } },
{ "type": "Feature", "properties": { "name": "Route de Hauteville", "codetype": "BSB", "type": "delivrez bookcase", "desc": "à côté du terrain de boules", "color": "#00842b", "background": "square", "website": null, "amenity_subtype": "public_bookcase", "icon": "public_bookcase" }, "geometry": { "type": "Point", "coordinates": [ 6.2601807, 46.1735046 ] } },
{ "type": "Feature", "properties": { "name": "D103", "codetype": "BSB", "type": "delivrez bookcase", "desc": "face à la maorie", "color": "#00842b", "background": "square", "website": null, "amenity_subtype": "public_bookcase", "icon": "public_bookcase" }, "geometry": { "type": "Point", "coordinates": [ 5.4494974, 45.0510556 ] } },
{ "type": "Feature", "properties": { "name": "Chemin de la Ferme", "codetype": "BSB", "type": "delivrez bookcase", "desc": "École Mandela", "color": "#00842b", "background": "square", "website": null, "amenity_subtype": "public_bookcase", "icon": "public_bookcase" }, "geometry": { "type": "Point", "coordinates": [ 6.0730004, 46.1431899 ] } },
{ "type": "Feature", "properties": { "name": "Route des Pommeraies", "codetype": "BSB", "type": "delivrez bookcase", "desc": "_", "color": "#00842b", "background": "square", "website": null, "amenity_subtype": "public_bookcase", "icon": "public_bookcase" }, "geometry": { "type": "Point", "coordinates": [ 6.1370861, 46.1260096 ] } },
{ "type": "Feature", "properties": { "name": "Place des Écoles", "codetype": "BSB", "type": "delivrez bookcase", "desc": "_", "color": "#00842b", "background": "square", "website": null, "amenity_subtype": "public_bookcase", "icon": "public_bookcase" }, "geometry": { "type": "Point", "coordinates": [ 4.8680048, 45.4070004 ] } },
{ "type": "Feature", "properties": { "name": "Rue Jean de la Bruyère", "codetype": "BSB", "type": "delivrez bookcase", "desc": "petite cabane à livres", "color": "#00842b", "background": "square", "website": null, "amenity_subtype": "public_bookcase", "icon": "public_bookcase" }, "geometry": { "type": "Point", "coordinates": [ 4.0862869, 46.0192109 ] } },
{ "type": "Feature", "properties": { "name": "Rue Fernand David", "codetype": "BSB", "type": "delivrez bookcase", "desc": "Au moulin de Cara", "color": "#00842b", "background": "square", "website": null, "amenity_subtype": "public_bookcase", "icon": "public_bookcase" }, "geometry": { "type": "Point", "coordinates": [ 6.2556627, 46.2080703 ] } },
{ "type": "Feature", "properties": { "name": "Place du Jumelage", "codetype": "BSB", "type": "delivrez bookcase", "desc": "Devant la maison Nelson Mandela", "color": "#00842b", "background": "square", "website": null, "amenity_subtype": "public_bookcase", "icon": "public_bookcase" }, "geometry": { "type": "Point", "coordinates": [ 6.244304, 46.1855733 ] } },
{ "type": "Feature", "properties": { "name": "Les Hermasses", "codetype": "BSB", "type": "delivrez bookcase", "desc": "sous un porche", "color": "#00842b", "background": "square", "website": null, "amenity_subtype": "public_bookcase", "icon": "public_bookcase" }, "geometry": { "type": "Point", "coordinates": [ 5.2535901, 44.4071001 ] } },
{ "type": "Feature", "properties": { "name": "Route de Frangy", "codetype": "BSB", "type": "delivrez bookcase", "desc": "Allée au dessus de la place", "color": "#00842b", "background": "square", "website": null, "amenity_subtype": "public_bookcase", "icon": "public_bookcase" }, "geometry": { "type": "Point", "coordinates": [ 6.037757, 46.1168827 ] } },
{ "type": "Feature", "properties": { "name": "Place de l'Église", "codetype": "BSB", "type": "delivrez bookcase", "desc": "_", "color": "#00842b", "background": "square", "website": null, "amenity_subtype": "public_bookcase", "icon": "public_bookcase" }, "geometry": { "type": "Point", "coordinates": [ 5.6640934, 44.7646066 ] } },
{ "type": "Feature", "properties": { "name": "Rue Jean Jaurès", "codetype": "BSB", "type": "delivrez bookcase", "desc": "a coté du lavoir", "color": "#00842b", "background": "square", "website": null, "amenity_subtype": "public_bookcase", "icon": "public_bookcase" }, "geometry": { "type": "Point", "coordinates": [ 4.7612474, 44.6573304 ] } },
{ "type": "Feature", "properties": { "name": "sur la place", "codetype": "BSB", "type": "delivrez bookcase", "desc": "petit châlet", "color": "#00842b", "background": "square", "website": null, "amenity_subtype": "public_bookcase", "icon": "public_bookcase" }, "geometry": { "type": "Point", "coordinates": [ 4.5853879, 45.9212538 ] } },
{ "type": "Feature", "properties": { "name": "Rue de la Mairie", "codetype": "BSB", "type": "delivrez bookcase", "desc": "devant la mairie", "color": "#00842b", "background": "square", "website": null, "amenity_subtype": "public_bookcase", "icon": "public_bookcase" }, "geometry": { "type": "Point", "coordinates": [ 4.7674499, 45.4640504 ] } },
{ "type": "Feature", "properties": { "name": "Rue Henri Jaccaz", "codetype": "BSB", "type": "delivrez bookcase", "desc": "_", "color": "#00842b", "background": "square", "website": null, "amenity_subtype": "public_bookcase", "icon": "public_bookcase" }, "geometry": { "type": "Point", "coordinates": [ 6.2604476, 46.2028582 ] } },
{ "type": "Feature", "properties": { "name": "Bibliothèque du Châble", "codetype": "BSB", "type": "delivrez bookcase", "desc": "_", "color": "#00842b", "background": "square", "website": null, "amenity_subtype": "public_bookcase", "icon": "public_bookcase" }, "geometry": { "type": "Point", "coordinates": [ 6.1015363, 46.0944181 ] } },
{ "type": "Feature", "properties": { "name": "Place de l'Église", "codetype": "BSB", "type": "delivrez bookcase", "desc": "_", "color": "#00842b", "background": "square", "website": null, "amenity_subtype": "public_bookcase", "icon": "public_bookcase" }, "geometry": { "type": "Point", "coordinates": [ 6.133079, 46.1350378 ] } },
{ "type": "Feature", "properties": { "name": "Route de Beaumont", "codetype": "BSB", "type": "delivrez bookcase", "desc": "_", "color": "#00842b", "background": "square", "website": null, "amenity_subtype": "public_bookcase", "icon": "public_bookcase" }, "geometry": { "type": "Point", "coordinates": [ 6.127359, 46.120707 ] } },
{ "type": "Feature", "properties": { "name": "Chemin Neuf", "codetype": "BSB", "type": "delivrez bookcase", "desc": "Cabine téléphonique reconvertie", "color": "#00842b", "background": "square", "website": null, "amenity_subtype": "public_bookcase", "icon": "public_bookcase" }, "geometry": { "type": "Point", "coordinates": [ 6.1039892, 46.1206596 ] } },
{ "type": "Feature", "properties": { "name": "Place des Anciens Combattants", "codetype": "BSB", "type": "delivrez bookcase", "desc": "cabine a livre en face de la presse", "color": "#00842b", "background": "square", "website": null, "amenity_subtype": "public_bookcase", "icon": "public_bookcase" }, "geometry": { "type": "Point", "coordinates": [ 4.7586069, 45.3523618 ] } },
{ "type": "Feature", "properties": { "name": "Avenue Mendès France", "codetype": "BSB", "type": "delivrez bookcase", "desc": "à l'entrée du stade", "color": "#00842b", "background": "square", "website": null, "amenity_subtype": "public_bookcase", "icon": "public_bookcase" }, "geometry": { "type": "Point", "coordinates": [ 4.6952389, 44.4811482 ] } },
{ "type": "Feature", "properties": { "name": "Place de Presberg", "codetype": "BSB", "type": "delivrez bookcase", "desc": "une belle boites à livres près du parking", "color": "#00842b", "background": "square", "website": null, "amenity_subtype": "public_bookcase", "icon": "public_bookcase" }, "geometry": { "type": "Point", "coordinates": [ 4.5835891, 45.9487816 ] } },
{ "type": "Feature", "properties": { "name": "32 Rue Sermorens", "codetype": "BSB", "type": "delivrez bookcase", "desc": "boite rouge au mur", "color": "#00842b", "background": "square", "website": null, "amenity_subtype": "public_bookcase", "icon": "public_bookcase" }, "geometry": { "type": "Point", "coordinates": [ 5.5887298, 45.3686966 ] } },
{ "type": "Feature", "properties": { "name": "Route de Péage", "codetype": "BSB", "type": "delivrez bookcase", "desc": "sous l'arrêt de bus", "color": "#00842b", "background": "square", "website": null, "amenity_subtype": "public_bookcase", "icon": "public_bookcase" }, "geometry": { "type": "Point", "coordinates": [ 4.7700197, 45.4398395 ] } },
{ "type": "Feature", "properties": { "name": "Faubourg la Trau", "codetype": "BSB", "type": "delivrez bookcase", "desc": "@@__devant l'ecole", "color": "#00842b", "background": "square", "website": null, "amenity_subtype": "public_bookcase", "icon": "public_bookcase" }, "geometry": { "type": "Point", "coordinates": [ 4.6891692, 44.4814343 ] } },
{ "type": "Feature", "properties": { "name": "Lotissement les Prés Bompart", "codetype": "BSB", "type": "delivrez bookcase", "desc": "sur  l avenue des cevennes fixée sur la grille blanche devant le figuier du potager", "color": "#00842b", "background": "square", "website": null, "amenity_subtype": "public_bookcase", "icon": "public_bookcase" }, "geometry": { "type": "Point", "coordinates": [ 4.8347148, 44.7712875 ] } },
{ "type": "Feature", "properties": { "name": "Place Abbé Magnet", "codetype": "BSB", "type": "delivrez bookcase", "desc": "Devant l'office de tourisme", "color": "#00842b", "background": "square", "website": null, "amenity_subtype": "public_bookcase", "icon": "public_bookcase" }, "geometry": { "type": "Point", "coordinates": [ 5.0659382, 44.5258569 ] } },
{ "type": "Feature", "properties": { "name": "Grand Rue", "codetype": "BSB", "type": "delivrez bookcase", "desc": "Devant la boulangerie", "color": "#00842b", "background": "square", "website": null, "amenity_subtype": "public_bookcase", "icon": "public_bookcase" }, "geometry": { "type": "Point", "coordinates": [ 4.8345937, 44.6984998 ] } },
{ "type": "Feature", "properties": { "name": "Avenue vaillant couturier", "codetype": "BSB", "type": "delivrez bookcase", "desc": "En face de l'école", "color": "#00842b", "background": "square", "website": null, "amenity_subtype": "public_bookcase", "icon": "public_bookcase" }, "geometry": { "type": "Point", "coordinates": [ 4.6733273, 44.5429881 ] } },
{ "type": "Feature", "properties": { "name": "Place de la Roubine", "codetype": "BSB", "type": "delivrez bookcase", "desc": "Devant l'ecole", "color": "#00842b", "background": "square", "website": null, "amenity_subtype": "public_bookcase", "icon": "public_bookcase" }, "geometry": { "type": "Point", "coordinates": [ 4.6893605, 44.4844129 ] } },
{ "type": "Feature", "properties": { "name": "Rue Raspail", "codetype": "BSB", "type": "delivrez bookcase", "desc": "Au 11 de la rue raspail", "color": "#00842b", "background": "square", "website": null, "amenity_subtype": "public_bookcase", "icon": "public_bookcase" }, "geometry": { "type": "Point", "coordinates": [ 4.879991, 45.7733513 ] } },
{ "type": "Feature", "properties": { "name": "Rue du 4 Août 1789", "codetype": "BSB", "type": "delivrez bookcase", "desc": "Petite boîte à dons", "color": "#00842b", "background": "square", "website": null, "amenity_subtype": "public_bookcase", "icon": "public_bookcase" }, "geometry": { "type": "Point", "coordinates": [ 4.9002321, 45.7657938 ] } },
{ "type": "Feature", "properties": { "name": "Rue de Gratignol", "codetype": "BSB", "type": "delivrez bookcase", "desc": "_", "color": "#00842b", "background": "square", "website": null, "amenity_subtype": "public_bookcase", "icon": "public_bookcase" }, "geometry": { "type": "Point", "coordinates": [ 4.7154442, 45.2550506 ] } },
{ "type": "Feature", "properties": { "name": "Place de France", "codetype": "BSB", "type": "delivrez bookcase", "desc": "sur la place, sous l'abri", "color": "#00842b", "background": "square", "website": null, "amenity_subtype": "public_bookcase", "icon": "public_bookcase" }, "geometry": { "type": "Point", "coordinates": [ 4.8196453, 45.317961 ] } },
{ "type": "Feature", "properties": { "name": "Route de Vourles", "codetype": "BSB", "type": "delivrez bookcase", "desc": "dans le hall  d'entrée  du pavillon Bourret à l'hôpital Henry Gabriel", "color": "#00842b", "background": "square", "website": null, "amenity_subtype": "public_bookcase", "icon": "public_bookcase" }, "geometry": { "type": "Point", "coordinates": [ 4.7909287, 45.6905047 ] } },
{ "type": "Feature", "properties": { "name": "Boîte à livres du Village", "codetype": "BSB", "type": "delivrez bookcase", "desc": "_", "color": "#00842b", "background": "square", "website": null, "amenity_subtype": "public_bookcase", "icon": "public_bookcase" }, "geometry": { "type": "Point", "coordinates": [ 5.2635972, 44.7528142 ] } },
{ "type": "Feature", "properties": { "name": "Rue Pierre Avit Nicolas", "codetype": "BSB", "type": "delivrez bookcase", "desc": "joli \"arbre boîte à livres\" devant l'entrée du foyer Laurent  Bouvier", "color": "#00842b", "background": "square", "website": null, "amenity_subtype": "public_bookcase", "icon": "public_bookcase" }, "geometry": { "type": "Point", "coordinates": [ 4.813571, 45.3462494 ] } },
{ "type": "Feature", "properties": { "name": "Place P Allignol", "codetype": "BSB", "type": "delivrez bookcase", "desc": "Devant la mairie", "color": "#00842b", "background": "square", "website": null, "amenity_subtype": "public_bookcase", "icon": "public_bookcase" }, "geometry": { "type": "Point", "coordinates": [ 4.6913039, 44.4806939 ] } },
{ "type": "Feature", "properties": { "name": "Rue Louis Pasteur", "codetype": "BSB", "type": "delivrez bookcase", "desc": "petite maison en bois dans @@__passage pieton \"allée des jardins de la soie\"", "color": "#00842b", "background": "square", "website": null, "amenity_subtype": "public_bookcase", "icon": "public_bookcase" }, "geometry": { "type": "Point", "coordinates": [ 4.8018961, 45.3570736 ] } },
{ "type": "Feature", "properties": { "name": "Chemin du Grand Revoyet", "codetype": "BSB", "type": "delivrez bookcase", "desc": "Dans l'hôpital lyon sud. Étagère  dans le hall du bâtiment 3C, entre distributeurs de boisson et ascenseurs.", "color": "#00842b", "background": "square", "website": null, "amenity_subtype": "public_bookcase", "icon": "public_bookcase" }, "geometry": { "type": "Point", "coordinates": [ 4.8072885, 45.7013449 ] } },
{ "type": "Feature", "properties": { "name": "cite medievale", "codetype": "BSB", "type": "delivrez bookcase", "desc": "_", "color": "#00842b", "background": "square", "website": null, "amenity_subtype": "public_bookcase", "icon": "public_bookcase" }, "geometry": { "type": "Point", "coordinates": [ 5.1651767, 45.8649171 ] } },
{ "type": "Feature", "properties": { "name": "Rue du Pressoir", "codetype": "BSB", "type": "delivrez bookcase", "desc": "boîte orange", "color": "#00842b", "background": "square", "website": null, "amenity_subtype": "public_bookcase", "icon": "public_bookcase" }, "geometry": { "type": "Point", "coordinates": [ 4.9802404, 45.4993783 ] } },
{ "type": "Feature", "properties": { "name": "Rue du Village", "codetype": "BSB", "type": "delivrez bookcase", "desc": "Dans le mur à gauche du monument aux morts, devant l'église.", "color": "#00842b", "background": "square", "website": null, "amenity_subtype": "public_bookcase", "icon": "public_bookcase" }, "geometry": { "type": "Point", "coordinates": [ 4.7930291, 45.4444038 ] } },
{ "type": "Feature", "properties": { "name": "Rue Grande", "codetype": "BSB", "type": "delivrez bookcase", "desc": "Dans un ancien frigo, devant le Proxi", "color": "#00842b", "background": "square", "website": null, "amenity_subtype": "public_bookcase", "icon": "public_bookcase" }, "geometry": { "type": "Point", "coordinates": [ 4.8115634, 45.3727339 ] } },
{ "type": "Feature", "properties": { "name": "Rue Marquis de la Baume", "codetype": "BSB", "type": "delivrez bookcase", "desc": "à côté de l'Église. sur une petite place avec des bancs.", "color": "#00842b", "background": "square", "website": null, "amenity_subtype": "public_bookcase", "icon": "public_bookcase" }, "geometry": { "type": "Point", "coordinates": [ 4.752412, 44.3926748 ] } },
{ "type": "Feature", "properties": { "name": "Place du Gros Tilleul", "codetype": "BSB", "type": "delivrez bookcase", "desc": "a côté de la mairie contre le mur de l eglise", "color": "#00842b", "background": "square", "website": null, "amenity_subtype": "public_bookcase", "icon": "public_bookcase" }, "geometry": { "type": "Point", "coordinates": [ 6.7271458, 46.0835581 ] } },
{ "type": "Feature", "properties": { "name": "angle Grande Rue rue des glaciers", "codetype": "BSB", "type": "delivrez bookcase", "desc": "dans le square@@__", "color": "#00842b", "background": "square", "website": null, "amenity_subtype": "public_bookcase", "icon": "public_bookcase" }, "geometry": { "type": "Point", "coordinates": [ 6.7237673, 46.0840389 ] } },
{ "type": "Feature", "properties": { "name": "Boite a livres de l'école de Vancia", "codetype": "BSB", "type": "delivrez bookcase", "desc": "dans le square à côté de l'école", "color": "#00842b", "background": "square", "website": null, "amenity_subtype": "public_bookcase", "icon": "public_bookcase" }, "geometry": { "type": "Point", "coordinates": [ 4.9108952, 45.833849 ] } },
{ "type": "Feature", "properties": { "name": "Boite à livres de la Velette", "codetype": "BSB", "type": "delivrez bookcase", "desc": "juste devant l'entrée du centre social de la Velette à Rillieux", "color": "#00842b", "background": "square", "website": null, "amenity_subtype": "public_bookcase", "icon": "public_bookcase" }, "geometry": { "type": "Point", "coordinates": [ 4.9041345, 45.8143904 ] } },
{ "type": "Feature", "properties": { "name": "Parc Brosset", "codetype": "BSB", "type": "delivrez bookcase", "desc": "_", "color": "#00842b", "background": "square", "website": null, "amenity_subtype": "public_bookcase", "icon": "public_bookcase" }, "geometry": { "type": "Point", "coordinates": [ 4.8973514, 45.8218602 ] } },
{ "type": "Feature", "properties": { "name": "Rue du Centre", "codetype": "BSB", "type": "delivrez bookcase", "desc": "boite à livres", "color": "#00842b", "background": "square", "website": null, "amenity_subtype": "public_bookcase", "icon": "public_bookcase" }, "geometry": { "type": "Point", "coordinates": [ 4.7793375, 46.1056688 ] } },
{ "type": "Feature", "properties": { "name": "Le Bourg", "codetype": "BSB", "type": "delivrez bookcase", "desc": "_", "color": "#00842b", "background": "square", "website": null, "amenity_subtype": "public_bookcase", "icon": "public_bookcase" }, "geometry": { "type": "Point", "coordinates": [ 3.6129966, 46.6548893 ] } },
{ "type": "Feature", "properties": { "name": "Lotissement le Verger", "codetype": "BSB", "type": "delivrez bookcase", "desc": "Dans le magasin super U à droite en rentrant", "color": "#00842b", "background": "square", "website": null, "amenity_subtype": "public_bookcase", "icon": "public_bookcase" }, "geometry": { "type": "Point", "coordinates": [ 4.7201274, 44.489682 ] } },
{ "type": "Feature", "properties": { "name": "Boite à livres Parc de la Tête d'Or", "codetype": "BSB", "type": "delivrez bookcase", "desc": "Taillée dans un tronc d'arbre, avec un toit", "color": "#00842b", "background": "square", "website": null, "amenity_subtype": "public_bookcase", "icon": "public_bookcase" }, "geometry": { "type": "Point", "coordinates": [ 4.8582551, 45.7749365 ] } },
{ "type": "Feature", "properties": { "name": "Le Village", "codetype": "BSB", "type": "delivrez bookcase", "desc": "immense étagère à livres à côté de la boulangerie... avec de belles trouvailles ce jour.", "color": "#00842b", "background": "square", "website": null, "amenity_subtype": "public_bookcase", "icon": "public_bookcase" }, "geometry": { "type": "Point", "coordinates": [ 4.7905625, 44.3313887 ] } },
{ "type": "Feature", "properties": { "name": "Chemin de Cézanne", "codetype": "BSB", "type": "delivrez bookcase", "desc": "_", "color": "#00842b", "background": "square", "website": null, "amenity_subtype": "public_bookcase", "icon": "public_bookcase" }, "geometry": { "type": "Point", "coordinates": [ 4.8185303, 44.5183181 ] } },
{ "type": "Feature", "properties": { "name": "Anne Marie PERRON", "codetype": "BSB", "type": "delivrez bookcase", "desc": "Little Free Library", "color": "#00842b", "background": "square", "website": null, "amenity_subtype": "public_bookcase", "icon": "public_bookcase" }, "geometry": { "type": "Point", "coordinates": [ 3.16156, 45.54557 ] } },
{ "type": "Feature", "properties": { "name": "VIVAL ETOILE SUR RHONE", "codetype": "BSB", "type": "delivrez bookcase", "desc": "Little Free Library", "color": "#00842b", "background": "square", "website": null, "amenity_subtype": "public_bookcase", "icon": "public_bookcase" }, "geometry": { "type": "Point", "coordinates": [ 4.89593, 44.83682 ] } },
{ "type": "Feature", "properties": { "name": "VIVAL AUSSOIS", "codetype": "BSB", "type": "delivrez bookcase", "desc": "Little Free Library", "color": "#00842b", "background": "square", "website": null, "amenity_subtype": "public_bookcase", "icon": "public_bookcase" }, "geometry": { "type": "Point", "coordinates": [ 6.74055, 45.61917 ] } },
{ "type": "Feature", "properties": { "name": "VIVAL CHAVANOZ", "codetype": "BSB", "type": "delivrez bookcase", "desc": "Little Free Library", "color": "#00842b", "background": "square", "website": null, "amenity_subtype": "public_bookcase", "icon": "public_bookcase" }, "geometry": { "type": "Point", "coordinates": [ 5.196, 45.76726 ] } },
{ "type": "Feature", "properties": { "name": "VIVAL LA MOTTE CHALANCON", "codetype": "BSB", "type": "delivrez bookcase", "desc": "Little Free Library", "color": "#00842b", "background": "square", "website": null, "amenity_subtype": "public_bookcase", "icon": "public_bookcase" }, "geometry": { "type": "Point", "coordinates": [ 5.38204, 44.48591 ] } },
{ "type": "Feature", "properties": { "name": "VIVAL THIZY", "codetype": "BSB", "type": "delivrez bookcase", "desc": "Little Free Library", "color": "#00842b", "background": "square", "website": null, "amenity_subtype": "public_bookcase", "icon": "public_bookcase" }, "geometry": { "type": "Point", "coordinates": [ 4.3113, 46.03132 ] } },
{ "type": "Feature", "properties": { "name": "VIVAL LALLEY", "codetype": "BSB", "type": "delivrez bookcase", "desc": "Little Free Library", "color": "#00842b", "background": "square", "website": null, "amenity_subtype": "public_bookcase", "icon": "public_bookcase" }, "geometry": { "type": "Point", "coordinates": [ 5.67583, 44.75888 ] } },
{ "type": "Feature", "properties": { "name": "VIVAL JAUJAC", "codetype": "BSB", "type": "delivrez bookcase", "desc": "Little Free Library", "color": "#00842b", "background": "square", "website": null, "amenity_subtype": "public_bookcase", "icon": "public_bookcase" }, "geometry": { "type": "Point", "coordinates": [ 4.2564, 44.6363 ] } },
{ "type": "Feature", "properties": { "name": "VIVAL CHAPONNAY", "codetype": "BSB", "type": "delivrez bookcase", "desc": "Little Free Library", "color": "#00842b", "background": "square", "website": null, "amenity_subtype": "public_bookcase", "icon": "public_bookcase" }, "geometry": { "type": "Point", "coordinates": [ 4.93418, 45.62794 ] } },
{ "type": "Feature", "properties": { "name": "VIVAL GROISY", "codetype": "BSB", "type": "delivrez bookcase", "desc": "Little Free Library", "color": "#00842b", "background": "square", "website": null, "amenity_subtype": "public_bookcase", "icon": "public_bookcase" }, "geometry": { "type": "Point", "coordinates": [ 6.16954, 46.00909 ] } },
{ "type": "Feature", "properties": { "name": "VIVAL SILLINGY", "codetype": "BSB", "type": "delivrez bookcase", "desc": "Little Free Library", "color": "#00842b", "background": "square", "website": null, "amenity_subtype": "public_bookcase", "icon": "public_bookcase" }, "geometry": { "type": "Point", "coordinates": [ 6.03445, 45.94643 ] } },
{ "type": "Feature", "properties": { "name": "VIVAL CHAMPFROMIER", "codetype": "BSB", "type": "delivrez bookcase", "desc": "Little Free Library", "color": "#00842b", "background": "square", "website": null, "amenity_subtype": "public_bookcase", "icon": "public_bookcase" }, "geometry": { "type": "Point", "coordinates": [ 5.81583, 46.19444 ] } },
{ "type": "Feature", "properties": { "name": "VIVAL BALAN", "codetype": "BSB", "type": "delivrez bookcase", "desc": "Little Free Library", "color": "#00842b", "background": "square", "website": null, "amenity_subtype": "public_bookcase", "icon": "public_bookcase" }, "geometry": { "type": "Point", "coordinates": [ 5.09805, 45.83388 ] } },
{ "type": "Feature", "properties": { "name": "VIVAL YTRAC", "codetype": "BSB", "type": "delivrez bookcase", "desc": "Little Free Library", "color": "#00842b", "background": "square", "website": null, "amenity_subtype": "public_bookcase", "icon": "public_bookcase" }, "geometry": { "type": "Point", "coordinates": [ 2.36232, 44.91411 ] } },
{ "type": "Feature", "properties": { "name": "Rue des Grands Charmes", "codetype": "BSB", "type": "delivrez bookcase", "desc": "_", "color": "#00842b", "background": "square", "website": null, "amenity_subtype": "public_bookcase", "icon": "public_bookcase" }, "geometry": { "type": "Point", "coordinates": [ 3.4198664, 46.1500264 ] } },
{ "type": "Feature", "properties": { "name": "Au Pont", "codetype": "BSB", "type": "delivrez bookcase", "desc": "devant le vival", "color": "#00842b", "background": "square", "website": null, "amenity_subtype": "public_bookcase", "icon": "public_bookcase" }, "geometry": { "type": "Point", "coordinates": [ 5.5399714, 46.1279388 ] } },
{ "type": "Feature", "properties": { "name": "Avenue Charles de Gaulle", "codetype": "BSB", "type": "delivrez bookcase", "desc": "_", "color": "#00842b", "background": "square", "website": null, "amenity_subtype": "public_bookcase", "icon": "public_bookcase" }, "geometry": { "type": "Point", "coordinates": [ 4.7473677, 44.5578238 ] } },
{ "type": "Feature", "properties": { "name": "Rue Anatole France", "codetype": "BSB", "type": "delivrez bookcase", "desc": "devant le musée de la grande vapeur", "color": "#00842b", "background": "square", "website": null, "amenity_subtype": "public_bookcase", "icon": "public_bookcase" }, "geometry": { "type": "Point", "coordinates": [ 5.6581975, 46.2606225 ] } },
{ "type": "Feature", "properties": { "name": "Rue Paul Painlevé", "codetype": "BSB", "type": "delivrez bookcase", "desc": "en face du vival", "color": "#00842b", "background": "square", "website": null, "amenity_subtype": "public_bookcase", "icon": "public_bookcase" }, "geometry": { "type": "Point", "coordinates": [ 5.6073138, 46.1516781 ] } },
{ "type": "Feature", "properties": { "name": "Rue de la Nation", "codetype": "BSB", "type": "delivrez bookcase", "desc": "vers l'arrêt de bus", "color": "#00842b", "background": "square", "website": null, "amenity_subtype": "public_bookcase", "icon": "public_bookcase" }, "geometry": { "type": "Point", "coordinates": [ 4.7008615, 45.8985473 ] } },
{ "type": "Feature", "properties": { "name": "Rue du Grand Fossé", "codetype": "BSB", "type": "delivrez bookcase", "desc": "vers la Poste", "color": "#00842b", "background": "square", "website": null, "amenity_subtype": "public_bookcase", "icon": "public_bookcase" }, "geometry": { "type": "Point", "coordinates": [ 4.7711542, 45.8737868 ] } },
{ "type": "Feature", "properties": { "name": "place de la mairie", "codetype": "BSB", "type": "delivrez bookcase", "desc": "_", "color": "#00842b", "background": "square", "website": null, "amenity_subtype": "public_bookcase", "icon": "public_bookcase" }, "geometry": { "type": "Point", "coordinates": [ 4.1136318, 46.1450648 ] } },
{ "type": "Feature", "properties": { "name": "542 Route du Tramway", "codetype": "BSB", "type": "delivrez bookcase", "desc": "Un grand congélateur à tiroirs devant la mairie", "color": "#00842b", "background": "square", "website": null, "amenity_subtype": "public_bookcase", "icon": "public_bookcase" }, "geometry": { "type": "Point", "coordinates": [ 5.2299247, 45.3208527 ] } },
{ "type": "Feature", "properties": { "name": "2 rue des Voconces", "codetype": "BSB", "type": "delivrez bookcase", "desc": "Devant la Pharmacie des Antignans", "color": "#00842b", "background": "square", "website": null, "amenity_subtype": "public_bookcase", "icon": "public_bookcase" }, "geometry": { "type": "Point", "coordinates": [ 5.1269242, 44.3554694 ] } },
{ "type": "Feature", "properties": { "name": "Parc devant gare SNCF", "codetype": "BSB", "type": "delivrez bookcase", "desc": "", "color": "#00842b", "background": "square", "website": null, "amenity_subtype": "public_bookcase", "icon": "public_bookcase" }, "geometry": { "type": "Point", "coordinates": [ 3.3388414, 46.5613425 ] } },
{ "type": "Feature", "properties": { "name": "Rue des halles", "codetype": "BSB", "type": "delivrez bookcase", "desc": "Sous les halles, dans le centre du village", "color": "#00842b", "background": "square", "website": null, "amenity_subtype": "public_bookcase", "icon": "public_bookcase" }, "geometry": { "type": "Point", "coordinates": [ 5.343913, 45.339115 ] } },
{ "type": "Feature", "properties": { "name": "place du marché", "codetype": "BSB", "type": "delivrez bookcase", "desc": "dans une armoire peinte, sous la halle", "color": "#00842b", "background": "square", "website": null, "amenity_subtype": "public_bookcase", "icon": "public_bookcase" }, "geometry": { "type": "Point", "coordinates": [ 5.217543, 45.175068 ] } },
{ "type": "Feature", "properties": { "name": "Mairie", "codetype": "BSB", "type": "delivrez bookcase", "desc": "Située devant la mairie", "color": "#00842b", "background": "square", "website": null, "amenity_subtype": "public_bookcase", "icon": "public_bookcase" }, "geometry": { "type": "Point", "coordinates": [ 3.15183699131012, 46.238655832551558 ] } },
{ "type": "Feature", "properties": { "name": "21 Route de Charbieux D267", "codetype": "BSB", "type": "delivrez bookcase", "desc": "Dans la maison en béton au milieu du rond point.Grande boîte à lire !", "color": "#00842b", "background": "square", "website": null, "amenity_subtype": "public_bookcase", "icon": "public_bookcase" }, "geometry": { "type": "Point", "coordinates": [ 4.7619064, 45.2822916 ] } },
{ "type": "Feature", "properties": { "name": "Avenue Jean Jaurès, centre social", "codetype": "BSB", "type": "delivrez bookcase", "desc": "Grande boîte, avec un grand choix. Elle se trouve devant le centre social", "color": "#00842b", "background": "square", "website": null, "amenity_subtype": "public_bookcase", "icon": "public_bookcase" }, "geometry": { "type": "Point", "coordinates": [ 4.8048868, 45.3651054 ] } },
{ "type": "Feature", "properties": { "name": "Rue des écoles", "codetype": "BSB", "type": "delivrez bookcase", "desc": "Juste en face de l'école", "color": "#00842b", "background": "square", "website": null, "amenity_subtype": "public_bookcase", "icon": "public_bookcase" }, "geometry": { "type": "Point", "coordinates": [ 5.858316, 45.648499 ] } },
{ "type": "Feature", "properties": { "name": "Arbre de la liberté / 8 mai 1945, rue Molly Sabata", "codetype": "BSB", "type": "delivrez bookcase", "desc": "Boîte plutôt moyenne, d'environ 50 livres. A droite du portail d'entrée", "color": "#00842b", "background": "square", "website": null, "amenity_subtype": "public_bookcase", "icon": "public_bookcase" }, "geometry": { "type": "Point", "coordinates": [ 4.778940081596375, 45.312872605039779 ] } },
{ "type": "Feature", "properties": { "name": "office de tourisme", "codetype": "BSB", "type": "delivrez bookcase", "desc": "", "color": "#00842b", "background": "square", "website": null, "amenity_subtype": "public_bookcase", "icon": "public_bookcase" }, "geometry": { "type": "Point", "coordinates": [ 3.0729256, 45.9195492 ] } },
{ "type": "Feature", "properties": { "name": "place Guillaume Douarre", "codetype": "BSB", "type": "delivrez bookcase", "desc": "Dans le parc de la mairie", "color": "#00842b", "background": "square", "website": null, "amenity_subtype": "public_bookcase", "icon": "public_bookcase" }, "geometry": { "type": "Point", "coordinates": [ 3.091519474983216, 45.934102215299639 ] } },
{ "type": "Feature", "properties": { "name": "Site Médiéval", "codetype": "BSB", "type": "delivrez bookcase", "desc": "Sur le parking du se Site Médiéval de Donzy  à 1", "color": "#00842b", "background": "square", "website": null, "amenity_subtype": "public_bookcase", "icon": "public_bookcase" }, "geometry": { "type": "Point", "coordinates": [ 4.2824065, 45.747701 ] } },
{ "type": "Feature", "properties": { "name": "Place de la mairie", "codetype": "BSB", "type": "delivrez bookcase", "desc": "A côté de la mairie.", "color": "#00842b", "background": "square", "website": null, "amenity_subtype": "public_bookcase", "icon": "public_bookcase" }, "geometry": { "type": "Point", "coordinates": [ 6.692988, 45.4547979 ] } },
{ "type": "Feature", "properties": { "name": "Centre commercial Carrefour, 1 rue des abattoirs", "codetype": "BSB", "type": "delivrez bookcase", "desc": "Dans la partie droite de la galerie marchande, en face du magasin Etam", "color": "#00842b", "background": "square", "website": null, "amenity_subtype": "public_bookcase", "icon": "public_bookcase" }, "geometry": { "type": "Point", "coordinates": [ 5.6636431, 45.2395437 ] } },
{ "type": "Feature", "properties": { "name": "Place de l Église", "codetype": "BSB", "type": "delivrez bookcase", "desc": "Boite à livres gérée par la bibliothèque de Thuret. Dans le jardin de la mairie, dans un frigo.", "color": "#00842b", "background": "square", "website": null, "amenity_subtype": "public_bookcase", "icon": "public_bookcase" }, "geometry": { "type": "Point", "coordinates": [ 3.2573985, 45.9699617 ] } },
{ "type": "Feature", "properties": { "name": "Avenue de Clermont", "codetype": "BSB", "type": "delivrez bookcase", "desc": "Boîte à lire fixée sur le mur à l'angle de la rue des Roses et l'avenue de Clermont", "color": "#00842b", "background": "square", "website": null, "amenity_subtype": "public_bookcase", "icon": "public_bookcase" }, "geometry": { "type": "Point", "coordinates": [ 2.3363965, 45.2197255 ] } },
{ "type": "Feature", "properties": { "name": "25 route des moulins", "codetype": "BSB", "type": "delivrez bookcase", "desc": "Dans la cabine téléphonique et l'abris de bus", "color": "#00842b", "background": "square", "website": null, "amenity_subtype": "public_bookcase", "icon": "public_bookcase" }, "geometry": { "type": "Point", "coordinates": [ 3.091900348663331, 45.585538599133201 ] } },
{ "type": "Feature", "properties": { "name": "Route de Lalizolles", "codetype": "BSB", "type": "delivrez bookcase", "desc": "", "color": "#00842b", "background": "square", "website": null, "amenity_subtype": "public_bookcase", "icon": "public_bookcase" }, "geometry": { "type": "Point", "coordinates": [ 3.064905, 46.152894 ] } },
{ "type": "Feature", "properties": { "name": "Ecole du Bex d Ytrac", "codetype": "BSB", "type": "delivrez bookcase", "desc": "Elle se trouve entre l école et l'église, pleine à craquer, elle n'attend que de nouveaux adeptes. Un banc est mis à disposition mais vous pouvez également vous installez dans l'herbe ou sur les bancs derrière l'église.", "color": "#00842b", "background": "square", "website": null, "amenity_subtype": "public_bookcase", "icon": "public_bookcase" }, "geometry": { "type": "Point", "coordinates": [ 2.3849855, 44.8798423 ] } },
{ "type": "Feature", "properties": { "name": "Senilhes", "codetype": "BSB", "type": "delivrez bookcase", "desc": "Contre la salle polyvalente, à côté des casiers à pain.Cette petite boîte à livre rouge a fait son apparition il y a quelques semaines.", "color": "#00842b", "background": "square", "website": null, "amenity_subtype": "public_bookcase", "icon": "public_bookcase" }, "geometry": { "type": "Point", "coordinates": [ 2.456862, 44.854054 ] } },
{ "type": "Feature", "properties": { "name": "Le Bourg", "codetype": "BSB", "type": "delivrez bookcase", "desc": "Au coeur du village,  des livres confortablement installés dans une ancienne cabine téléphonique vous attendent.", "color": "#00842b", "background": "square", "website": null, "amenity_subtype": "public_bookcase", "icon": "public_bookcase" }, "geometry": { "type": "Point", "coordinates": [ 2.970616, 45.172681 ] } },
{ "type": "Feature", "properties": { "name": "Avenue de Lauterbourg", "codetype": "BSB", "type": "delivrez bookcase", "desc": "Située dans l\"entrée de la MJC Foyer 3ème âge", "color": "#00842b", "background": "square", "website": null, "amenity_subtype": "public_bookcase", "icon": "public_bookcase" }, "geometry": { "type": "Point", "coordinates": [ 4.778859, 45.759565 ] } },
{ "type": "Feature", "properties": { "name": "Parc Doyen Gosse, face au 9 rue du Vercors", "codetype": "BSB", "type": "delivrez bookcase", "desc": "la boite est en forme de pot à fleurs rouge renversé et suspendue à un mètre au-dessus du sol. Des étagères sont disposées à l intérieur. Il faut de baisser pour entrer.", "color": "#00842b", "background": "square", "website": null, "amenity_subtype": "public_bookcase", "icon": "public_bookcase" }, "geometry": { "type": "Point", "coordinates": [ 5.7512687, 45.2006221 ] } },
{ "type": "Feature", "properties": { "name": "1 place Jules Ferry", "codetype": "BSB", "type": "delivrez bookcase", "desc": "", "color": "#00842b", "background": "square", "website": null, "amenity_subtype": "public_bookcase", "icon": "public_bookcase" }, "geometry": { "type": "Point", "coordinates": [ 4.8325513, 45.7860634 ] } },
{ "type": "Feature", "properties": { "name": "3 Avenue Claude Expilly", "codetype": "BSB", "type": "delivrez bookcase", "desc": "à l'entrée du parc côté casino sur la droite, juste avant le premier pont", "color": "#00842b", "background": "square", "website": null, "amenity_subtype": "public_bookcase", "icon": "public_bookcase" }, "geometry": { "type": "Point", "coordinates": [ 4.366821, 44.656363 ] } },
{ "type": "Feature", "properties": { "name": "Place René Cassin", "codetype": "BSB", "type": "delivrez bookcase", "desc": "Boîte à lire dans ancienne cabine téléphonique devant la poste", "color": "#00842b", "background": "square", "website": null, "amenity_subtype": "public_bookcase", "icon": "public_bookcase" }, "geometry": { "type": "Point", "coordinates": [ 6.1365957, 45.6857345 ] } },
{ "type": "Feature", "properties": { "name": "rue du Centre", "codetype": "BSB", "type": "delivrez bookcase", "desc": "Ancienne cabine téléphonique située en centre ville, entre le stade municipal et la mairie", "color": "#00842b", "background": "square", "website": null, "amenity_subtype": "public_bookcase", "icon": "public_bookcase" }, "geometry": { "type": "Point", "coordinates": [ 5.328674, 45.511338 ] } },
{ "type": "Feature", "properties": { "name": "Meaux la montagne", "codetype": "BSB", "type": "delivrez bookcase", "desc": "à coté de l église ,elle est toute neuve, et se trouve devant un petit restaurant", "color": "#00842b", "background": "square", "website": null, "amenity_subtype": "public_bookcase", "icon": "public_bookcase" }, "geometry": { "type": "Point", "coordinates": [ 4.421653, 46.044589 ] } },
{ "type": "Feature", "properties": { "name": "Rue Jean Fabre", "codetype": "BSB", "type": "delivrez bookcase", "desc": "La boite à livre se trouve juste à côté du jardin d'enfant. Elle est tournée vers la place des Jacobins", "color": "#00842b", "background": "square", "website": null, "amenity_subtype": "public_bookcase", "icon": "public_bookcase" }, "geometry": { "type": "Point", "coordinates": [ 4.8330347, 45.7602682 ] } },
{ "type": "Feature", "properties": { "name": "89 Mail Marcel Cachin", "codetype": "BSB", "type": "delivrez bookcase", "desc": "Dans le hall de la mairie. Dans un frigo. Accessible les jours d'ouverture de la mairie", "color": "#00842b", "background": "square", "website": null, "amenity_subtype": "public_bookcase", "icon": "public_bookcase" }, "geometry": { "type": "Point", "coordinates": [ 5.6882809, 45.1918314 ] } },
{ "type": "Feature", "properties": { "name": "31 avenue Hector Berlioz", "codetype": "BSB", "type": "delivrez bookcase", "desc": "Face à l'école de Seyssinet village. une ancienne cabine téléphonique", "color": "#00842b", "background": "square", "website": null, "amenity_subtype": "public_bookcase", "icon": "public_bookcase" }, "geometry": { "type": "Point", "coordinates": [ 5.6805865, 45.1690129 ] } },
{ "type": "Feature", "properties": { "name": "2 rue des Halles", "codetype": "BSB", "type": "delivrez bookcase", "desc": "Juste en face de la halle, dans une ancienne cabine publique", "color": "#00842b", "background": "square", "website": null, "amenity_subtype": "public_bookcase", "icon": "public_bookcase" }, "geometry": { "type": "Point", "coordinates": [ 5.3874019, 45.491245 ] } },
{ "type": "Feature", "properties": { "name": "3 rue Pré-Gaudry", "codetype": "BSB", "type": "delivrez bookcase", "desc": "La Commune, tiers-lieu culinaire et culturel à Lyon, propose une échoppe solidaire dans laquelle on peut trouver une bibliothèque partagée ainsi qu une boîte à partage.", "color": "#00842b", "background": "square", "website": null, "amenity_subtype": "public_bookcase", "icon": "public_bookcase" }, "geometry": { "type": "Point", "coordinates": [ 4.833995, 45.7423226 ] } },
{ "type": "Feature", "properties": { "name": "10 passage du manoir de la Mure", "codetype": "BSB", "type": "delivrez bookcase", "desc": "ce village a 2 boites à lire, une ancienne cabine de téléphone et un petit coin adorable avec table et chaises ou vous pouvez trouver ou donner des livres et un village médiéval adorable à visiter en plus", "color": "#00842b", "background": "square", "website": null, "amenity_subtype": "public_bookcase", "icon": "public_bookcase" }, "geometry": { "type": "Point", "coordinates": [ 4.0121606, 45.9644328 ] } },
{ "type": "Feature", "properties": { "name": "Place Eugène Riband", "codetype": "BSB", "type": "delivrez bookcase", "desc": "Ancienne cabine téléphonique dans le petit square à côté de l'église", "color": "#00842b", "background": "square", "website": null, "amenity_subtype": "public_bookcase", "icon": "public_bookcase" }, "geometry": { "type": "Point", "coordinates": [ 5.811456441879272, 45.118652278121495 ] } },
{ "type": "Feature", "properties": { "name": "Chemin du peupliers", "codetype": "BSB", "type": "delivrez bookcase", "desc": "Au niveau de l arrêt de bus de la ligne 89 LES AULNES", "color": "#00842b", "background": "square", "website": null, "amenity_subtype": "public_bookcase", "icon": "public_bookcase" }, "geometry": { "type": "Point", "coordinates": [ 4.7584863, 45.8136519 ] } },
{ "type": "Feature", "properties": { "name": "D911", "codetype": "BSB", "type": "delivrez bookcase", "desc": "A côté de la poste dans une ancienne cabine téléphonique", "color": "#00842b", "background": "square", "website": null, "amenity_subtype": "public_bookcase", "icon": "public_bookcase" }, "geometry": { "type": "Point", "coordinates": [ 6.1063459, 45.7139223 ] } },
{ "type": "Feature", "properties": { "name": "Place de la liberté", "codetype": "BSB", "type": "delivrez bookcase", "desc": "À côté de l'office du tourisme", "color": "#00842b", "background": "square", "website": null, "amenity_subtype": "public_bookcase", "icon": "public_bookcase" }, "geometry": { "type": "Point", "coordinates": [ 5.9840727, 45.5486935 ] } },
{ "type": "Feature", "properties": { "name": "route de Saint-Jean", "codetype": "BSB", "type": "delivrez bookcase", "desc": "A la sortie du parking de Carrefour Market, en direction de Coublevie", "color": "#00842b", "background": "square", "website": null, "amenity_subtype": "public_bookcase", "icon": "public_bookcase" }, "geometry": { "type": "Point", "coordinates": [ 5.5691237, 45.3338231 ] } },
{ "type": "Feature", "properties": { "name": "Place de la poste", "codetype": "BSB", "type": "delivrez bookcase", "desc": "", "color": "#00842b", "background": "square", "website": null, "amenity_subtype": "public_bookcase", "icon": "public_bookcase" }, "geometry": { "type": "Point", "coordinates": [ 4.5363891, 45.9463338 ] } },
{ "type": "Feature", "properties": { "name": "parc de vals les bains", "codetype": "BSB", "type": "delivrez bookcase", "desc": "entre la piscine et l aire de jeux pour enfants", "color": "#00842b", "background": "square", "website": null, "amenity_subtype": "public_bookcase", "icon": "public_bookcase" }, "geometry": { "type": "Point", "coordinates": [ 4.3685094, 44.6559046 ] } },
{ "type": "Feature", "properties": { "name": "445 route du guillon à peu près", "codetype": "BSB", "type": "delivrez bookcase", "desc": "En face du stade de la dalmassiere et de l entrée de la MFR.", "color": "#00842b", "background": "square", "website": null, "amenity_subtype": "public_bookcase", "icon": "public_bookcase" }, "geometry": { "type": "Point", "coordinates": [ 5.6063347, 45.3590965 ] } },
{ "type": "Feature", "properties": { "name": "PLACE DE RECHARINGES", "codetype": "BSB", "type": "delivrez bookcase", "desc": "La boite à livre est située dans une ancienne cabine téléphonique.", "color": "#00842b", "background": "square", "website": null, "amenity_subtype": "public_bookcase", "icon": "public_bookcase" }, "geometry": { "type": "Point", "coordinates": [ 4.1589604, 45.0630676 ] } },
{ "type": "Feature", "properties": { "name": "Rue de Longefand", "codetype": "BSB", "type": "delivrez bookcase", "desc": "Ancienne cabine téléphonique sur le parking", "color": "#00842b", "background": "square", "website": null, "amenity_subtype": "public_bookcase", "icon": "public_bookcase" }, "geometry": { "type": "Point", "coordinates": [ 5.9420146, 45.5763684 ] } },
{ "type": "Feature", "properties": { "name": "Rue des Sablons", "codetype": "BSB", "type": "delivrez bookcase", "desc": "Devant la boucherie, rive gauche du pont.", "color": "#00842b", "background": "square", "website": null, "amenity_subtype": "public_bookcase", "icon": "public_bookcase" }, "geometry": { "type": "Point", "coordinates": [ 5.9725997, 45.5759628 ] } },
{ "type": "Feature", "properties": { "name": "Route de Chesses", "codetype": "BSB", "type": "delivrez bookcase", "desc": "", "color": "#00842b", "background": "square", "website": null, "amenity_subtype": "public_bookcase", "icon": "public_bookcase" }, "geometry": { "type": "Point", "coordinates": [ 5.951278, 45.58287 ] } },
{ "type": "Feature", "properties": { "name": "Aqualib, 70, Avenue Charles de Gaulle", "codetype": "BSB", "type": "delivrez bookcase", "desc": "Dans le hall d'accueil de la piscine Aqualib.", "color": "#00842b", "background": "square", "website": null, "amenity_subtype": "public_bookcase", "icon": "public_bookcase" }, "geometry": { "type": "Point", "coordinates": [ 5.2628205, 45.3880019 ] } },
{ "type": "Feature", "properties": { "name": "14, chemin du villard", "codetype": "BSB", "type": "delivrez bookcase", "desc": "Initiative de l association Vert de Terre", "color": "#00842b", "background": "square", "website": null, "amenity_subtype": "public_bookcase", "icon": "public_bookcase" }, "geometry": { "type": "Point", "coordinates": [ 5.7929363, 45.1389865 ] } },
{ "type": "Feature", "properties": { "name": "Abri de bus", "codetype": "BSB", "type": "delivrez bookcase", "desc": "A l'entrée de ce petit village en venant de colombier, sous l'abri de bus", "color": "#00842b", "background": "square", "website": null, "amenity_subtype": "public_bookcase", "icon": "public_bookcase" }, "geometry": { "type": "Point", "coordinates": [ 2.827005386352539, 46.284073749491725 ] } },
{ "type": "Feature", "properties": { "name": "Mairie", "codetype": "BSB", "type": "delivrez bookcase", "desc": "Près de la mairie sous les halles couvertes", "color": "#00842b", "background": "square", "website": null, "amenity_subtype": "public_bookcase", "icon": "public_bookcase" }, "geometry": { "type": "Point", "coordinates": [ 2.835108, 46.161138 ] } },
{ "type": "Feature", "properties": { "name": "Route de geneve", "codetype": "BSB", "type": "delivrez bookcase", "desc": "Fabriquée par les enfants du periscolaire de la valbonne elle a permis de recycler un vieux frigo", "color": "#00842b", "background": "square", "website": null, "amenity_subtype": "public_bookcase", "icon": "public_bookcase" }, "geometry": { "type": "Point", "coordinates": [ 5.128598213195802, 45.852328419479377 ] } },
{ "type": "Feature", "properties": { "name": "Bibliothèque", "codetype": "BSB", "type": "delivrez bookcase", "desc": "Dans le parc pour enfants collé a la bibliothèque", "color": "#00842b", "background": "square", "website": null, "amenity_subtype": "public_bookcase", "icon": "public_bookcase" }, "geometry": { "type": "Point", "coordinates": [ 5.172768831253053, 45.602509015102989 ] } },
{ "type": "Feature", "properties": { "name": "Place des terreaux", "codetype": "BSB", "type": "delivrez bookcase", "desc": "Une ancienne cabine téléphonique transformée en boite à livres !", "color": "#00842b", "background": "square", "website": null, "amenity_subtype": "public_bookcase", "icon": "public_bookcase" }, "geometry": { "type": "Point", "coordinates": [ 4.583328, 45.852647 ] } },
{ "type": "Feature", "properties": { "name": "Place de la Mairie", "codetype": "BSB", "type": "delivrez bookcase", "desc": "Sur la façade de la bibliothèque, très belle boite à lire, livres bien protégés de l humidité.", "color": "#00842b", "background": "square", "website": null, "amenity_subtype": "public_bookcase", "icon": "public_bookcase" }, "geometry": { "type": "Point", "coordinates": [ 6.220769, 45.910504 ] } },
{ "type": "Feature", "properties": { "name": "rue des écoles", "codetype": "BSB", "type": "delivrez bookcase", "desc": "TrocBook sur le parking de l école primaire René Cassin", "color": "#00842b", "background": "square", "website": null, "amenity_subtype": "public_bookcase", "icon": "public_bookcase" }, "geometry": { "type": "Point", "coordinates": [ 5.0134, 45.647101 ] } },
{ "type": "Feature", "properties": { "name": "384 Rue de la République", "codetype": "BSB", "type": "delivrez bookcase", "desc": "Se trouve à l entrée de la Mairie. 4 malles remplies majoritairement de vieux livres et quelques livres en anglais.", "color": "#00842b", "background": "square", "website": null, "amenity_subtype": "public_bookcase", "icon": "public_bookcase" }, "geometry": { "type": "Point", "coordinates": [ 5.3896398, 45.3421266 ] } },
{ "type": "Feature", "properties": { "name": "Place de la mairie", "codetype": "BSB", "type": "delivrez bookcase", "desc": "", "color": "#00842b", "background": "square", "website": null, "amenity_subtype": "public_bookcase", "icon": "public_bookcase" }, "geometry": { "type": "Point", "coordinates": [ 5.183755, 46.334427 ] } },
{ "type": "Feature", "properties": { "name": "132 avenue du Pavillon", "codetype": "BSB", "type": "delivrez bookcase", "desc": "Elle se trouve dans la pharmacie. C est une petite caisse en rentrant à gauche.", "color": "#00842b", "background": "square", "website": null, "amenity_subtype": "public_bookcase", "icon": "public_bookcase" }, "geometry": { "type": "Point", "coordinates": [ 5.7352486, 45.0799137 ] } },
{ "type": "Feature", "properties": { "name": "Le Bourg", "codetype": "BSB", "type": "delivrez bookcase", "desc": "Dans le bourg - A cote de l eglise - Entree du magasin Vival.", "color": "#00842b", "background": "square", "website": null, "amenity_subtype": "public_bookcase", "icon": "public_bookcase" }, "geometry": { "type": "Point", "coordinates": [ 3.8936289, 46.1062095 ] } },
{ "type": "Feature", "properties": { "name": "Mairie", "codetype": "BSB", "type": "delivrez bookcase", "desc": "", "color": "#00842b", "background": "square", "website": null, "amenity_subtype": "public_bookcase", "icon": "public_bookcase" }, "geometry": { "type": "Point", "coordinates": [ 4.3648835, 44.6651663 ] } },
{ "type": "Feature", "properties": { "name": "rue de l hôtel de Ville", "codetype": "BSB", "type": "delivrez bookcase", "desc": "Fabriquée par le Conseil des jeunes et le Conseil des senior de la Ville de Commentry", "color": "#00842b", "background": "square", "website": null, "amenity_subtype": "public_bookcase", "icon": "public_bookcase" }, "geometry": { "type": "Point", "coordinates": [ 2.741199, 46.28906 ] } },
{ "type": "Feature", "properties": { "name": "allée des Florentines", "codetype": "BSB", "type": "delivrez bookcase", "desc": "Boîte à lire des FlorentinesMise en place par la copropriétéJuste derrière les boîtes à lettres à l entrée de la copropriété.", "color": "#00842b", "background": "square", "website": null, "amenity_subtype": "public_bookcase", "icon": "public_bookcase" }, "geometry": { "type": "Point", "coordinates": [ 5.7915892, 45.2280422 ] } },
{ "type": "Feature", "properties": { "name": "9 Rue Roquette", "codetype": "BSB", "type": "delivrez bookcase", "desc": "Devant le Centre Social et Culturel Pierrette Augier Lyon-Vaise", "color": "#00842b", "background": "square", "website": null, "amenity_subtype": "public_bookcase", "icon": "public_bookcase" }, "geometry": { "type": "Point", "coordinates": [ 4.8059408, 45.7764201 ] } },
{ "type": "Feature", "properties": { "name": "249 rue Vendome", "codetype": "BSB", "type": "delivrez bookcase", "desc": "devant l entrée de la MJC - salle des Rancy", "color": "#00842b", "background": "square", "website": null, "amenity_subtype": "public_bookcase", "icon": "public_bookcase" }, "geometry": { "type": "Point", "coordinates": [ 4.8478133, 45.7558726 ] } },
{ "type": "Feature", "properties": { "name": "rue de la Terre Sainte", "codetype": "BSB", "type": "delivrez bookcase", "desc": "Installé par la municipalité d Arvillard sur le bassin de la Terre Sainte en 2017", "color": "#00842b", "background": "square", "website": null, "amenity_subtype": "public_bookcase", "icon": "public_bookcase" }, "geometry": { "type": "Point", "coordinates": [ 6.11972, 45.444647 ] } },
{ "type": "Feature", "properties": { "name": "Place de l'hôtel de Ville", "codetype": "BSB", "type": "delivrez bookcase", "desc": "Elle se situe dans l'ancien chalet, à proximité de l'entrée du parking", "color": "#00842b", "background": "square", "website": null, "amenity_subtype": "public_bookcase", "icon": "public_bookcase" }, "geometry": { "type": "Point", "coordinates": [ 4.0723452, 46.0347852 ] } },
{ "type": "Feature", "properties": { "name": "Rue Jules Faron", "codetype": "BSB", "type": "delivrez bookcase", "desc": "Parc Dolto, entre le centre social et centre petite enfance", "color": "#00842b", "background": "square", "website": null, "amenity_subtype": "public_bookcase", "icon": "public_bookcase" }, "geometry": { "type": "Point", "coordinates": [ 4.0366106, 46.0440973 ] } },
{ "type": "Feature", "properties": { "name": "100 rue boileau", "codetype": "BSB", "type": "delivrez bookcase", "desc": "Mjc", "color": "#00842b", "background": "square", "website": null, "amenity_subtype": "public_bookcase", "icon": "public_bookcase" }, "geometry": { "type": "Point", "coordinates": [ 4.84904, 45.7675473 ] } },
{ "type": "Feature", "properties": { "name": "959 Chemin de chez Desbois", "codetype": "BSB", "type": "delivrez bookcase", "desc": "Installée par le conseil municipale des Enfants", "color": "#00842b", "background": "square", "website": null, "amenity_subtype": "public_bookcase", "icon": "public_bookcase" }, "geometry": { "type": "Point", "coordinates": [ 6.3022849, 46.1594858 ] } },
{ "type": "Feature", "properties": { "name": "La ferme du vinatier 95 boulevard pinel", "codetype": "BSB", "type": "delivrez bookcase", "desc": "La boite se trouve dans le hall d accueil de la Ferme du Vinatier, la structure culturelle de l'hôpital du vinatier", "color": "#00842b", "background": "square", "website": null, "amenity_subtype": "public_bookcase", "icon": "public_bookcase" }, "geometry": { "type": "Point", "coordinates": [ 4.8963057, 45.7389578 ] } },
{ "type": "Feature", "properties": { "name": "Palais des sports", "codetype": "BSB", "type": "delivrez bookcase", "desc": "Cette boîte se trouve dans le hall d?accueil du Palais pour donner livres, magazines ou livres pour enfants.", "color": "#00842b", "background": "square", "website": null, "amenity_subtype": "public_bookcase", "icon": "public_bookcase" }, "geometry": { "type": "Point", "coordinates": [ 6.6181335, 45.8614276 ] } },
{ "type": "Feature", "properties": { "name": "route de l église, Balmont", "codetype": "BSB", "type": "delivrez bookcase", "desc": "devant l église de Balmont, commune de Seynod", "color": "#00842b", "background": "square", "website": null, "amenity_subtype": "public_bookcase", "icon": "public_bookcase" }, "geometry": { "type": "Point", "coordinates": [ 6.061928, 45.8328119 ] } },
{ "type": "Feature", "properties": { "name": "rue pierre poitrasson", "codetype": "BSB", "type": "delivrez bookcase", "desc": "situé sur la place devant la chapelle, en face de l église.Un joli frigo recyclé en Biblio-Moiré.", "color": "#00842b", "background": "square", "website": null, "amenity_subtype": "public_bookcase", "icon": "public_bookcase" }, "geometry": { "type": "Point", "coordinates": [ 4.6034254, 45.927805 ] } },
{ "type": "Feature", "properties": { "name": "285 rue de Savoie", "codetype": "BSB", "type": "delivrez bookcase", "desc": "Télécabine réaménagée en bibliothèque.Située à côté du terrain de pétanque l été et sur le parking de la mairie l'hiver", "color": "#00842b", "background": "square", "website": null, "amenity_subtype": "public_bookcase", "icon": "public_bookcase" }, "geometry": { "type": "Point", "coordinates": [ 6.5180448, 45.8086735 ] } },
{ "type": "Feature", "properties": { "name": "Route du Bourgeal, la Mairie", "codetype": "BSB", "type": "delivrez bookcase", "desc": "Très jolie boite à livres située à l abris devant la Mairie", "color": "#00842b", "background": "square", "website": null, "amenity_subtype": "public_bookcase", "icon": "public_bookcase" }, "geometry": { "type": "Point", "coordinates": [ 6.2541651, 45.7499928 ] } },
{ "type": "Feature", "properties": { "name": "Place Lamartine - Chef Lieu", "codetype": "BSB", "type": "delivrez bookcase", "desc": "Entrée de l?immeuble LamartineEntre le fleuriste et le boucher", "color": "#00842b", "background": "square", "website": null, "amenity_subtype": "public_bookcase", "icon": "public_bookcase" }, "geometry": { "type": "Point", "coordinates": [ 5.847244, 45.8212001 ] } },
{ "type": "Feature", "properties": { "name": "Impasse des Dômes", "codetype": "BSB", "type": "delivrez bookcase", "desc": "Petite boîte très éclectique en face de la Maison du Citoyen. On y trouve pas mal de livres pratiques, de la littérature sentimentale, du polar et des récits type témoignages.", "color": "#00842b", "background": "square", "website": null, "amenity_subtype": "public_bookcase", "icon": "public_bookcase" }, "geometry": { "type": "Point", "coordinates": [ 3.1924387, 45.7306898 ] } },
{ "type": "Feature", "properties": { "name": "Les cours", "codetype": "BSB", "type": "delivrez bookcase", "desc": "Sur le parking des cours au feu. Je trouve toujours un petit quelque chose", "color": "#00842b", "background": "square", "website": null, "amenity_subtype": "public_bookcase", "icon": "public_bookcase" }, "geometry": { "type": "Point", "coordinates": [ 3.2902579, 46.3087721 ] } },
{ "type": "Feature", "properties": { "name": "Rue Marcellin Berthelot", "codetype": "BSB", "type": "delivrez bookcase", "desc": "", "color": "#00842b", "background": "square", "website": null, "amenity_subtype": "public_bookcase", "icon": "public_bookcase" }, "geometry": { "type": "Point", "coordinates": [ 3.2926502, 46.3085688 ] } },
{ "type": "Feature", "properties": { "name": "87, rue de la République", "codetype": "BSB", "type": "delivrez bookcase", "desc": "Pomme de Pain LYON BELLECOUR", "color": "#00842b", "background": "square", "website": null, "amenity_subtype": "public_bookcase", "icon": "public_bookcase" }, "geometry": { "type": "Point", "coordinates": [ 4.8346659, 45.7581745 ] } },
{ "type": "Feature", "properties": { "name": "C.C Lyon Part-Dieu", "codetype": "BSB", "type": "delivrez bookcase", "desc": "Pomme de Pain LYON PART DIEU", "color": "#00842b", "background": "square", "website": null, "amenity_subtype": "public_bookcase", "icon": "public_bookcase" }, "geometry": { "type": "Point", "coordinates": [ 4.857321, 45.7605962 ] } },
{ "type": "Feature", "properties": { "name": "place de la mairie", "codetype": "BSB", "type": "delivrez bookcase", "desc": "Sous les arcades place de la Mairie, bien à l abri . Des livres en français et aussi en anglais.", "color": "#00842b", "background": "square", "website": null, "amenity_subtype": "public_bookcase", "icon": "public_bookcase" }, "geometry": { "type": "Point", "coordinates": [ 4.892158, 44.9331614 ] } },
{ "type": "Feature", "properties": { "name": "Place de la mairie", "codetype": "BSB", "type": "delivrez bookcase", "desc": "Boite derrière le panneau d information en haut de la place. Elle a remplacé le téléphone public.", "color": "#00842b", "background": "square", "website": null, "amenity_subtype": "public_bookcase", "icon": "public_bookcase" }, "geometry": { "type": "Point", "coordinates": [ 5.4085906, 45.671629 ] } },
{ "type": "Feature", "properties": { "name": "31 rue Claude Le Laboureur", "codetype": "BSB", "type": "delivrez bookcase", "desc": "J ai installé cette boite en 2018.", "color": "#00842b", "background": "square", "website": null, "amenity_subtype": "public_bookcase", "icon": "public_bookcase" }, "geometry": { "type": "Point", "coordinates": [ 4.8265165, 45.8034319 ] } },
{ "type": "Feature", "properties": { "name": "rue de franche comté", "codetype": "BSB", "type": "delivrez bookcase", "desc": "", "color": "#00842b", "background": "square", "website": null, "amenity_subtype": "public_bookcase", "icon": "public_bookcase" }, "geometry": { "type": "Point", "coordinates": [ 5.4265254, 46.2643286 ] } },
{ "type": "Feature", "properties": { "name": "10 cours de la Liberté", "codetype": "BSB", "type": "delivrez bookcase", "desc": "Dans l accueil de La Couveuse - MPT de Chadrac, échangez, partagez, découvrez toutes sortes de livres dans La Boîte à Lire.", "color": "#00842b", "background": "square", "website": null, "amenity_subtype": "public_bookcase", "icon": "public_bookcase" }, "geometry": { "type": "Point", "coordinates": [ 3.905117, 45.0610689 ] } },
{ "type": "Feature", "properties": { "name": "la rue accollée à la mairie", "codetype": "BSB", "type": "delivrez bookcase", "desc": "", "color": "#00842b", "background": "square", "website": null, "amenity_subtype": "public_bookcase", "icon": "public_bookcase" }, "geometry": { "type": "Point", "coordinates": [ 2.741899, 46.28883 ] } },