<?xml version="1.0"?>
<gpx version="1.1" creator="GDAL 3.4.3" xmlns:xsi="http://www.w3.org/2001/XMLSchema-instance" xmlns:osmand="https://osmand.net" xmlns="http://www.topografix.com/GPX/1/1" xsi:schemaLocation="http://www.topografix.com/GPX/1/1 http://www.topografix.com/GPX/1/1/gpx.xsd">
<metadata><bounds minlat="44.285926699999997" minlon="2.181708400000000" maxlat="46.654889300000001" maxlon="6.740884780883790"/></metadata>                    
<wpt lat="45.7304838" lon="4.8288388">
  <name>Millefeuilles du square Monod</name>
  <desc>boîte à livres accessible 24/24</desc>
  <type>Delivrez bookcase Auvergne-Rhône-Alpes</type>
  <extensions>
    <osmand:codetype>BSB</osmand:codetype>
    <osmand:color>#00842b</osmand:color>
    <osmand:background>square</osmand:background>
    <osmand:amenity_subtype>public_bookcase</osmand:amenity_subtype>
    <osmand:icon>public_bookcase</osmand:icon>
  </extensions>
</wpt>
<wpt lat="45.1738592" lon="5.8027338">
  <name>la ville</name>
  <desc>_</desc>
  <type>Delivrez bookcase Auvergne-Rhône-Alpes</type>
  <extensions>
    <osmand:codetype>BSB</osmand:codetype>
    <osmand:color>#00842b</osmand:color>
    <osmand:background>square</osmand:background>
    <osmand:amenity_subtype>public_bookcase</osmand:amenity_subtype>
    <osmand:icon>public_bookcase</osmand:icon>
  </extensions>
</wpt>
<wpt lat="45.0359933" lon="6.1304311">
  <name>Mont de Lans Mairie</name>
  <desc>_</desc>
  <type>Delivrez bookcase Auvergne-Rhône-Alpes</type>
  <extensions>
    <osmand:codetype>BSB</osmand:codetype>
    <osmand:color>#00842b</osmand:color>
    <osmand:background>square</osmand:background>
    <osmand:website>https://delivrez.fr/public/posts/img.63b98905bc910.png</osmand:website>
    <osmand:amenity_subtype>public_bookcase</osmand:amenity_subtype>
    <osmand:icon>public_bookcase</osmand:icon>
  </extensions>
</wpt>
<wpt lat="45.7331826" lon="4.9968297">
  <name>Passage des Marguilliers</name>
  <desc>superbe arbre à livres dans le jardin</desc>
  <type>Delivrez bookcase Auvergne-Rhône-Alpes</type>
  <extensions>
    <osmand:codetype>BSB</osmand:codetype>
    <osmand:color>#00842b</osmand:color>
    <osmand:background>square</osmand:background>
    <osmand:website>https://delivrez.fr/public/posts/img.639ae8ba7363e.png</osmand:website>
    <osmand:amenity_subtype>public_bookcase</osmand:amenity_subtype>
    <osmand:icon>public_bookcase</osmand:icon>
  </extensions>
</wpt>
<wpt lat="45.2400485" lon="4.799318">
  <name>Place Maxime Chantier</name>
  <desc>dans le magasin SPAR</desc>
  <type>Delivrez bookcase Auvergne-Rhône-Alpes</type>
  <extensions>
    <osmand:codetype>BSB</osmand:codetype>
    <osmand:color>#00842b</osmand:color>
    <osmand:background>square</osmand:background>
    <osmand:website>https://delivrez.fr/public/posts/img.638628a94b8f9.png</osmand:website>
    <osmand:amenity_subtype>public_bookcase</osmand:amenity_subtype>
    <osmand:icon>public_bookcase</osmand:icon>
  </extensions>
</wpt>
<wpt lat="45.2398825" lon="4.7989265">
  <name>Place Maxime Chantier</name>
  <desc>ce trouve au numéro 3 de la place Maxime Chantier</desc>
  <type>Delivrez bookcase Auvergne-Rhône-Alpes</type>
  <extensions>
    <osmand:codetype>BSB</osmand:codetype>
    <osmand:color>#00842b</osmand:color>
    <osmand:background>square</osmand:background>
    <osmand:website>https://delivrez.fr/public/posts/img.6384a9d3c8d81.png</osmand:website>
    <osmand:amenity_subtype>public_bookcase</osmand:amenity_subtype>
    <osmand:icon>public_bookcase</osmand:icon>
  </extensions>
</wpt>
<wpt lat="44.9285555" lon="4.8403589">
  <name>Chemin de Ployé</name>
  <desc>Au bord de la route</desc>
  <type>Delivrez bookcase Auvergne-Rhône-Alpes</type>
  <extensions>
    <osmand:codetype>BSB</osmand:codetype>
    <osmand:color>#00842b</osmand:color>
    <osmand:background>square</osmand:background>
    <osmand:website>https://delivrez.fr/public/posts/img.636d1a4f640eb.png</osmand:website>
    <osmand:amenity_subtype>public_bookcase</osmand:amenity_subtype>
    <osmand:icon>public_bookcase</osmand:icon>
  </extensions>
</wpt>
<wpt lat="44.9455637" lon="4.8418655">
  <name>Rue Soeur Dominique</name>
  <desc>_</desc>
  <type>Delivrez bookcase Auvergne-Rhône-Alpes</type>
  <extensions>
    <osmand:codetype>BSB</osmand:codetype>
    <osmand:color>#00842b</osmand:color>
    <osmand:background>square</osmand:background>
    <osmand:website>https://delivrez.fr/public/posts/img.636a56b0a5f3f.png</osmand:website>
    <osmand:amenity_subtype>public_bookcase</osmand:amenity_subtype>
    <osmand:icon>public_bookcase</osmand:icon>
  </extensions>
</wpt>
<wpt lat="45.5306156" lon="4.9080607">
  <name>Montée Lucien Magnat</name>
  <desc>ancienne cabine octogonale</desc>
  <type>Delivrez bookcase Auvergne-Rhône-Alpes</type>
  <extensions>
    <osmand:codetype>BSB</osmand:codetype>
    <osmand:color>#00842b</osmand:color>
    <osmand:background>square</osmand:background>
    <osmand:amenity_subtype>public_bookcase</osmand:amenity_subtype>
    <osmand:icon>public_bookcase</osmand:icon>
  </extensions>
</wpt>
<wpt lat="46.2122613" lon="5.3268479">
  <name>Rue Charles Robin</name>
  <desc>sur la place dans une belle cabine</desc>
  <type>Delivrez bookcase Auvergne-Rhône-Alpes</type>
  <extensions>
    <osmand:codetype>BSB</osmand:codetype>
    <osmand:color>#00842b</osmand:color>
    <osmand:background>square</osmand:background>
    <osmand:amenity_subtype>public_bookcase</osmand:amenity_subtype>
    <osmand:icon>public_bookcase</osmand:icon>
  </extensions>
</wpt>
<wpt lat="45.0778061" lon="5.1780858">
  <name>Rue du Lavoir</name>
  <desc>_</desc>
  <type>Delivrez bookcase Auvergne-Rhône-Alpes</type>
  <extensions>
    <osmand:codetype>BSB</osmand:codetype>
    <osmand:color>#00842b</osmand:color>
    <osmand:background>square</osmand:background>
    <osmand:website>https://delivrez.fr/public/posts/img.63399ce91d788.png</osmand:website>
    <osmand:amenity_subtype>public_bookcase</osmand:amenity_subtype>
    <osmand:icon>public_bookcase</osmand:icon>
  </extensions>
</wpt>
<wpt lat="45.2031799" lon="6.670296">
  <name>Place Moulin</name>
  <desc>Dans l'entrée d'un particulier au numéro 1</desc>
  <type>Delivrez bookcase Auvergne-Rhône-Alpes</type>
  <extensions>
    <osmand:codetype>BSB</osmand:codetype>
    <osmand:color>#00842b</osmand:color>
    <osmand:background>square</osmand:background>
    <osmand:website>https://delivrez.fr/public/posts/img.630a119830a9c.png</osmand:website>
    <osmand:amenity_subtype>public_bookcase</osmand:amenity_subtype>
    <osmand:icon>public_bookcase</osmand:icon>
  </extensions>
</wpt>
<wpt lat="45.8337576" lon="6.1659345">
  <name>Route du Port</name>
  <desc>Sur l'esplanade,  près des jeux pour enfants.</desc>
  <type>Delivrez bookcase Auvergne-Rhône-Alpes</type>
  <extensions>
    <osmand:codetype>BSB</osmand:codetype>
    <osmand:color>#00842b</osmand:color>
    <osmand:background>square</osmand:background>
    <osmand:amenity_subtype>public_bookcase</osmand:amenity_subtype>
    <osmand:icon>public_bookcase</osmand:icon>
  </extensions>
</wpt>
<wpt lat="45.6242112" lon="6.28944">
  <name>Route des Chavannes</name>
  <desc>Lavoir</desc>
  <type>Delivrez bookcase Auvergne-Rhône-Alpes</type>
  <extensions>
    <osmand:codetype>BSB</osmand:codetype>
    <osmand:color>#00842b</osmand:color>
    <osmand:background>square</osmand:background>
    <osmand:website>https://delivrez.fr/public/posts/img.62ffb6b69f368.png</osmand:website>
    <osmand:amenity_subtype>public_bookcase</osmand:amenity_subtype>
    <osmand:icon>public_bookcase</osmand:icon>
  </extensions>
</wpt>
<wpt lat="45.8433824" lon="6.1748313">
  <name>Impasse des Mouettes</name>
  <desc>Bord du lac,  près du ponton</desc>
  <type>Delivrez bookcase Auvergne-Rhône-Alpes</type>
  <extensions>
    <osmand:codetype>BSB</osmand:codetype>
    <osmand:color>#00842b</osmand:color>
    <osmand:background>square</osmand:background>
    <osmand:website>https://delivrez.fr/public/posts/img.62fe5fb9eceab.png</osmand:website>
    <osmand:amenity_subtype>public_bookcase</osmand:amenity_subtype>
    <osmand:icon>public_bookcase</osmand:icon>
  </extensions>
</wpt>
<wpt lat="44.7686141" lon="4.4444218">
  <name>Boîte à livres</name>
  <desc>Quelques ouvrages</desc>
  <type>Delivrez bookcase Auvergne-Rhône-Alpes</type>
  <extensions>
    <osmand:codetype>BSB</osmand:codetype>
    <osmand:color>#00842b</osmand:color>
    <osmand:background>square</osmand:background>
    <osmand:amenity_subtype>public_bookcase</osmand:amenity_subtype>
    <osmand:icon>public_bookcase</osmand:icon>
  </extensions>
</wpt>
<wpt lat="45.7979198" lon="6.1893818">
  <name>Route des Droblesses</name>
  <desc>Arrêt de bus</desc>
  <type>Delivrez bookcase Auvergne-Rhône-Alpes</type>
  <extensions>
    <osmand:codetype>BSB</osmand:codetype>
    <osmand:color>#00842b</osmand:color>
    <osmand:background>square</osmand:background>
    <osmand:amenity_subtype>public_bookcase</osmand:amenity_subtype>
    <osmand:icon>public_bookcase</osmand:icon>
  </extensions>
</wpt>
<wpt lat="46.3482027" lon="6.4113908">
  <name>Route des Esserts</name>
  <desc>vers l'abribus</desc>
  <type>Delivrez bookcase Auvergne-Rhône-Alpes</type>
  <extensions>
    <osmand:codetype>BSB</osmand:codetype>
    <osmand:color>#00842b</osmand:color>
    <osmand:background>square</osmand:background>
    <osmand:amenity_subtype>public_bookcase</osmand:amenity_subtype>
    <osmand:icon>public_bookcase</osmand:icon>
  </extensions>
</wpt>
<wpt lat="46.0866412" lon="6.6795009">
  <name>Route du Lac Bleu</name>
  <desc>à côté du poste de secours</desc>
  <type>Delivrez bookcase Auvergne-Rhône-Alpes</type>
  <extensions>
    <osmand:codetype>BSB</osmand:codetype>
    <osmand:color>#00842b</osmand:color>
    <osmand:background>square</osmand:background>
    <osmand:amenity_subtype>public_bookcase</osmand:amenity_subtype>
    <osmand:icon>public_bookcase</osmand:icon>
  </extensions>
</wpt>
<wpt lat="46.057165" lon="6.3752242">
  <name>Route des Gorges du Borne</name>
  <desc>dans un oeuf!</desc>
  <type>Delivrez bookcase Auvergne-Rhône-Alpes</type>
  <extensions>
    <osmand:codetype>BSB</osmand:codetype>
    <osmand:color>#00842b</osmand:color>
    <osmand:background>square</osmand:background>
    <osmand:amenity_subtype>public_bookcase</osmand:amenity_subtype>
    <osmand:icon>public_bookcase</osmand:icon>
  </extensions>
</wpt>
<wpt lat="45.238093" lon="5.8041565">
  <name>Route de Meylan</name>
  <desc>a l'entrée du petit parc sous les immeubles</desc>
  <type>Delivrez bookcase Auvergne-Rhône-Alpes</type>
  <extensions>
    <osmand:codetype>BSB</osmand:codetype>
    <osmand:color>#00842b</osmand:color>
    <osmand:background>square</osmand:background>
    <osmand:website>https://delivrez.fr/public/posts/img.62f374a4208d4.png</osmand:website>
    <osmand:amenity_subtype>public_bookcase</osmand:amenity_subtype>
    <osmand:icon>public_bookcase</osmand:icon>
  </extensions>
</wpt>
<wpt lat="45.2365016" lon="5.8054288">
  <name>Chemin des Tières</name>
  <desc>a coté de la pharmacie</desc>
  <type>Delivrez bookcase Auvergne-Rhône-Alpes</type>
  <extensions>
    <osmand:codetype>BSB</osmand:codetype>
    <osmand:color>#00842b</osmand:color>
    <osmand:background>square</osmand:background>
    <osmand:website>https://delivrez.fr/public/posts/img.62f3720404355.png</osmand:website>
    <osmand:amenity_subtype>public_bookcase</osmand:amenity_subtype>
    <osmand:icon>public_bookcase</osmand:icon>
  </extensions>
</wpt>
<wpt lat="44.3059907" lon="4.4317057">
  <name>Le Village</name>
  <desc>_</desc>
  <type>Delivrez bookcase Auvergne-Rhône-Alpes</type>
  <extensions>
    <osmand:codetype>BSB</osmand:codetype>
    <osmand:color>#00842b</osmand:color>
    <osmand:background>square</osmand:background>
    <osmand:website>https://delivrez.fr/public/posts/img.61751946e40ea.png</osmand:website>
    <osmand:amenity_subtype>public_bookcase</osmand:amenity_subtype>
    <osmand:icon>public_bookcase</osmand:icon>
  </extensions>
</wpt>
<wpt lat="45.1646816" lon="5.7681023">
  <name>Saint Martin d'Hères Place de la Liberté</name>
  <desc>en haut de la place à l'intersection des rues</desc>
  <type>Delivrez bookcase Auvergne-Rhône-Alpes</type>
  <extensions>
    <osmand:codetype>BSB</osmand:codetype>
    <osmand:color>#00842b</osmand:color>
    <osmand:background>square</osmand:background>
    <osmand:website>https://delivrez.fr/public/posts/img.62ea4a4fa1be7.png</osmand:website>
    <osmand:amenity_subtype>public_bookcase</osmand:amenity_subtype>
    <osmand:icon>public_bookcase</osmand:icon>
  </extensions>
</wpt>
<wpt lat="45.7702203" lon="3.1979256">
  <name>Rue René Marssin</name>
  <desc>sous la halle</desc>
  <type>Delivrez bookcase Auvergne-Rhône-Alpes</type>
  <extensions>
    <osmand:codetype>BSB</osmand:codetype>
    <osmand:color>#00842b</osmand:color>
    <osmand:background>square</osmand:background>
    <osmand:website>https://delivrez.fr/public/posts/img.62eab1018ce98.png</osmand:website>
    <osmand:amenity_subtype>public_bookcase</osmand:amenity_subtype>
    <osmand:icon>public_bookcase</osmand:icon>
  </extensions>
</wpt>
<wpt lat="45.7941457" lon="3.2577997">
  <name>Chemin de l'Egue</name>
  <desc>_</desc>
  <type>Delivrez bookcase Auvergne-Rhône-Alpes</type>
  <extensions>
    <osmand:codetype>BSB</osmand:codetype>
    <osmand:color>#00842b</osmand:color>
    <osmand:background>square</osmand:background>
    <osmand:website>https://delivrez.fr/public/posts/img.62efbc6c6b217.png</osmand:website>
    <osmand:amenity_subtype>public_bookcase</osmand:amenity_subtype>
    <osmand:icon>public_bookcase</osmand:icon>
  </extensions>
</wpt>
<wpt lat="45.2290155" lon="5.8182021">
  <name>Route des Semaises</name>
  <desc>_</desc>
  <type>Delivrez bookcase Auvergne-Rhône-Alpes</type>
  <extensions>
    <osmand:codetype>BSB</osmand:codetype>
    <osmand:color>#00842b</osmand:color>
    <osmand:background>square</osmand:background>
    <osmand:website>https://delivrez.fr/public/posts/img.62ee3c377114b.png</osmand:website>
    <osmand:amenity_subtype>public_bookcase</osmand:amenity_subtype>
    <osmand:icon>public_bookcase</osmand:icon>
  </extensions>
</wpt>
<wpt lat="45.2404338" lon="5.8535602">
  <name>Chemin Clos Mars</name>
  <desc>_</desc>
  <type>Delivrez bookcase Auvergne-Rhône-Alpes</type>
  <extensions>
    <osmand:codetype>BSB</osmand:codetype>
    <osmand:color>#00842b</osmand:color>
    <osmand:background>square</osmand:background>
    <osmand:website>https://delivrez.fr/public/posts/img.62ee368a95634.png</osmand:website>
    <osmand:amenity_subtype>public_bookcase</osmand:amenity_subtype>
    <osmand:icon>public_bookcase</osmand:icon>
  </extensions>
</wpt>
<wpt lat="45.9026867" lon="6.1183075">
  <name>Avenue de Bouvard</name>
  <desc>en face de l'eglise, pres de la pharmacie.</desc>
  <type>Delivrez bookcase Auvergne-Rhône-Alpes</type>
  <extensions>
    <osmand:codetype>BSB</osmand:codetype>
    <osmand:color>#00842b</osmand:color>
    <osmand:background>square</osmand:background>
    <osmand:amenity_subtype>public_bookcase</osmand:amenity_subtype>
    <osmand:icon>public_bookcase</osmand:icon>
  </extensions>
</wpt>
<wpt lat="45.7396968" lon="3.1412364">
  <name>Rue Marius Blanchot</name>
  <desc>dans une ancienne cabine téléphonique @@__rue en face de l eglise</desc>
  <type>Delivrez bookcase Auvergne-Rhône-Alpes</type>
  <extensions>
    <osmand:codetype>BSB</osmand:codetype>
    <osmand:color>#00842b</osmand:color>
    <osmand:background>square</osmand:background>
    <osmand:website>https://delivrez.fr/public/posts/img.62ea49ffd7497.png</osmand:website>
    <osmand:amenity_subtype>public_bookcase</osmand:amenity_subtype>
    <osmand:icon>public_bookcase</osmand:icon>
  </extensions>
</wpt>
<wpt lat="45.158468" lon="5.7575387">
  <name>Poisat École Jean Mermoz</name>
  <desc>près de l'école, accessible librement</desc>
  <type>Delivrez bookcase Auvergne-Rhône-Alpes</type>
  <extensions>
    <osmand:codetype>BSB</osmand:codetype>
    <osmand:color>#00842b</osmand:color>
    <osmand:background>square</osmand:background>
    <osmand:amenity_subtype>public_bookcase</osmand:amenity_subtype>
    <osmand:icon>public_bookcase</osmand:icon>
  </extensions>
</wpt>
<wpt lat="45.1593273" lon="5.7593204">
  <name>Poisat Mairie</name>
  <desc>à côté de l'entrée de la mairie</desc>
  <type>Delivrez bookcase Auvergne-Rhône-Alpes</type>
  <extensions>
    <osmand:codetype>BSB</osmand:codetype>
    <osmand:color>#00842b</osmand:color>
    <osmand:background>square</osmand:background>
    <osmand:amenity_subtype>public_bookcase</osmand:amenity_subtype>
    <osmand:icon>public_bookcase</osmand:icon>
  </extensions>
</wpt>
<wpt lat="44.987432" lon="6.1160956">
  <name>Bourg d'Arud</name>
  <desc>À  droite du téléphérique</desc>
  <type>Delivrez bookcase Auvergne-Rhône-Alpes</type>
  <extensions>
    <osmand:codetype>BSB</osmand:codetype>
    <osmand:color>#00842b</osmand:color>
    <osmand:background>square</osmand:background>
    <osmand:website>https://delivrez.fr/public/posts/img.62e8ee56b150c.png</osmand:website>
    <osmand:amenity_subtype>public_bookcase</osmand:amenity_subtype>
    <osmand:icon>public_bookcase</osmand:icon>
  </extensions>
</wpt>
<wpt lat="44.9899729" lon="6.1166448">
  <name>Rue du Câble</name>
  <desc>_</desc>
  <type>Delivrez bookcase Auvergne-Rhône-Alpes</type>
  <extensions>
    <osmand:codetype>BSB</osmand:codetype>
    <osmand:color>#00842b</osmand:color>
    <osmand:background>square</osmand:background>
    <osmand:website>https://delivrez.fr/public/posts/img.62e63f306e1b2.png</osmand:website>
    <osmand:amenity_subtype>public_bookcase</osmand:amenity_subtype>
    <osmand:icon>public_bookcase</osmand:icon>
  </extensions>
</wpt>
<wpt lat="46.0636717" lon="4.9795483">
  <name>Boite à livre Sandrans</name>
  <desc>Petite boîte à livres sous l'abri bus</desc>
  <type>Delivrez bookcase Auvergne-Rhône-Alpes</type>
  <extensions>
    <osmand:codetype>BSB</osmand:codetype>
    <osmand:color>#00842b</osmand:color>
    <osmand:background>square</osmand:background>
    <osmand:website>https://delivrez.fr/public/posts/img.62e58b3e3a48b.png</osmand:website>
    <osmand:amenity_subtype>public_bookcase</osmand:amenity_subtype>
    <osmand:icon>public_bookcase</osmand:icon>
  </extensions>
</wpt>
<wpt lat="45.724961" lon="5.2478569">
  <name>Place du Maréchal de Lattre de Tassigny</name>
  <desc>boite a livre devant la bibliothèque</desc>
  <type>Delivrez bookcase Auvergne-Rhône-Alpes</type>
  <extensions>
    <osmand:codetype>BSB</osmand:codetype>
    <osmand:color>#00842b</osmand:color>
    <osmand:background>square</osmand:background>
    <osmand:amenity_subtype>public_bookcase</osmand:amenity_subtype>
    <osmand:icon>public_bookcase</osmand:icon>
  </extensions>
</wpt>
<wpt lat="45.5326902" lon="2.6900424">
  <name>Place du Centre</name>
  <desc>_</desc>
  <type>Delivrez bookcase Auvergne-Rhône-Alpes</type>
  <extensions>
    <osmand:codetype>BSB</osmand:codetype>
    <osmand:color>#00842b</osmand:color>
    <osmand:background>square</osmand:background>
    <osmand:amenity_subtype>public_bookcase</osmand:amenity_subtype>
    <osmand:icon>public_bookcase</osmand:icon>
  </extensions>
</wpt>
<wpt lat="45.1939969" lon="5.7329801">
  <name>Avenue Maréchal Randon</name>
  <desc>proche musée de peonture</desc>
  <type>Delivrez bookcase Auvergne-Rhône-Alpes</type>
  <extensions>
    <osmand:codetype>BSB</osmand:codetype>
    <osmand:color>#00842b</osmand:color>
    <osmand:background>square</osmand:background>
    <osmand:website>https://delivrez.fr/public/posts/img.629392431e1c5.png</osmand:website>
    <osmand:amenity_subtype>public_bookcase</osmand:amenity_subtype>
    <osmand:icon>public_bookcase</osmand:icon>
  </extensions>
</wpt>
<wpt lat="46.1430749" lon="4.1082584">
  <name>Place de l'Église</name>
  <desc>boîte rouge devant la bibliothèque</desc>
  <type>Delivrez bookcase Auvergne-Rhône-Alpes</type>
  <extensions>
    <osmand:codetype>BSB</osmand:codetype>
    <osmand:color>#00842b</osmand:color>
    <osmand:background>square</osmand:background>
    <osmand:amenity_subtype>public_bookcase</osmand:amenity_subtype>
    <osmand:icon>public_bookcase</osmand:icon>
  </extensions>
</wpt>
<wpt lat="44.7341434" lon="4.6218305">
  <name>Rue de la Mairie</name>
  <desc>Installée dans une ancienne cabine téléphonique, juste devant l'école</desc>
  <type>Delivrez bookcase Auvergne-Rhône-Alpes</type>
  <extensions>
    <osmand:codetype>BSB</osmand:codetype>
    <osmand:color>#00842b</osmand:color>
    <osmand:background>square</osmand:background>
    <osmand:amenity_subtype>public_bookcase</osmand:amenity_subtype>
    <osmand:icon>public_bookcase</osmand:icon>
  </extensions>
</wpt>
<wpt lat="46.3827042" lon="5.3456668">
  <name>setthe@gmail.com</name>
  <desc>sur la place de la mairie</desc>
  <type>Delivrez bookcase Auvergne-Rhône-Alpes</type>
  <extensions>
    <osmand:codetype>BSB</osmand:codetype>
    <osmand:color>#00842b</osmand:color>
    <osmand:background>square</osmand:background>
    <osmand:website>https://delivrez.fr/public/posts/img.628ccff33d734.png</osmand:website>
    <osmand:amenity_subtype>public_bookcase</osmand:amenity_subtype>
    <osmand:icon>public_bookcase</osmand:icon>
  </extensions>
</wpt>
<wpt lat="45.1794268" lon="5.7447773">
  <name>Rue Élie Cartan</name>
  <desc>pendant les heures d ouverture.@@__</desc>
  <type>Delivrez bookcase Auvergne-Rhône-Alpes</type>
  <extensions>
    <osmand:codetype>BSB</osmand:codetype>
    <osmand:color>#00842b</osmand:color>
    <osmand:background>square</osmand:background>
    <osmand:website>https://delivrez.fr/public/posts/img.627e3b2c27928.png</osmand:website>
    <osmand:amenity_subtype>public_bookcase</osmand:amenity_subtype>
    <osmand:icon>public_bookcase</osmand:icon>
  </extensions>
</wpt>
<wpt lat="46.3340555" lon="4.8892984">
  <name>setthe@gmail.com</name>
  <desc>à l'entrée de la salle des fêtes</desc>
  <type>Delivrez bookcase Auvergne-Rhône-Alpes</type>
  <extensions>
    <osmand:codetype>BSB</osmand:codetype>
    <osmand:color>#00842b</osmand:color>
    <osmand:background>square</osmand:background>
    <osmand:website>https://delivrez.fr/public/posts/img.62824370dac7b.png</osmand:website>
    <osmand:amenity_subtype>public_bookcase</osmand:amenity_subtype>
    <osmand:icon>public_bookcase</osmand:icon>
  </extensions>
</wpt>
<wpt lat="46.2389951" lon="4.9985715">
  <name>casier à livres</name>
  <desc>casier à livres</desc>
  <type>Delivrez bookcase Auvergne-Rhône-Alpes</type>
  <extensions>
    <osmand:codetype>BSB</osmand:codetype>
    <osmand:color>#00842b</osmand:color>
    <osmand:background>square</osmand:background>
    <osmand:website>https://delivrez.fr/public/posts/img.6282332c610c3.png</osmand:website>
    <osmand:amenity_subtype>public_bookcase</osmand:amenity_subtype>
    <osmand:icon>public_bookcase</osmand:icon>
  </extensions>
</wpt>
<wpt lat="44.3493601" lon="4.773137">
  <name>Avenue Jean Perrin</name>
  <desc>_</desc>
  <type>Delivrez bookcase Auvergne-Rhône-Alpes</type>
  <extensions>
    <osmand:codetype>BSB</osmand:codetype>
    <osmand:color>#00842b</osmand:color>
    <osmand:background>square</osmand:background>
    <osmand:amenity_subtype>public_bookcase</osmand:amenity_subtype>
    <osmand:icon>public_bookcase</osmand:icon>
  </extensions>
</wpt>
<wpt lat="45.584369" lon="4.7750386">
  <name>laurianne.larderet@outlook.fr</name>
  <desc>A l'intérieur du parc de la maison du fleuve Rhône</desc>
  <type>Delivrez bookcase Auvergne-Rhône-Alpes</type>
  <extensions>
    <osmand:codetype>BSB</osmand:codetype>
    <osmand:color>#00842b</osmand:color>
    <osmand:background>square</osmand:background>
    <osmand:website>https://delivrez.fr/public/posts/img.6231feab46a7d.png</osmand:website>
    <osmand:amenity_subtype>public_bookcase</osmand:amenity_subtype>
    <osmand:icon>public_bookcase</osmand:icon>
  </extensions>
</wpt>
<wpt lat="44.4386858" lon="4.7084138">
  <name>Rue de la Chocolaterie</name>
  <desc>_</desc>
  <type>Delivrez bookcase Auvergne-Rhône-Alpes</type>
  <extensions>
    <osmand:codetype>BSB</osmand:codetype>
    <osmand:color>#00842b</osmand:color>
    <osmand:background>square</osmand:background>
    <osmand:amenity_subtype>public_bookcase</osmand:amenity_subtype>
    <osmand:icon>public_bookcase</osmand:icon>
  </extensions>
</wpt>
<wpt lat="44.4472255" lon="4.7084705">
  <name>Lotissement les Genêts</name>
  <desc>Face aux remparts</desc>
  <type>Delivrez bookcase Auvergne-Rhône-Alpes</type>
  <extensions>
    <osmand:codetype>BSB</osmand:codetype>
    <osmand:color>#00842b</osmand:color>
    <osmand:background>square</osmand:background>
    <osmand:amenity_subtype>public_bookcase</osmand:amenity_subtype>
    <osmand:icon>public_bookcase</osmand:icon>
  </extensions>
</wpt>
<wpt lat="44.4463023" lon="4.7052166">
  <name>Boulevard du Défilé</name>
  <desc>dans le parc quartier des Roches</desc>
  <type>Delivrez bookcase Auvergne-Rhône-Alpes</type>
  <extensions>
    <osmand:codetype>BSB</osmand:codetype>
    <osmand:color>#00842b</osmand:color>
    <osmand:background>square</osmand:background>
    <osmand:amenity_subtype>public_bookcase</osmand:amenity_subtype>
    <osmand:icon>public_bookcase</osmand:icon>
  </extensions>
</wpt>
<wpt lat="44.4478944" lon="4.7050359">
  <name>Rue de la Colline</name>
  <desc>Dans le parc quartier des Roches</desc>
  <type>Delivrez bookcase Auvergne-Rhône-Alpes</type>
  <extensions>
    <osmand:codetype>BSB</osmand:codetype>
    <osmand:color>#00842b</osmand:color>
    <osmand:background>square</osmand:background>
    <osmand:amenity_subtype>public_bookcase</osmand:amenity_subtype>
    <osmand:icon>public_bookcase</osmand:icon>
  </extensions>
</wpt>
<wpt lat="44.4437406" lon="4.7074727">
  <name>Boulevard des Barrys</name>
  <desc>dans le parc</desc>
  <type>Delivrez bookcase Auvergne-Rhône-Alpes</type>
  <extensions>
    <osmand:codetype>BSB</osmand:codetype>
    <osmand:color>#00842b</osmand:color>
    <osmand:background>square</osmand:background>
    <osmand:amenity_subtype>public_bookcase</osmand:amenity_subtype>
    <osmand:icon>public_bookcase</osmand:icon>
  </extensions>
</wpt>
<wpt lat="46.3508865" lon="6.2929581">
  <name>Boîte à livre</name>
  <desc>Devant la pharmacie</desc>
  <type>Delivrez bookcase Auvergne-Rhône-Alpes</type>
  <extensions>
    <osmand:codetype>BSB</osmand:codetype>
    <osmand:color>#00842b</osmand:color>
    <osmand:background>square</osmand:background>
    <osmand:amenity_subtype>public_bookcase</osmand:amenity_subtype>
    <osmand:icon>public_bookcase</osmand:icon>
  </extensions>
</wpt>
<wpt lat="45.7426033" lon="3.0668895">
  <name>intermarché 1er etage</name>
  <desc>_</desc>
  <type>Delivrez bookcase Auvergne-Rhône-Alpes</type>
  <extensions>
    <osmand:codetype>BSB</osmand:codetype>
    <osmand:color>#00842b</osmand:color>
    <osmand:background>square</osmand:background>
    <osmand:amenity_subtype>public_bookcase</osmand:amenity_subtype>
    <osmand:icon>public_bookcase</osmand:icon>
  </extensions>
</wpt>
<wpt lat="45.1732837" lon="5.7952344">
  <name>la frênaie</name>
  <desc>dans l'abri bus</desc>
  <type>Delivrez bookcase Auvergne-Rhône-Alpes</type>
  <extensions>
    <osmand:codetype>BSB</osmand:codetype>
    <osmand:color>#00842b</osmand:color>
    <osmand:background>square</osmand:background>
    <osmand:amenity_subtype>public_bookcase</osmand:amenity_subtype>
    <osmand:icon>public_bookcase</osmand:icon>
  </extensions>
</wpt>
<wpt lat="45.171821" lon="5.8047684">
  <name>venon mairie</name>
  <desc>dans l'abri bus</desc>
  <type>Delivrez bookcase Auvergne-Rhône-Alpes</type>
  <extensions>
    <osmand:codetype>BSB</osmand:codetype>
    <osmand:color>#00842b</osmand:color>
    <osmand:background>square</osmand:background>
    <osmand:amenity_subtype>public_bookcase</osmand:amenity_subtype>
    <osmand:icon>public_bookcase</osmand:icon>
  </extensions>
</wpt>
<wpt lat="45.1750921" lon="5.7949748">
  <name>Pied de Venon</name>
  <desc>dans l'abri bus</desc>
  <type>Delivrez bookcase Auvergne-Rhône-Alpes</type>
  <extensions>
    <osmand:codetype>BSB</osmand:codetype>
    <osmand:color>#00842b</osmand:color>
    <osmand:background>square</osmand:background>
    <osmand:amenity_subtype>public_bookcase</osmand:amenity_subtype>
    <osmand:icon>public_bookcase</osmand:icon>
  </extensions>
</wpt>
<wpt lat="45.7747544" lon="3.0919604">
  <name>boite a livres CLM</name>
  <desc>Angle des rues Paul Collomp et d'Amboise</desc>
  <type>Delivrez bookcase Auvergne-Rhône-Alpes</type>
  <extensions>
    <osmand:codetype>BSB</osmand:codetype>
    <osmand:color>#00842b</osmand:color>
    <osmand:background>square</osmand:background>
    <osmand:amenity_subtype>public_bookcase</osmand:amenity_subtype>
    <osmand:icon>public_bookcase</osmand:icon>
  </extensions>
</wpt>
<wpt lat="46.1451771" lon="6.3543308">
  <name>Route de Bonneville</name>
  <desc>_</desc>
  <type>Delivrez bookcase Auvergne-Rhône-Alpes</type>
  <extensions>
    <osmand:codetype>BSB</osmand:codetype>
    <osmand:color>#00842b</osmand:color>
    <osmand:background>square</osmand:background>
    <osmand:amenity_subtype>public_bookcase</osmand:amenity_subtype>
    <osmand:icon>public_bookcase</osmand:icon>
  </extensions>
</wpt>
<wpt lat="46.2249778" lon="6.3025078">
  <name>Route de la Gare</name>
  <desc>Dans abris bus près des conteneur de recyclage</desc>
  <type>Delivrez bookcase Auvergne-Rhône-Alpes</type>
  <extensions>
    <osmand:codetype>BSB</osmand:codetype>
    <osmand:color>#00842b</osmand:color>
    <osmand:background>square</osmand:background>
    <osmand:amenity_subtype>public_bookcase</osmand:amenity_subtype>
    <osmand:icon>public_bookcase</osmand:icon>
  </extensions>
</wpt>
<wpt lat="45.0176943" lon="5.2926621">
  <name>Square du 29 Juin</name>
  <desc>au centre de la ville parking à côté</desc>
  <type>Delivrez bookcase Auvergne-Rhône-Alpes</type>
  <extensions>
    <osmand:codetype>BSB</osmand:codetype>
    <osmand:color>#00842b</osmand:color>
    <osmand:background>square</osmand:background>
    <osmand:website>https://delivrez.fr/public/posts/img.6180fef24a636.png</osmand:website>
    <osmand:amenity_subtype>public_bookcase</osmand:amenity_subtype>
    <osmand:icon>public_bookcase</osmand:icon>
  </extensions>
</wpt>
<wpt lat="46.1381228" lon="6.4586427">
  <name>Place de la mairie</name>
  <desc>_</desc>
  <type>Delivrez bookcase Auvergne-Rhône-Alpes</type>
  <extensions>
    <osmand:codetype>BSB</osmand:codetype>
    <osmand:color>#00842b</osmand:color>
    <osmand:background>square</osmand:background>
    <osmand:amenity_subtype>public_bookcase</osmand:amenity_subtype>
    <osmand:icon>public_bookcase</osmand:icon>
  </extensions>
</wpt>
<wpt lat="45.4459443" lon="6.094504">
  <name>Rue des Granges</name>
  <desc>Lavoire de detrier , Savoie</desc>
  <type>Delivrez bookcase Auvergne-Rhône-Alpes</type>
  <extensions>
    <osmand:codetype>BSB</osmand:codetype>
    <osmand:color>#00842b</osmand:color>
    <osmand:background>square</osmand:background>
    <osmand:website>https://delivrez.fr/public/posts/img.617bb5d24240b.png</osmand:website>
    <osmand:amenity_subtype>public_bookcase</osmand:amenity_subtype>
    <osmand:icon>public_bookcase</osmand:icon>
  </extensions>
</wpt>
<wpt lat="45.4751511" lon="5.1030626">
  <name>Chemin de la Chapelle</name>
  <desc>dans un ancienne cabine téléphonique</desc>
  <type>Delivrez bookcase Auvergne-Rhône-Alpes</type>
  <extensions>
    <osmand:codetype>BSB</osmand:codetype>
    <osmand:color>#00842b</osmand:color>
    <osmand:background>square</osmand:background>
    <osmand:amenity_subtype>public_bookcase</osmand:amenity_subtype>
    <osmand:icon>public_bookcase</osmand:icon>
  </extensions>
</wpt>
<wpt lat="46.5661357" lon="3.3327399">
  <name>boîte à livre de moulin</name>
  <desc>place de la mairie</desc>
  <type>Delivrez bookcase Auvergne-Rhône-Alpes</type>
  <extensions>
    <osmand:codetype>BSB</osmand:codetype>
    <osmand:color>#00842b</osmand:color>
    <osmand:background>square</osmand:background>
    <osmand:website>https://delivrez.fr/public/posts/img.61757802f015e.png</osmand:website>
    <osmand:amenity_subtype>public_bookcase</osmand:amenity_subtype>
    <osmand:icon>public_bookcase</osmand:icon>
  </extensions>
</wpt>
<wpt lat="46.2489546" lon="6.4715843">
  <name>Place de l'Eglise</name>
  <desc>_</desc>
  <type>Delivrez bookcase Auvergne-Rhône-Alpes</type>
  <extensions>
    <osmand:codetype>BSB</osmand:codetype>
    <osmand:color>#00842b</osmand:color>
    <osmand:background>square</osmand:background>
    <osmand:amenity_subtype>public_bookcase</osmand:amenity_subtype>
    <osmand:icon>public_bookcase</osmand:icon>
  </extensions>
</wpt>
<wpt lat="45.5056971" lon="4.9091005">
  <name>Route de Berardier</name>
  <desc>Devant le Vival</desc>
  <type>Delivrez bookcase Auvergne-Rhône-Alpes</type>
  <extensions>
    <osmand:codetype>BSB</osmand:codetype>
    <osmand:color>#00842b</osmand:color>
    <osmand:background>square</osmand:background>
    <osmand:amenity_subtype>public_bookcase</osmand:amenity_subtype>
    <osmand:icon>public_bookcase</osmand:icon>
  </extensions>
</wpt>
<wpt lat="45.4532568" lon="4.7685604">
  <name>Place de la Liberté</name>
  <desc>petite boîte sur la place, en face de la poste</desc>
  <type>Delivrez bookcase Auvergne-Rhône-Alpes</type>
  <extensions>
    <osmand:codetype>BSB</osmand:codetype>
    <osmand:color>#00842b</osmand:color>
    <osmand:background>square</osmand:background>
    <osmand:amenity_subtype>public_bookcase</osmand:amenity_subtype>
    <osmand:icon>public_bookcase</osmand:icon>
  </extensions>
</wpt>
<wpt lat="45.461747" lon="4.8107467">
  <name>Chemin de l'Église</name>
  <desc>petite boîte a côté des kinés</desc>
  <type>Delivrez bookcase Auvergne-Rhône-Alpes</type>
  <extensions>
    <osmand:codetype>BSB</osmand:codetype>
    <osmand:color>#00842b</osmand:color>
    <osmand:background>square</osmand:background>
    <osmand:amenity_subtype>public_bookcase</osmand:amenity_subtype>
    <osmand:icon>public_bookcase</osmand:icon>
  </extensions>
</wpt>
<wpt lat="45.8558318" lon="3.5203184">
  <name>Route de Fau</name>
  <desc>Boite à livre à l'entrée de l'hopital</desc>
  <type>Delivrez bookcase Auvergne-Rhône-Alpes</type>
  <extensions>
    <osmand:codetype>BSB</osmand:codetype>
    <osmand:color>#00842b</osmand:color>
    <osmand:background>square</osmand:background>
    <osmand:amenity_subtype>public_bookcase</osmand:amenity_subtype>
    <osmand:icon>public_bookcase</osmand:icon>
  </extensions>
</wpt>
<wpt lat="46.1596014" lon="6.3427369">
  <name>Route du Chef Lieu</name>
  <desc>dans l'abribus</desc>
  <type>Delivrez bookcase Auvergne-Rhône-Alpes</type>
  <extensions>
    <osmand:codetype>BSB</osmand:codetype>
    <osmand:color>#00842b</osmand:color>
    <osmand:background>square</osmand:background>
    <osmand:amenity_subtype>public_bookcase</osmand:amenity_subtype>
    <osmand:icon>public_bookcase</osmand:icon>
  </extensions>
</wpt>
<wpt lat="46.0659256" lon="6.311335">
  <name>Rue Perrine</name>
  <desc>facade du magasin Unalome</desc>
  <type>Delivrez bookcase Auvergne-Rhône-Alpes</type>
  <extensions>
    <osmand:codetype>BSB</osmand:codetype>
    <osmand:color>#00842b</osmand:color>
    <osmand:background>square</osmand:background>
    <osmand:amenity_subtype>public_bookcase</osmand:amenity_subtype>
    <osmand:icon>public_bookcase</osmand:icon>
  </extensions>
</wpt>
<wpt lat="46.0931298" lon="6.2999883">
  <name>Place du Tilleul</name>
  <desc>sur la facade d'une maison@@__boite mal protégée de la pluie!</desc>
  <type>Delivrez bookcase Auvergne-Rhône-Alpes</type>
  <extensions>
    <osmand:codetype>BSB</osmand:codetype>
    <osmand:color>#00842b</osmand:color>
    <osmand:background>square</osmand:background>
    <osmand:amenity_subtype>public_bookcase</osmand:amenity_subtype>
    <osmand:icon>public_bookcase</osmand:icon>
  </extensions>
</wpt>
<wpt lat="44.6463088" lon="5.0621644">
  <name>Place de l'Église</name>
  <desc>_</desc>
  <type>Delivrez bookcase Auvergne-Rhône-Alpes</type>
  <extensions>
    <osmand:codetype>BSB</osmand:codetype>
    <osmand:color>#00842b</osmand:color>
    <osmand:background>square</osmand:background>
    <osmand:amenity_subtype>public_bookcase</osmand:amenity_subtype>
    <osmand:icon>public_bookcase</osmand:icon>
  </extensions>
</wpt>
<wpt lat="44.9915887" lon="2.4208201">
  <name>Avenue des Raux</name>
  <desc>Cabine téléphonique jaune</desc>
  <type>Delivrez bookcase Auvergne-Rhône-Alpes</type>
  <extensions>
    <osmand:codetype>BSB</osmand:codetype>
    <osmand:color>#00842b</osmand:color>
    <osmand:background>square</osmand:background>
    <osmand:amenity_subtype>public_bookcase</osmand:amenity_subtype>
    <osmand:icon>public_bookcase</osmand:icon>
  </extensions>
</wpt>
<wpt lat="45.0518463" lon="2.485651">
  <name>lire rêver s'évader</name>
  <desc>Après l'entrée via le parking</desc>
  <type>Delivrez bookcase Auvergne-Rhône-Alpes</type>
  <extensions>
    <osmand:codetype>BSB</osmand:codetype>
    <osmand:color>#00842b</osmand:color>
    <osmand:background>square</osmand:background>
    <osmand:amenity_subtype>public_bookcase</osmand:amenity_subtype>
    <osmand:icon>public_bookcase</osmand:icon>
  </extensions>
</wpt>
<wpt lat="45.1450871" lon="5.1222872">
  <name>D52</name>
  <desc>ancienne cabine téléphonique sur la place</desc>
  <type>Delivrez bookcase Auvergne-Rhône-Alpes</type>
  <extensions>
    <osmand:codetype>BSB</osmand:codetype>
    <osmand:color>#00842b</osmand:color>
    <osmand:background>square</osmand:background>
    <osmand:amenity_subtype>public_bookcase</osmand:amenity_subtype>
    <osmand:icon>public_bookcase</osmand:icon>
  </extensions>
</wpt>
<wpt lat="45.2169086" lon="2.3305219">
  <name>Rue du Collège</name>
  <desc>_</desc>
  <type>Delivrez bookcase Auvergne-Rhône-Alpes</type>
  <extensions>
    <osmand:codetype>BSB</osmand:codetype>
    <osmand:color>#00842b</osmand:color>
    <osmand:background>square</osmand:background>
    <osmand:amenity_subtype>public_bookcase</osmand:amenity_subtype>
    <osmand:icon>public_bookcase</osmand:icon>
  </extensions>
</wpt>
<wpt lat="45.6304862" lon="4.4565523">
  <name>Boulevard du 11 Novembre</name>
  <desc>dans la cabine téléphonique</desc>
  <type>Delivrez bookcase Auvergne-Rhône-Alpes</type>
  <extensions>
    <osmand:codetype>BSB</osmand:codetype>
    <osmand:color>#00842b</osmand:color>
    <osmand:background>square</osmand:background>
    <osmand:amenity_subtype>public_bookcase</osmand:amenity_subtype>
    <osmand:icon>public_bookcase</osmand:icon>
  </extensions>
</wpt>
<wpt lat="45.529184" lon="4.372911">
  <name>Boulevard Ravel de Malval</name>
  <desc>a l'angle du marché</desc>
  <type>Delivrez bookcase Auvergne-Rhône-Alpes</type>
  <extensions>
    <osmand:codetype>BSB</osmand:codetype>
    <osmand:color>#00842b</osmand:color>
    <osmand:background>square</osmand:background>
    <osmand:amenity_subtype>public_bookcase</osmand:amenity_subtype>
    <osmand:icon>public_bookcase</osmand:icon>
  </extensions>
</wpt>
<wpt lat="45.5656228" lon="4.370539">
  <name>Rue des Érables</name>
  <desc>devant mairie, à côté bibliothèque municipale</desc>
  <type>Delivrez bookcase Auvergne-Rhône-Alpes</type>
  <extensions>
    <osmand:codetype>BSB</osmand:codetype>
    <osmand:color>#00842b</osmand:color>
    <osmand:background>square</osmand:background>
    <osmand:amenity_subtype>public_bookcase</osmand:amenity_subtype>
    <osmand:icon>public_bookcase</osmand:icon>
  </extensions>
</wpt>
<wpt lat="45.2549095" lon="6.258325">
  <name>Rue blanche</name>
  <desc>Galerie Marchande Lenanska'do@@__petite boîte style pallete @@__une rangé  de livre @@__</desc>
  <type>Delivrez bookcase Auvergne-Rhône-Alpes</type>
  <extensions>
    <osmand:codetype>BSB</osmand:codetype>
    <osmand:color>#00842b</osmand:color>
    <osmand:background>square</osmand:background>
    <osmand:amenity_subtype>public_bookcase</osmand:amenity_subtype>
    <osmand:icon>public_bookcase</osmand:icon>
  </extensions>
</wpt>
<wpt lat="45.1706841" lon="5.6303477">
  <name>Place du 4 Avril 1929</name>
  <desc>dans l'abri bus</desc>
  <type>Delivrez bookcase Auvergne-Rhône-Alpes</type>
  <extensions>
    <osmand:codetype>BSB</osmand:codetype>
    <osmand:color>#00842b</osmand:color>
    <osmand:background>square</osmand:background>
    <osmand:amenity_subtype>public_bookcase</osmand:amenity_subtype>
    <osmand:icon>public_bookcase</osmand:icon>
  </extensions>
</wpt>
<wpt lat="45.3865002" lon="3.2686412">
  <name>Place du Bosquet</name>
  <desc>_</desc>
  <type>Delivrez bookcase Auvergne-Rhône-Alpes</type>
  <extensions>
    <osmand:codetype>BSB</osmand:codetype>
    <osmand:color>#00842b</osmand:color>
    <osmand:background>square</osmand:background>
    <osmand:amenity_subtype>public_bookcase</osmand:amenity_subtype>
    <osmand:icon>public_bookcase</osmand:icon>
  </extensions>
</wpt>
<wpt lat="44.9018661" lon="2.1817084">
  <name>D32</name>
  <desc>cabine téléphonique</desc>
  <type>Delivrez bookcase Auvergne-Rhône-Alpes</type>
  <extensions>
    <osmand:codetype>BSB</osmand:codetype>
    <osmand:color>#00842b</osmand:color>
    <osmand:background>square</osmand:background>
    <osmand:amenity_subtype>public_bookcase</osmand:amenity_subtype>
    <osmand:icon>public_bookcase</osmand:icon>
  </extensions>
</wpt>
<wpt lat="45.7736546" lon="3.0871133">
  <name>jardin lecocq</name>
  <desc>a l'entrée du jardin dans une cabine téléphonique</desc>
  <type>Delivrez bookcase Auvergne-Rhône-Alpes</type>
  <extensions>
    <osmand:codetype>BSB</osmand:codetype>
    <osmand:color>#00842b</osmand:color>
    <osmand:background>square</osmand:background>
    <osmand:amenity_subtype>public_bookcase</osmand:amenity_subtype>
    <osmand:icon>public_bookcase</osmand:icon>
  </extensions>
</wpt>
<wpt lat="45.899549" lon="3.410958">
  <name>D224</name>
  <desc>a côté de l'abris bus</desc>
  <type>Delivrez bookcase Auvergne-Rhône-Alpes</type>
  <extensions>
    <osmand:codetype>BSB</osmand:codetype>
    <osmand:color>#00842b</osmand:color>
    <osmand:background>square</osmand:background>
    <osmand:amenity_subtype>public_bookcase</osmand:amenity_subtype>
    <osmand:icon>public_bookcase</osmand:icon>
  </extensions>
</wpt>
<wpt lat="45.856643" lon="3.5481337">
  <name>square verdun</name>
  <desc>située à gauche du monument aux morts</desc>
  <type>Delivrez bookcase Auvergne-Rhône-Alpes</type>
  <extensions>
    <osmand:codetype>BSB</osmand:codetype>
    <osmand:color>#00842b</osmand:color>
    <osmand:background>square</osmand:background>
    <osmand:amenity_subtype>public_bookcase</osmand:amenity_subtype>
    <osmand:icon>public_bookcase</osmand:icon>
  </extensions>
</wpt>
<wpt lat="45.7229468" lon="3.3420595">
  <name>square du 8 mai</name>
  <desc>située dans une tour au milieu du square</desc>
  <type>Delivrez bookcase Auvergne-Rhône-Alpes</type>
  <extensions>
    <osmand:codetype>BSB</osmand:codetype>
    <osmand:color>#00842b</osmand:color>
    <osmand:background>square</osmand:background>
    <osmand:amenity_subtype>public_bookcase</osmand:amenity_subtype>
    <osmand:icon>public_bookcase</osmand:icon>
  </extensions>
</wpt>
<wpt lat="45.6117007" lon="6.0133156">
  <name>Route du Col de Plainpalais</name>
  <desc>arrêt de bus</desc>
  <type>Delivrez bookcase Auvergne-Rhône-Alpes</type>
  <extensions>
    <osmand:codetype>BSB</osmand:codetype>
    <osmand:color>#00842b</osmand:color>
    <osmand:background>square</osmand:background>
    <osmand:amenity_subtype>public_bookcase</osmand:amenity_subtype>
    <osmand:icon>public_bookcase</osmand:icon>
  </extensions>
</wpt>
<wpt lat="45.549145" lon="5.9848871">
  <name>Avenue de Chambéry</name>
  <desc>agence Immobilier Laforêt</desc>
  <type>Delivrez bookcase Auvergne-Rhône-Alpes</type>
  <extensions>
    <osmand:codetype>BSB</osmand:codetype>
    <osmand:color>#00842b</osmand:color>
    <osmand:background>square</osmand:background>
    <osmand:amenity_subtype>public_bookcase</osmand:amenity_subtype>
    <osmand:icon>public_bookcase</osmand:icon>
  </extensions>
</wpt>
<wpt lat="45.7719397" lon="4.8318077">
  <name>Montée de la Grande-Côte</name>
  <desc>boîte à livres et boîte à dons</desc>
  <type>Delivrez bookcase Auvergne-Rhône-Alpes</type>
  <extensions>
    <osmand:codetype>BSB</osmand:codetype>
    <osmand:color>#00842b</osmand:color>
    <osmand:background>square</osmand:background>
    <osmand:amenity_subtype>public_bookcase</osmand:amenity_subtype>
    <osmand:icon>public_bookcase</osmand:icon>
  </extensions>
</wpt>
<wpt lat="45.5807272" lon="5.9424426">
  <name>Rue de la Croix</name>
  <desc>ancienne cabine téléphonique  en face du tabac</desc>
  <type>Delivrez bookcase Auvergne-Rhône-Alpes</type>
  <extensions>
    <osmand:codetype>BSB</osmand:codetype>
    <osmand:color>#00842b</osmand:color>
    <osmand:background>square</osmand:background>
    <osmand:amenity_subtype>public_bookcase</osmand:amenity_subtype>
    <osmand:icon>public_bookcase</osmand:icon>
  </extensions>
</wpt>
<wpt lat="45.216959" lon="2.3306161">
  <name>Rue du Collège</name>
  <desc>dans le parc</desc>
  <type>Delivrez bookcase Auvergne-Rhône-Alpes</type>
  <extensions>
    <osmand:codetype>BSB</osmand:codetype>
    <osmand:color>#00842b</osmand:color>
    <osmand:background>square</osmand:background>
    <osmand:amenity_subtype>public_bookcase</osmand:amenity_subtype>
    <osmand:icon>public_bookcase</osmand:icon>
  </extensions>
</wpt>
<wpt lat="44.9677287" lon="2.1899974">
  <name>Rue du Pont</name>
  <desc>sur la place</desc>
  <type>Delivrez bookcase Auvergne-Rhône-Alpes</type>
  <extensions>
    <osmand:codetype>BSB</osmand:codetype>
    <osmand:color>#00842b</osmand:color>
    <osmand:background>square</osmand:background>
    <osmand:amenity_subtype>public_bookcase</osmand:amenity_subtype>
    <osmand:icon>public_bookcase</osmand:icon>
  </extensions>
</wpt>
<wpt lat="45.4734203" lon="4.9981302">
  <name>Rue du Sallin</name>
  <desc>boite à livre orange devant l 'hangar associatif</desc>
  <type>Delivrez bookcase Auvergne-Rhône-Alpes</type>
  <extensions>
    <osmand:codetype>BSB</osmand:codetype>
    <osmand:color>#00842b</osmand:color>
    <osmand:background>square</osmand:background>
    <osmand:amenity_subtype>public_bookcase</osmand:amenity_subtype>
    <osmand:icon>public_bookcase</osmand:icon>
  </extensions>
</wpt>
<wpt lat="45.3890278" lon="4.2873992">
  <name>place du breuil</name>
  <desc>entre l'école st firmin et la mairie ( devant l'accès handicapés et poussette de cette dernière)</desc>
  <type>Delivrez bookcase Auvergne-Rhône-Alpes</type>
  <extensions>
    <osmand:codetype>BSB</osmand:codetype>
    <osmand:color>#00842b</osmand:color>
    <osmand:background>square</osmand:background>
    <osmand:amenity_subtype>public_bookcase</osmand:amenity_subtype>
    <osmand:icon>public_bookcase</osmand:icon>
  </extensions>
</wpt>
<wpt lat="44.8833547" lon="2.3463231">
  <name>Place du Commerce</name>
  <desc>_</desc>
  <type>Delivrez bookcase Auvergne-Rhône-Alpes</type>
  <extensions>
    <osmand:codetype>BSB</osmand:codetype>
    <osmand:color>#00842b</osmand:color>
    <osmand:background>square</osmand:background>
    <osmand:amenity_subtype>public_bookcase</osmand:amenity_subtype>
    <osmand:icon>public_bookcase</osmand:icon>
  </extensions>
</wpt>
<wpt lat="45.3972339" lon="4.2611285">
  <name>parc d unieux</name>
  <desc>deux boites a côté du jeux pour les tout petit</desc>
  <type>Delivrez bookcase Auvergne-Rhône-Alpes</type>
  <extensions>
    <osmand:codetype>BSB</osmand:codetype>
    <osmand:color>#00842b</osmand:color>
    <osmand:background>square</osmand:background>
    <osmand:amenity_subtype>public_bookcase</osmand:amenity_subtype>
    <osmand:icon>public_bookcase</osmand:icon>
  </extensions>
</wpt>
<wpt lat="46.1805841" lon="6.2284867">
  <name>Chemin des Jardins</name>
  <desc>au bord de la route</desc>
  <type>Delivrez bookcase Auvergne-Rhône-Alpes</type>
  <extensions>
    <osmand:codetype>BSB</osmand:codetype>
    <osmand:color>#00842b</osmand:color>
    <osmand:background>square</osmand:background>
    <osmand:amenity_subtype>public_bookcase</osmand:amenity_subtype>
    <osmand:icon>public_bookcase</osmand:icon>
  </extensions>
</wpt>
<wpt lat="46.1735046" lon="6.2601807">
  <name>Route de Hauteville</name>
  <desc>à côté du terrain de boules</desc>
  <type>Delivrez bookcase Auvergne-Rhône-Alpes</type>
  <extensions>
    <osmand:codetype>BSB</osmand:codetype>
    <osmand:color>#00842b</osmand:color>
    <osmand:background>square</osmand:background>
    <osmand:amenity_subtype>public_bookcase</osmand:amenity_subtype>
    <osmand:icon>public_bookcase</osmand:icon>
  </extensions>
</wpt>
<wpt lat="45.0510556" lon="5.4494974">
  <name>D103</name>
  <desc>face à la maorie</desc>
  <type>Delivrez bookcase Auvergne-Rhône-Alpes</type>
  <extensions>
    <osmand:codetype>BSB</osmand:codetype>
    <osmand:color>#00842b</osmand:color>
    <osmand:background>square</osmand:background>
    <osmand:amenity_subtype>public_bookcase</osmand:amenity_subtype>
    <osmand:icon>public_bookcase</osmand:icon>
  </extensions>
</wpt>
<wpt lat="46.1431899" lon="6.0730004">
  <name>Chemin de la Ferme</name>
  <desc>École Mandela</desc>
  <type>Delivrez bookcase Auvergne-Rhône-Alpes</type>
  <extensions>
    <osmand:codetype>BSB</osmand:codetype>
    <osmand:color>#00842b</osmand:color>
    <osmand:background>square</osmand:background>
    <osmand:amenity_subtype>public_bookcase</osmand:amenity_subtype>
    <osmand:icon>public_bookcase</osmand:icon>
  </extensions>
</wpt>
<wpt lat="46.1260096" lon="6.1370861">
  <name>Route des Pommeraies</name>
  <desc>_</desc>
  <type>Delivrez bookcase Auvergne-Rhône-Alpes</type>
  <extensions>
    <osmand:codetype>BSB</osmand:codetype>
    <osmand:color>#00842b</osmand:color>
    <osmand:background>square</osmand:background>
    <osmand:amenity_subtype>public_bookcase</osmand:amenity_subtype>
    <osmand:icon>public_bookcase</osmand:icon>
  </extensions>
</wpt>
<wpt lat="45.4070004" lon="4.8680048">
  <name>Place des Écoles</name>
  <desc>_</desc>
  <type>Delivrez bookcase Auvergne-Rhône-Alpes</type>
  <extensions>
    <osmand:codetype>BSB</osmand:codetype>
    <osmand:color>#00842b</osmand:color>
    <osmand:background>square</osmand:background>
    <osmand:amenity_subtype>public_bookcase</osmand:amenity_subtype>
    <osmand:icon>public_bookcase</osmand:icon>
  </extensions>
</wpt>
<wpt lat="46.0192109" lon="4.0862869">
  <name>Rue Jean de la Bruyère</name>
  <desc>petite cabane à livres</desc>
  <type>Delivrez bookcase Auvergne-Rhône-Alpes</type>
  <extensions>
    <osmand:codetype>BSB</osmand:codetype>
    <osmand:color>#00842b</osmand:color>
    <osmand:background>square</osmand:background>
    <osmand:amenity_subtype>public_bookcase</osmand:amenity_subtype>
    <osmand:icon>public_bookcase</osmand:icon>
  </extensions>
</wpt>
<wpt lat="46.2080703" lon="6.2556627">
  <name>Rue Fernand David</name>
  <desc>Au moulin de Cara</desc>
  <type>Delivrez bookcase Auvergne-Rhône-Alpes</type>
  <extensions>
    <osmand:codetype>BSB</osmand:codetype>
    <osmand:color>#00842b</osmand:color>
    <osmand:background>square</osmand:background>
    <osmand:amenity_subtype>public_bookcase</osmand:amenity_subtype>
    <osmand:icon>public_bookcase</osmand:icon>
  </extensions>
</wpt>
<wpt lat="46.1855733" lon="6.244304">
  <name>Place du Jumelage</name>
  <desc>Devant la maison Nelson Mandela</desc>
  <type>Delivrez bookcase Auvergne-Rhône-Alpes</type>
  <extensions>
    <osmand:codetype>BSB</osmand:codetype>
    <osmand:color>#00842b</osmand:color>
    <osmand:background>square</osmand:background>
    <osmand:amenity_subtype>public_bookcase</osmand:amenity_subtype>
    <osmand:icon>public_bookcase</osmand:icon>
  </extensions>
</wpt>
<wpt lat="44.4071001" lon="5.2535901">
  <name>Les Hermasses</name>
  <desc>sous un porche</desc>
  <type>Delivrez bookcase Auvergne-Rhône-Alpes</type>
  <extensions>
    <osmand:codetype>BSB</osmand:codetype>
    <osmand:color>#00842b</osmand:color>
    <osmand:background>square</osmand:background>
    <osmand:amenity_subtype>public_bookcase</osmand:amenity_subtype>
    <osmand:icon>public_bookcase</osmand:icon>
  </extensions>
</wpt>
<wpt lat="46.1168827" lon="6.037757">
  <name>Route de Frangy</name>
  <desc>Allée au dessus de la place</desc>
  <type>Delivrez bookcase Auvergne-Rhône-Alpes</type>
  <extensions>
    <osmand:codetype>BSB</osmand:codetype>
    <osmand:color>#00842b</osmand:color>
    <osmand:background>square</osmand:background>
    <osmand:amenity_subtype>public_bookcase</osmand:amenity_subtype>
    <osmand:icon>public_bookcase</osmand:icon>
  </extensions>
</wpt>
<wpt lat="44.7646066" lon="5.6640934">
  <name>Place de l'Église</name>
  <desc>_</desc>
  <type>Delivrez bookcase Auvergne-Rhône-Alpes</type>
  <extensions>
    <osmand:codetype>BSB</osmand:codetype>
    <osmand:color>#00842b</osmand:color>
    <osmand:background>square</osmand:background>
    <osmand:amenity_subtype>public_bookcase</osmand:amenity_subtype>
    <osmand:icon>public_bookcase</osmand:icon>
  </extensions>
</wpt>
<wpt lat="44.6573304" lon="4.7612474">
  <name>Rue Jean Jaurès</name>
  <desc>a coté du lavoir</desc>
  <type>Delivrez bookcase Auvergne-Rhône-Alpes</type>
  <extensions>
    <osmand:codetype>BSB</osmand:codetype>
    <osmand:color>#00842b</osmand:color>
    <osmand:background>square</osmand:background>
    <osmand:amenity_subtype>public_bookcase</osmand:amenity_subtype>
    <osmand:icon>public_bookcase</osmand:icon>
  </extensions>
</wpt>
<wpt lat="45.9212538" lon="4.5853879">
  <name>sur la place</name>
  <desc>petit châlet</desc>
  <type>Delivrez bookcase Auvergne-Rhône-Alpes</type>
  <extensions>
    <osmand:codetype>BSB</osmand:codetype>
    <osmand:color>#00842b</osmand:color>
    <osmand:background>square</osmand:background>
    <osmand:amenity_subtype>public_bookcase</osmand:amenity_subtype>
    <osmand:icon>public_bookcase</osmand:icon>
  </extensions>
</wpt>
<wpt lat="45.4640504" lon="4.7674499">
  <name>Rue de la Mairie</name>
  <desc>devant la mairie</desc>
  <type>Delivrez bookcase Auvergne-Rhône-Alpes</type>
  <extensions>
    <osmand:codetype>BSB</osmand:codetype>
    <osmand:color>#00842b</osmand:color>
    <osmand:background>square</osmand:background>
    <osmand:amenity_subtype>public_bookcase</osmand:amenity_subtype>
    <osmand:icon>public_bookcase</osmand:icon>
  </extensions>
</wpt>
<wpt lat="46.2028582" lon="6.2604476">
  <name>Rue Henri Jaccaz</name>
  <desc>_</desc>
  <type>Delivrez bookcase Auvergne-Rhône-Alpes</type>
  <extensions>
    <osmand:codetype>BSB</osmand:codetype>
    <osmand:color>#00842b</osmand:color>
    <osmand:background>square</osmand:background>
    <osmand:amenity_subtype>public_bookcase</osmand:amenity_subtype>
    <osmand:icon>public_bookcase</osmand:icon>
  </extensions>
</wpt>
<wpt lat="46.0944181" lon="6.1015363">
  <name>Bibliothèque du Châble</name>
  <desc>_</desc>
  <type>Delivrez bookcase Auvergne-Rhône-Alpes</type>
  <extensions>
    <osmand:codetype>BSB</osmand:codetype>
    <osmand:color>#00842b</osmand:color>
    <osmand:background>square</osmand:background>
    <osmand:amenity_subtype>public_bookcase</osmand:amenity_subtype>
    <osmand:icon>public_bookcase</osmand:icon>
  </extensions>
</wpt>
<wpt lat="46.1350378" lon="6.133079">
  <name>Place de l'Église</name>
  <desc>_</desc>
  <type>Delivrez bookcase Auvergne-Rhône-Alpes</type>
  <extensions>
    <osmand:codetype>BSB</osmand:codetype>
    <osmand:color>#00842b</osmand:color>
    <osmand:background>square</osmand:background>
    <osmand:amenity_subtype>public_bookcase</osmand:amenity_subtype>
    <osmand:icon>public_bookcase</osmand:icon>
  </extensions>
</wpt>
<wpt lat="46.120707" lon="6.127359">
  <name>Route de Beaumont</name>
  <desc>_</desc>
  <type>Delivrez bookcase Auvergne-Rhône-Alpes</type>
  <extensions>
    <osmand:codetype>BSB</osmand:codetype>
    <osmand:color>#00842b</osmand:color>
    <osmand:background>square</osmand:background>
    <osmand:amenity_subtype>public_bookcase</osmand:amenity_subtype>
    <osmand:icon>public_bookcase</osmand:icon>
  </extensions>
</wpt>
<wpt lat="46.1206596" lon="6.1039892">
  <name>Chemin Neuf</name>
  <desc>Cabine téléphonique reconvertie</desc>
  <type>Delivrez bookcase Auvergne-Rhône-Alpes</type>
  <extensions>
    <osmand:codetype>BSB</osmand:codetype>
    <osmand:color>#00842b</osmand:color>
    <osmand:background>square</osmand:background>
    <osmand:amenity_subtype>public_bookcase</osmand:amenity_subtype>
    <osmand:icon>public_bookcase</osmand:icon>
  </extensions>
</wpt>
<wpt lat="45.3523618" lon="4.7586069">
  <name>Place des Anciens Combattants</name>
  <desc>cabine a livre en face de la presse</desc>
  <type>Delivrez bookcase Auvergne-Rhône-Alpes</type>
  <extensions>
    <osmand:codetype>BSB</osmand:codetype>
    <osmand:color>#00842b</osmand:color>
    <osmand:background>square</osmand:background>
    <osmand:amenity_subtype>public_bookcase</osmand:amenity_subtype>
    <osmand:icon>public_bookcase</osmand:icon>
  </extensions>
</wpt>
<wpt lat="44.4811482" lon="4.6952389">
  <name>Avenue Mendès France</name>
  <desc>à l'entrée du stade</desc>
  <type>Delivrez bookcase Auvergne-Rhône-Alpes</type>
  <extensions>
    <osmand:codetype>BSB</osmand:codetype>
    <osmand:color>#00842b</osmand:color>
    <osmand:background>square</osmand:background>
    <osmand:amenity_subtype>public_bookcase</osmand:amenity_subtype>
    <osmand:icon>public_bookcase</osmand:icon>
  </extensions>
</wpt>
<wpt lat="45.9487816" lon="4.5835891">
  <name>Place de Presberg</name>
  <desc>une belle boites à livres près du parking</desc>
  <type>Delivrez bookcase Auvergne-Rhône-Alpes</type>
  <extensions>
    <osmand:codetype>BSB</osmand:codetype>
    <osmand:color>#00842b</osmand:color>
    <osmand:background>square</osmand:background>
    <osmand:amenity_subtype>public_bookcase</osmand:amenity_subtype>
    <osmand:icon>public_bookcase</osmand:icon>
  </extensions>
</wpt>
<wpt lat="45.3686966" lon="5.5887298">
  <name>32 Rue Sermorens</name>
  <desc>boite rouge au mur</desc>
  <type>Delivrez bookcase Auvergne-Rhône-Alpes</type>
  <extensions>
    <osmand:codetype>BSB</osmand:codetype>
    <osmand:color>#00842b</osmand:color>
    <osmand:background>square</osmand:background>
    <osmand:amenity_subtype>public_bookcase</osmand:amenity_subtype>
    <osmand:icon>public_bookcase</osmand:icon>
  </extensions>
</wpt>
<wpt lat="45.4398395" lon="4.7700197">
  <name>Route de Péage</name>
  <desc>sous l'arrêt de bus</desc>
  <type>Delivrez bookcase Auvergne-Rhône-Alpes</type>
  <extensions>
    <osmand:codetype>BSB</osmand:codetype>
    <osmand:color>#00842b</osmand:color>
    <osmand:background>square</osmand:background>
    <osmand:amenity_subtype>public_bookcase</osmand:amenity_subtype>
    <osmand:icon>public_bookcase</osmand:icon>
  </extensions>
</wpt>
<wpt lat="44.4814343" lon="4.6891692">
  <name>Faubourg la Trau</name>
  <desc>@@__devant l'ecole</desc>
  <type>Delivrez bookcase Auvergne-Rhône-Alpes</type>
  <extensions>
    <osmand:codetype>BSB</osmand:codetype>
    <osmand:color>#00842b</osmand:color>
    <osmand:background>square</osmand:background>
    <osmand:amenity_subtype>public_bookcase</osmand:amenity_subtype>
    <osmand:icon>public_bookcase</osmand:icon>
  </extensions>
</wpt>
<wpt lat="44.7712875" lon="4.8347148">
  <name>Lotissement les Prés Bompart</name>
  <desc>sur  l avenue des cevennes fixée sur la grille blanche devant le figuier du potager</desc>
  <type>Delivrez bookcase Auvergne-Rhône-Alpes</type>
  <extensions>
    <osmand:codetype>BSB</osmand:codetype>
    <osmand:color>#00842b</osmand:color>
    <osmand:background>square</osmand:background>
    <osmand:amenity_subtype>public_bookcase</osmand:amenity_subtype>
    <osmand:icon>public_bookcase</osmand:icon>
  </extensions>
</wpt>
<wpt lat="44.5258569" lon="5.0659382">
  <name>Place Abbé Magnet</name>
  <desc>Devant l'office de tourisme</desc>
  <type>Delivrez bookcase Auvergne-Rhône-Alpes</type>
  <extensions>
    <osmand:codetype>BSB</osmand:codetype>
    <osmand:color>#00842b</osmand:color>
    <osmand:background>square</osmand:background>
    <osmand:amenity_subtype>public_bookcase</osmand:amenity_subtype>
    <osmand:icon>public_bookcase</osmand:icon>
  </extensions>
</wpt>
<wpt lat="44.6984998" lon="4.8345937">
  <name>Grand Rue</name>
  <desc>Devant la boulangerie</desc>
  <type>Delivrez bookcase Auvergne-Rhône-Alpes</type>
  <extensions>
    <osmand:codetype>BSB</osmand:codetype>
    <osmand:color>#00842b</osmand:color>
    <osmand:background>square</osmand:background>
    <osmand:amenity_subtype>public_bookcase</osmand:amenity_subtype>
    <osmand:icon>public_bookcase</osmand:icon>
  </extensions>
</wpt>
<wpt lat="44.5429881" lon="4.6733273">
  <name>Avenue vaillant couturier</name>
  <desc>En face de l'école</desc>
  <type>Delivrez bookcase Auvergne-Rhône-Alpes</type>
  <extensions>
    <osmand:codetype>BSB</osmand:codetype>
    <osmand:color>#00842b</osmand:color>
    <osmand:background>square</osmand:background>
    <osmand:amenity_subtype>public_bookcase</osmand:amenity_subtype>
    <osmand:icon>public_bookcase</osmand:icon>
  </extensions>
</wpt>
<wpt lat="44.4844129" lon="4.6893605">
  <name>Place de la Roubine</name>
  <desc>Devant l'ecole</desc>
  <type>Delivrez bookcase Auvergne-Rhône-Alpes</type>
  <extensions>
    <osmand:codetype>BSB</osmand:codetype>
    <osmand:color>#00842b</osmand:color>
    <osmand:background>square</osmand:background>
    <osmand:amenity_subtype>public_bookcase</osmand:amenity_subtype>
    <osmand:icon>public_bookcase</osmand:icon>
  </extensions>
</wpt>
<wpt lat="45.7733513" lon="4.879991">
  <name>Rue Raspail</name>
  <desc>Au 11 de la rue raspail</desc>
  <type>Delivrez bookcase Auvergne-Rhône-Alpes</type>
  <extensions>
    <osmand:codetype>BSB</osmand:codetype>
    <osmand:color>#00842b</osmand:color>
    <osmand:background>square</osmand:background>
    <osmand:amenity_subtype>public_bookcase</osmand:amenity_subtype>
    <osmand:icon>public_bookcase</osmand:icon>
  </extensions>
</wpt>
<wpt lat="45.7657938" lon="4.9002321">
  <name>Rue du 4 Août 1789</name>
  <desc>Petite boîte à dons</desc>
  <type>Delivrez bookcase Auvergne-Rhône-Alpes</type>
  <extensions>
    <osmand:codetype>BSB</osmand:codetype>
    <osmand:color>#00842b</osmand:color>
    <osmand:background>square</osmand:background>
    <osmand:amenity_subtype>public_bookcase</osmand:amenity_subtype>
    <osmand:icon>public_bookcase</osmand:icon>
  </extensions>
</wpt>
<wpt lat="45.2550506" lon="4.7154442">
  <name>Rue de Gratignol</name>
  <desc>_</desc>
  <type>Delivrez bookcase Auvergne-Rhône-Alpes</type>
  <extensions>
    <osmand:codetype>BSB</osmand:codetype>
    <osmand:color>#00842b</osmand:color>
    <osmand:background>square</osmand:background>
    <osmand:amenity_subtype>public_bookcase</osmand:amenity_subtype>
    <osmand:icon>public_bookcase</osmand:icon>
  </extensions>
</wpt>
<wpt lat="45.317961" lon="4.8196453">
  <name>Place de France</name>
  <desc>sur la place, sous l'abri</desc>
  <type>Delivrez bookcase Auvergne-Rhône-Alpes</type>
  <extensions>
    <osmand:codetype>BSB</osmand:codetype>
    <osmand:color>#00842b</osmand:color>
    <osmand:background>square</osmand:background>
    <osmand:amenity_subtype>public_bookcase</osmand:amenity_subtype>
    <osmand:icon>public_bookcase</osmand:icon>
  </extensions>
</wpt>
<wpt lat="45.6905047" lon="4.7909287">
  <name>Route de Vourles</name>
  <desc>dans le hall  d'entrée  du pavillon Bourret à l'hôpital Henry Gabriel</desc>
  <type>Delivrez bookcase Auvergne-Rhône-Alpes</type>
  <extensions>
    <osmand:codetype>BSB</osmand:codetype>
    <osmand:color>#00842b</osmand:color>
    <osmand:background>square</osmand:background>
    <osmand:amenity_subtype>public_bookcase</osmand:amenity_subtype>
    <osmand:icon>public_bookcase</osmand:icon>
  </extensions>
</wpt>
<wpt lat="44.7528142" lon="5.2635972">
  <name>Boîte à livres du Village</name>
  <desc>_</desc>
  <type>Delivrez bookcase Auvergne-Rhône-Alpes</type>
  <extensions>
    <osmand:codetype>BSB</osmand:codetype>
    <osmand:color>#00842b</osmand:color>
    <osmand:background>square</osmand:background>
    <osmand:amenity_subtype>public_bookcase</osmand:amenity_subtype>
    <osmand:icon>public_bookcase</osmand:icon>
  </extensions>
</wpt>
<wpt lat="45.3462494" lon="4.813571">
  <name>Rue Pierre Avit Nicolas</name>
  <desc>joli &quot;arbre boîte à livres&quot; devant l'entrée du foyer Laurent  Bouvier</desc>
  <type>Delivrez bookcase Auvergne-Rhône-Alpes</type>
  <extensions>
    <osmand:codetype>BSB</osmand:codetype>
    <osmand:color>#00842b</osmand:color>
    <osmand:background>square</osmand:background>
    <osmand:amenity_subtype>public_bookcase</osmand:amenity_subtype>
    <osmand:icon>public_bookcase</osmand:icon>
  </extensions>
</wpt>
<wpt lat="44.4806939" lon="4.6913039">
  <name>Place P Allignol</name>
  <desc>Devant la mairie</desc>
  <type>Delivrez bookcase Auvergne-Rhône-Alpes</type>
  <extensions>
    <osmand:codetype>BSB</osmand:codetype>
    <osmand:color>#00842b</osmand:color>
    <osmand:background>square</osmand:background>
    <osmand:amenity_subtype>public_bookcase</osmand:amenity_subtype>
    <osmand:icon>public_bookcase</osmand:icon>
  </extensions>
</wpt>
<wpt lat="45.3570736" lon="4.8018961">
  <name>Rue Louis Pasteur</name>
  <desc>petite maison en bois dans @@__passage pieton &quot;allée des jardins de la soie&quot;</desc>
  <type>Delivrez bookcase Auvergne-Rhône-Alpes</type>
  <extensions>
    <osmand:codetype>BSB</osmand:codetype>
    <osmand:color>#00842b</osmand:color>
    <osmand:background>square</osmand:background>
    <osmand:amenity_subtype>public_bookcase</osmand:amenity_subtype>
    <osmand:icon>public_bookcase</osmand:icon>
  </extensions>
</wpt>
<wpt lat="45.7013449" lon="4.8072885">
  <name>Chemin du Grand Revoyet</name>
  <desc>Dans l'hôpital lyon sud. Étagère  dans le hall du bâtiment 3C, entre distributeurs de boisson et ascenseurs.</desc>
  <type>Delivrez bookcase Auvergne-Rhône-Alpes</type>
  <extensions>
    <osmand:codetype>BSB</osmand:codetype>
    <osmand:color>#00842b</osmand:color>
    <osmand:background>square</osmand:background>
    <osmand:amenity_subtype>public_bookcase</osmand:amenity_subtype>
    <osmand:icon>public_bookcase</osmand:icon>
  </extensions>
</wpt>
<wpt lat="45.8649171" lon="5.1651767">
  <name>cite medievale</name>
  <desc>_</desc>
  <type>Delivrez bookcase Auvergne-Rhône-Alpes</type>
  <extensions>
    <osmand:codetype>BSB</osmand:codetype>
    <osmand:color>#00842b</osmand:color>
    <osmand:background>square</osmand:background>
    <osmand:amenity_subtype>public_bookcase</osmand:amenity_subtype>
    <osmand:icon>public_bookcase</osmand:icon>
  </extensions>
</wpt>
<wpt lat="45.4993783" lon="4.9802404">
  <name>Rue du Pressoir</name>
  <desc>boîte orange</desc>
  <type>Delivrez bookcase Auvergne-Rhône-Alpes</type>
  <extensions>
    <osmand:codetype>BSB</osmand:codetype>
    <osmand:color>#00842b</osmand:color>
    <osmand:background>square</osmand:background>
    <osmand:amenity_subtype>public_bookcase</osmand:amenity_subtype>
    <osmand:icon>public_bookcase</osmand:icon>
  </extensions>
</wpt>
<wpt lat="45.4444038" lon="4.7930291">
  <name>Rue du Village</name>
  <desc>Dans le mur à gauche du monument aux morts, devant l'église.</desc>
  <type>Delivrez bookcase Auvergne-Rhône-Alpes</type>
  <extensions>
    <osmand:codetype>BSB</osmand:codetype>
    <osmand:color>#00842b</osmand:color>
    <osmand:background>square</osmand:background>
    <osmand:amenity_subtype>public_bookcase</osmand:amenity_subtype>
    <osmand:icon>public_bookcase</osmand:icon>
  </extensions>
</wpt>
<wpt lat="45.3727339" lon="4.8115634">
  <name>Rue Grande</name>
  <desc>Dans un ancien frigo, devant le Proxi</desc>
  <type>Delivrez bookcase Auvergne-Rhône-Alpes</type>
  <extensions>
    <osmand:codetype>BSB</osmand:codetype>
    <osmand:color>#00842b</osmand:color>
    <osmand:background>square</osmand:background>
    <osmand:amenity_subtype>public_bookcase</osmand:amenity_subtype>
    <osmand:icon>public_bookcase</osmand:icon>
  </extensions>
</wpt>
<wpt lat="44.3926748" lon="4.752412">
  <name>Rue Marquis de la Baume</name>
  <desc>à côté de l'Église. sur une petite place avec des bancs.</desc>
  <type>Delivrez bookcase Auvergne-Rhône-Alpes</type>
  <extensions>
    <osmand:codetype>BSB</osmand:codetype>
    <osmand:color>#00842b</osmand:color>
    <osmand:background>square</osmand:background>
    <osmand:amenity_subtype>public_bookcase</osmand:amenity_subtype>
    <osmand:icon>public_bookcase</osmand:icon>
  </extensions>
</wpt>
<wpt lat="46.0835581" lon="6.7271458">
  <name>Place du Gros Tilleul</name>
  <desc>a côté de la mairie contre le mur de l eglise</desc>
  <type>Delivrez bookcase Auvergne-Rhône-Alpes</type>
  <extensions>
    <osmand:codetype>BSB</osmand:codetype>
    <osmand:color>#00842b</osmand:color>
    <osmand:background>square</osmand:background>
    <osmand:amenity_subtype>public_bookcase</osmand:amenity_subtype>
    <osmand:icon>public_bookcase</osmand:icon>
  </extensions>
</wpt>
<wpt lat="46.0840389" lon="6.7237673">
  <name>angle Grande Rue rue des glaciers</name>
  <desc>dans le square@@__</desc>
  <type>Delivrez bookcase Auvergne-Rhône-Alpes</type>
  <extensions>
    <osmand:codetype>BSB</osmand:codetype>
    <osmand:color>#00842b</osmand:color>
    <osmand:background>square</osmand:background>
    <osmand:amenity_subtype>public_bookcase</osmand:amenity_subtype>
    <osmand:icon>public_bookcase</osmand:icon>
  </extensions>
</wpt>
<wpt lat="45.833849" lon="4.9108952">
  <name>Boite a livres de l'école de Vancia</name>
  <desc>dans le square à côté de l'école</desc>
  <type>Delivrez bookcase Auvergne-Rhône-Alpes</type>
  <extensions>
    <osmand:codetype>BSB</osmand:codetype>
    <osmand:color>#00842b</osmand:color>
    <osmand:background>square</osmand:background>
    <osmand:amenity_subtype>public_bookcase</osmand:amenity_subtype>
    <osmand:icon>public_bookcase</osmand:icon>
  </extensions>
</wpt>
<wpt lat="45.8143904" lon="4.9041345">
  <name>Boite à livres de la Velette</name>
  <desc>juste devant l'entrée du centre social de la Velette à Rillieux</desc>
  <type>Delivrez bookcase Auvergne-Rhône-Alpes</type>
  <extensions>
    <osmand:codetype>BSB</osmand:codetype>
    <osmand:color>#00842b</osmand:color>
    <osmand:background>square</osmand:background>
    <osmand:amenity_subtype>public_bookcase</osmand:amenity_subtype>
    <osmand:icon>public_bookcase</osmand:icon>
  </extensions>
</wpt>
<wpt lat="45.8218602" lon="4.8973514">
  <name>Parc Brosset</name>
  <desc>_</desc>
  <type>Delivrez bookcase Auvergne-Rhône-Alpes</type>
  <extensions>
    <osmand:codetype>BSB</osmand:codetype>
    <osmand:color>#00842b</osmand:color>
    <osmand:background>square</osmand:background>
    <osmand:amenity_subtype>public_bookcase</osmand:amenity_subtype>
    <osmand:icon>public_bookcase</osmand:icon>
  </extensions>
</wpt>
<wpt lat="46.1056688" lon="4.7793375">
  <name>Rue du Centre</name>
  <desc>boite à livres</desc>
  <type>Delivrez bookcase Auvergne-Rhône-Alpes</type>
  <extensions>
    <osmand:codetype>BSB</osmand:codetype>
    <osmand:color>#00842b</osmand:color>
    <osmand:background>square</osmand:background>
    <osmand:amenity_subtype>public_bookcase</osmand:amenity_subtype>
    <osmand:icon>public_bookcase</osmand:icon>
  </extensions>
</wpt>
<wpt lat="46.6548893" lon="3.6129966">
  <name>Le Bourg</name>
  <desc>_</desc>
  <type>Delivrez bookcase Auvergne-Rhône-Alpes</type>
  <extensions>
    <osmand:codetype>BSB</osmand:codetype>
    <osmand:color>#00842b</osmand:color>
    <osmand:background>square</osmand:background>
    <osmand:amenity_subtype>public_bookcase</osmand:amenity_subtype>
    <osmand:icon>public_bookcase</osmand:icon>
  </extensions>
</wpt>
<wpt lat="44.489682" lon="4.7201274">
  <name>Lotissement le Verger</name>
  <desc>Dans le magasin super U à droite en rentrant</desc>
  <type>Delivrez bookcase Auvergne-Rhône-Alpes</type>
  <extensions>
    <osmand:codetype>BSB</osmand:codetype>
    <osmand:color>#00842b</osmand:color>
    <osmand:background>square</osmand:background>
    <osmand:amenity_subtype>public_bookcase</osmand:amenity_subtype>
    <osmand:icon>public_bookcase</osmand:icon>
  </extensions>
</wpt>
<wpt lat="45.7749365" lon="4.8582551">
  <name>Boite à livres Parc de la Tête d'Or</name>
  <desc>Taillée dans un tronc d'arbre, avec un toit</desc>
  <type>Delivrez bookcase Auvergne-Rhône-Alpes</type>
  <extensions>
    <osmand:codetype>BSB</osmand:codetype>
    <osmand:color>#00842b</osmand:color>
    <osmand:background>square</osmand:background>
    <osmand:amenity_subtype>public_bookcase</osmand:amenity_subtype>
    <osmand:icon>public_bookcase</osmand:icon>
  </extensions>
</wpt>
<wpt lat="44.3313887" lon="4.7905625">
  <name>Le Village</name>
  <desc>immense étagère à livres à côté de la boulangerie... avec de belles trouvailles ce jour.</desc>
  <type>Delivrez bookcase Auvergne-Rhône-Alpes</type>
  <extensions>
    <osmand:codetype>BSB</osmand:codetype>
    <osmand:color>#00842b</osmand:color>
    <osmand:background>square</osmand:background>
    <osmand:amenity_subtype>public_bookcase</osmand:amenity_subtype>
    <osmand:icon>public_bookcase</osmand:icon>
  </extensions>
</wpt>
<wpt lat="44.5183181" lon="4.8185303">
  <name>Chemin de Cézanne</name>
  <desc>_</desc>
  <type>Delivrez bookcase Auvergne-Rhône-Alpes</type>
  <extensions>
    <osmand:codetype>BSB</osmand:codetype>
    <osmand:color>#00842b</osmand:color>
    <osmand:background>square</osmand:background>
    <osmand:amenity_subtype>public_bookcase</osmand:amenity_subtype>
    <osmand:icon>public_bookcase</osmand:icon>
  </extensions>
</wpt>
<wpt lat="45.54557" lon="3.16156">
  <name>Anne Marie PERRON</name>
  <desc>Little Free Library</desc>
  <type>Delivrez bookcase Auvergne-Rhône-Alpes</type>
  <extensions>
    <osmand:codetype>BSB</osmand:codetype>
    <osmand:color>#00842b</osmand:color>
    <osmand:background>square</osmand:background>
    <osmand:amenity_subtype>public_bookcase</osmand:amenity_subtype>
    <osmand:icon>public_bookcase</osmand:icon>
  </extensions>
</wpt>
<wpt lat="44.83682" lon="4.89593">
  <name>VIVAL ETOILE SUR RHONE</name>
  <desc>Little Free Library</desc>
  <type>Delivrez bookcase Auvergne-Rhône-Alpes</type>
  <extensions>
    <osmand:codetype>BSB</osmand:codetype>
    <osmand:color>#00842b</osmand:color>
    <osmand:background>square</osmand:background>
    <osmand:amenity_subtype>public_bookcase</osmand:amenity_subtype>
    <osmand:icon>public_bookcase</osmand:icon>
  </extensions>
</wpt>
<wpt lat="45.61917" lon="6.74055">
  <name>VIVAL AUSSOIS</name>
  <desc>Little Free Library</desc>
  <type>Delivrez bookcase Auvergne-Rhône-Alpes</type>
  <extensions>
    <osmand:codetype>BSB</osmand:codetype>
    <osmand:color>#00842b</osmand:color>
    <osmand:background>square</osmand:background>
    <osmand:amenity_subtype>public_bookcase</osmand:amenity_subtype>
    <osmand:icon>public_bookcase</osmand:icon>
  </extensions>
</wpt>
<wpt lat="45.76726" lon="5.196">
  <name>VIVAL CHAVANOZ</name>
  <desc>Little Free Library</desc>
  <type>Delivrez bookcase Auvergne-Rhône-Alpes</type>
  <extensions>
    <osmand:codetype>BSB</osmand:codetype>
    <osmand:color>#00842b</osmand:color>
    <osmand:background>square</osmand:background>
    <osmand:amenity_subtype>public_bookcase</osmand:amenity_subtype>
    <osmand:icon>public_bookcase</osmand:icon>
  </extensions>
</wpt>
<wpt lat="44.48591" lon="5.38204">
  <name>VIVAL LA MOTTE CHALANCON</name>
  <desc>Little Free Library</desc>
  <type>Delivrez bookcase Auvergne-Rhône-Alpes</type>
  <extensions>
    <osmand:codetype>BSB</osmand:codetype>
    <osmand:color>#00842b</osmand:color>
    <osmand:background>square</osmand:background>
    <osmand:amenity_subtype>public_bookcase</osmand:amenity_subtype>
    <osmand:icon>public_bookcase</osmand:icon>
  </extensions>
</wpt>
<wpt lat="46.03132" lon="4.3113">
  <name>VIVAL THIZY</name>
  <desc>Little Free Library</desc>
  <type>Delivrez bookcase Auvergne-Rhône-Alpes</type>
  <extensions>
    <osmand:codetype>BSB</osmand:codetype>
    <osmand:color>#00842b</osmand:color>
    <osmand:background>square</osmand:background>
    <osmand:amenity_subtype>public_bookcase</osmand:amenity_subtype>
    <osmand:icon>public_bookcase</osmand:icon>
  </extensions>
</wpt>
<wpt lat="44.75888" lon="5.67583">
  <name>VIVAL LALLEY</name>
  <desc>Little Free Library</desc>
  <type>Delivrez bookcase Auvergne-Rhône-Alpes</type>
  <extensions>
    <osmand:codetype>BSB</osmand:codetype>
    <osmand:color>#00842b</osmand:color>
    <osmand:background>square</osmand:background>
    <osmand:amenity_subtype>public_bookcase</osmand:amenity_subtype>
    <osmand:icon>public_bookcase</osmand:icon>
  </extensions>
</wpt>
<wpt lat="44.6363" lon="4.2564">
  <name>VIVAL JAUJAC</name>
  <desc>Little Free Library</desc>
  <type>Delivrez bookcase Auvergne-Rhône-Alpes</type>
  <extensions>
    <osmand:codetype>BSB</osmand:codetype>
    <osmand:color>#00842b</osmand:color>
    <osmand:background>square</osmand:background>
    <osmand:amenity_subtype>public_bookcase</osmand:amenity_subtype>
    <osmand:icon>public_bookcase</osmand:icon>
  </extensions>
</wpt>
<wpt lat="45.62794" lon="4.93418">
  <name>VIVAL CHAPONNAY</name>
  <desc>Little Free Library</desc>
  <type>Delivrez bookcase Auvergne-Rhône-Alpes</type>
  <extensions>
    <osmand:codetype>BSB</osmand:codetype>
    <osmand:color>#00842b</osmand:color>
    <osmand:background>square</osmand:background>
    <osmand:amenity_subtype>public_bookcase</osmand:amenity_subtype>
    <osmand:icon>public_bookcase</osmand:icon>
  </extensions>
</wpt>
<wpt lat="46.00909" lon="6.16954">
  <name>VIVAL GROISY</name>
  <desc>Little Free Library</desc>
  <type>Delivrez bookcase Auvergne-Rhône-Alpes</type>
  <extensions>
    <osmand:codetype>BSB</osmand:codetype>
    <osmand:color>#00842b</osmand:color>
    <osmand:background>square</osmand:background>
    <osmand:amenity_subtype>public_bookcase</osmand:amenity_subtype>
    <osmand:icon>public_bookcase</osmand:icon>
  </extensions>
</wpt>
<wpt lat="45.94643" lon="6.03445">
  <name>VIVAL SILLINGY</name>
  <desc>Little Free Library</desc>
  <type>Delivrez bookcase Auvergne-Rhône-Alpes</type>
  <extensions>
    <osmand:codetype>BSB</osmand:codetype>
    <osmand:color>#00842b</osmand:color>
    <osmand:background>square</osmand:background>
    <osmand:amenity_subtype>public_bookcase</osmand:amenity_subtype>
    <osmand:icon>public_bookcase</osmand:icon>
  </extensions>
</wpt>
<wpt lat="46.19444" lon="5.81583">
  <name>VIVAL CHAMPFROMIER</name>
  <desc>Little Free Library</desc>
  <type>Delivrez bookcase Auvergne-Rhône-Alpes</type>
  <extensions>
    <osmand:codetype>BSB</osmand:codetype>
    <osmand:color>#00842b</osmand:color>
    <osmand:background>square</osmand:background>
    <osmand:amenity_subtype>public_bookcase</osmand:amenity_subtype>
    <osmand:icon>public_bookcase</osmand:icon>
  </extensions>
</wpt>
<wpt lat="45.83388" lon="5.09805">
  <name>VIVAL BALAN</name>
  <desc>Little Free Library</desc>
  <type>Delivrez bookcase Auvergne-Rhône-Alpes</type>
  <extensions>
    <osmand:codetype>BSB</osmand:codetype>
    <osmand:color>#00842b</osmand:color>
    <osmand:background>square</osmand:background>
    <osmand:amenity_subtype>public_bookcase</osmand:amenity_subtype>
    <osmand:icon>public_bookcase</osmand:icon>
  </extensions>
</wpt>
<wpt lat="44.91411" lon="2.36232">
  <name>VIVAL YTRAC</name>
  <desc>Little Free Library</desc>
  <type>Delivrez bookcase Auvergne-Rhône-Alpes</type>
  <extensions>
    <osmand:codetype>BSB</osmand:codetype>
    <osmand:color>#00842b</osmand:color>
    <osmand:background>square</osmand:background>
    <osmand:amenity_subtype>public_bookcase</osmand:amenity_subtype>
    <osmand:icon>public_bookcase</osmand:icon>
  </extensions>
</wpt>
<wpt lat="46.1500264" lon="3.4198664">
  <name>Rue des Grands Charmes</name>
  <desc>_</desc>
  <type>Delivrez bookcase Auvergne-Rhône-Alpes</type>
  <extensions>
    <osmand:codetype>BSB</osmand:codetype>
    <osmand:color>#00842b</osmand:color>
    <osmand:background>square</osmand:background>
    <osmand:amenity_subtype>public_bookcase</osmand:amenity_subtype>
    <osmand:icon>public_bookcase</osmand:icon>
  </extensions>
</wpt>
<wpt lat="46.1279388" lon="5.5399714">
  <name>Au Pont</name>
  <desc>devant le vival</desc>
  <type>Delivrez bookcase Auvergne-Rhône-Alpes</type>
  <extensions>
    <osmand:codetype>BSB</osmand:codetype>
    <osmand:color>#00842b</osmand:color>
    <osmand:background>square</osmand:background>
    <osmand:amenity_subtype>public_bookcase</osmand:amenity_subtype>
    <osmand:icon>public_bookcase</osmand:icon>
  </extensions>
</wpt>
<wpt lat="44.5578238" lon="4.7473677">
  <name>Avenue Charles de Gaulle</name>
  <desc>_</desc>
  <type>Delivrez bookcase Auvergne-Rhône-Alpes</type>
  <extensions>
    <osmand:codetype>BSB</osmand:codetype>
    <osmand:color>#00842b</osmand:color>
    <osmand:background>square</osmand:background>
    <osmand:amenity_subtype>public_bookcase</osmand:amenity_subtype>
    <osmand:icon>public_bookcase</osmand:icon>
  </extensions>
</wpt>
<wpt lat="46.2606225" lon="5.6581975">
  <name>Rue Anatole France</name>
  <desc>devant le musée de la grande vapeur</desc>
  <type>Delivrez bookcase Auvergne-Rhône-Alpes</type>
  <extensions>
    <osmand:codetype>BSB</osmand:codetype>
    <osmand:color>#00842b</osmand:color>
    <osmand:background>square</osmand:background>
    <osmand:amenity_subtype>public_bookcase</osmand:amenity_subtype>
    <osmand:icon>public_bookcase</osmand:icon>
  </extensions>
</wpt>
<wpt lat="46.1516781" lon="5.6073138">
  <name>Rue Paul Painlevé</name>
  <desc>en face du vival</desc>
  <type>Delivrez bookcase Auvergne-Rhône-Alpes</type>
  <extensions>
    <osmand:codetype>BSB</osmand:codetype>
    <osmand:color>#00842b</osmand:color>
    <osmand:background>square</osmand:background>
    <osmand:amenity_subtype>public_bookcase</osmand:amenity_subtype>
    <osmand:icon>public_bookcase</osmand:icon>
  </extensions>
</wpt>
<wpt lat="45.8985473" lon="4.7008615">
  <name>Rue de la Nation</name>
  <desc>vers l'arrêt de bus</desc>
  <type>Delivrez bookcase Auvergne-Rhône-Alpes</type>
  <extensions>
    <osmand:codetype>BSB</osmand:codetype>
    <osmand:color>#00842b</osmand:color>
    <osmand:background>square</osmand:background>
    <osmand:amenity_subtype>public_bookcase</osmand:amenity_subtype>
    <osmand:icon>public_bookcase</osmand:icon>
  </extensions>
</wpt>
<wpt lat="45.8737868" lon="4.7711542">
  <name>Rue du Grand Fossé</name>
  <desc>vers la Poste</desc>
  <type>Delivrez bookcase Auvergne-Rhône-Alpes</type>
  <extensions>
    <osmand:codetype>BSB</osmand:codetype>
    <osmand:color>#00842b</osmand:color>
    <osmand:background>square</osmand:background>
    <osmand:amenity_subtype>public_bookcase</osmand:amenity_subtype>
    <osmand:icon>public_bookcase</osmand:icon>
  </extensions>
</wpt>
<wpt lat="46.1450648" lon="4.1136318">
  <name>place de la mairie</name>
  <desc>_</desc>
  <type>Delivrez bookcase Auvergne-Rhône-Alpes</type>
  <extensions>
    <osmand:codetype>BSB</osmand:codetype>
    <osmand:color>#00842b</osmand:color>
    <osmand:background>square</osmand:background>
    <osmand:amenity_subtype>public_bookcase</osmand:amenity_subtype>
    <osmand:icon>public_bookcase</osmand:icon>
  </extensions>
</wpt>
<wpt lat="45.3208527" lon="5.2299247">
  <name>542 Route du Tramway</name>
  <desc>Un grand congélateur à tiroirs devant la mairie</desc>
  <type>Delivrez bookcase Auvergne-Rhône-Alpes</type>
  <extensions>
    <osmand:codetype>BSB</osmand:codetype>
    <osmand:color>#00842b</osmand:color>
    <osmand:background>square</osmand:background>
    <osmand:amenity_subtype>public_bookcase</osmand:amenity_subtype>
    <osmand:icon>public_bookcase</osmand:icon>
  </extensions>
</wpt>
<wpt lat="44.3554694" lon="5.1269242">
  <name>2 rue des Voconces</name>
  <desc>Devant la Pharmacie des Antignans</desc>
  <type>Delivrez bookcase Auvergne-Rhône-Alpes</type>
  <extensions>
    <osmand:codetype>BSB</osmand:codetype>
    <osmand:color>#00842b</osmand:color>
    <osmand:background>square</osmand:background>
    <osmand:amenity_subtype>public_bookcase</osmand:amenity_subtype>
    <osmand:icon>public_bookcase</osmand:icon>
  </extensions>
</wpt>
<wpt lat="46.5613425" lon="3.3388414">
  <name>Parc devant gare SNCF</name>
  <desc></desc>
  <type>Delivrez bookcase Auvergne-Rhône-Alpes</type>
  <extensions>
    <osmand:codetype>BSB</osmand:codetype>
    <osmand:color>#00842b</osmand:color>
    <osmand:background>square</osmand:background>
    <osmand:amenity_subtype>public_bookcase</osmand:amenity_subtype>
    <osmand:icon>public_bookcase</osmand:icon>
  </extensions>
</wpt>
<wpt lat="45.339115" lon="5.343913">
  <name>Rue des halles</name>
  <desc>Sous les halles, dans le centre du village</desc>
  <type>Delivrez bookcase Auvergne-Rhône-Alpes</type>
  <extensions>
    <osmand:codetype>BSB</osmand:codetype>
    <osmand:color>#00842b</osmand:color>
    <osmand:background>square</osmand:background>
    <osmand:amenity_subtype>public_bookcase</osmand:amenity_subtype>
    <osmand:icon>public_bookcase</osmand:icon>
  </extensions>
</wpt>
<wpt lat="45.175068" lon="5.217543">
  <name>place du marché</name>
  <desc>dans une armoire peinte, sous la halle</desc>
  <type>Delivrez bookcase Auvergne-Rhône-Alpes</type>
  <extensions>
    <osmand:codetype>BSB</osmand:codetype>
    <osmand:color>#00842b</osmand:color>
    <osmand:background>square</osmand:background>
    <osmand:amenity_subtype>public_bookcase</osmand:amenity_subtype>
    <osmand:icon>public_bookcase</osmand:icon>
  </extensions>
</wpt>
<wpt lat="46.238655832551558" lon="3.15183699131012">
  <name>Mairie</name>
  <desc>Située devant la mairie</desc>
  <type>Delivrez bookcase Auvergne-Rhône-Alpes</type>
  <extensions>
    <osmand:codetype>BSB</osmand:codetype>
    <osmand:color>#00842b</osmand:color>
    <osmand:background>square</osmand:background>
    <osmand:amenity_subtype>public_bookcase</osmand:amenity_subtype>
    <osmand:icon>public_bookcase</osmand:icon>
  </extensions>
</wpt>
<wpt lat="45.2822916" lon="4.7619064">
  <name>21 Route de Charbieux D267</name>
  <desc>Dans la maison en béton au milieu du rond point.Grande boîte à lire !</desc>
  <type>Delivrez bookcase Auvergne-Rhône-Alpes</type>
  <extensions>
    <osmand:codetype>BSB</osmand:codetype>
    <osmand:color>#00842b</osmand:color>
    <osmand:background>square</osmand:background>
    <osmand:amenity_subtype>public_bookcase</osmand:amenity_subtype>
    <osmand:icon>public_bookcase</osmand:icon>
  </extensions>
</wpt>
<wpt lat="45.3651054" lon="4.8048868">
  <name>Avenue Jean Jaurès, centre social</name>
  <desc>Grande boîte, avec un grand choix. Elle se trouve devant le centre social</desc>
  <type>Delivrez bookcase Auvergne-Rhône-Alpes</type>
  <extensions>
    <osmand:codetype>BSB</osmand:codetype>
    <osmand:color>#00842b</osmand:color>
    <osmand:background>square</osmand:background>
    <osmand:amenity_subtype>public_bookcase</osmand:amenity_subtype>
    <osmand:icon>public_bookcase</osmand:icon>
  </extensions>
</wpt>
<wpt lat="45.648499" lon="5.858316">
  <name>Rue des écoles</name>
  <desc>Juste en face de l'école</desc>
  <type>Delivrez bookcase Auvergne-Rhône-Alpes</type>
  <extensions>
    <osmand:codetype>BSB</osmand:codetype>
    <osmand:color>#00842b</osmand:color>
    <osmand:background>square</osmand:background>
    <osmand:amenity_subtype>public_bookcase</osmand:amenity_subtype>
    <osmand:icon>public_bookcase</osmand:icon>
  </extensions>
</wpt>
<wpt lat="45.312872605039779" lon="4.778940081596375">
  <name>Arbre de la liberté / 8 mai 1945, rue Molly Sabata</name>
  <desc>Boîte plutôt moyenne, d'environ 50 livres. A droite du portail d'entrée</desc>
  <type>Delivrez bookcase Auvergne-Rhône-Alpes</type>
  <extensions>
    <osmand:codetype>BSB</osmand:codetype>
    <osmand:color>#00842b</osmand:color>
    <osmand:background>square</osmand:background>
    <osmand:amenity_subtype>public_bookcase</osmand:amenity_subtype>
    <osmand:icon>public_bookcase</osmand:icon>
  </extensions>
</wpt>
<wpt lat="45.9195492" lon="3.0729256">
  <name>office de tourisme</name>
  <desc></desc>
  <type>Delivrez bookcase Auvergne-Rhône-Alpes</type>
  <extensions>
    <osmand:codetype>BSB</osmand:codetype>
    <osmand:color>#00842b</osmand:color>
    <osmand:background>square</osmand:background>
    <osmand:amenity_subtype>public_bookcase</osmand:amenity_subtype>
    <osmand:icon>public_bookcase</osmand:icon>
  </extensions>
</wpt>
<wpt lat="45.934102215299639" lon="3.091519474983216">
  <name>place Guillaume Douarre</name>
  <desc>Dans le parc de la mairie</desc>
  <type>Delivrez bookcase Auvergne-Rhône-Alpes</type>
  <extensions>
    <osmand:codetype>BSB</osmand:codetype>
    <osmand:color>#00842b</osmand:color>
    <osmand:background>square</osmand:background>
    <osmand:amenity_subtype>public_bookcase</osmand:amenity_subtype>
    <osmand:icon>public_bookcase</osmand:icon>
  </extensions>
</wpt>
<wpt lat="45.747701" lon="4.2824065">
  <name>Site Médiéval</name>
  <desc>Sur le parking du se Site Médiéval de Donzy  à 1</desc>
  <type>Delivrez bookcase Auvergne-Rhône-Alpes</type>
  <extensions>
    <osmand:codetype>BSB</osmand:codetype>
    <osmand:color>#00842b</osmand:color>
    <osmand:background>square</osmand:background>
    <osmand:amenity_subtype>public_bookcase</osmand:amenity_subtype>
    <osmand:icon>public_bookcase</osmand:icon>
  </extensions>
</wpt>
<wpt lat="45.4547979" lon="6.692988">
  <name>Place de la mairie</name>
  <desc>A côté de la mairie.</desc>
  <type>Delivrez bookcase Auvergne-Rhône-Alpes</type>
  <extensions>
    <osmand:codetype>BSB</osmand:codetype>
    <osmand:color>#00842b</osmand:color>
    <osmand:background>square</osmand:background>
    <osmand:amenity_subtype>public_bookcase</osmand:amenity_subtype>
    <osmand:icon>public_bookcase</osmand:icon>
  </extensions>
</wpt>
<wpt lat="45.2395437" lon="5.6636431">
  <name>Centre commercial Carrefour, 1 rue des abattoirs</name>
  <desc>Dans la partie droite de la galerie marchande, en face du magasin Etam</desc>
  <type>Delivrez bookcase Auvergne-Rhône-Alpes</type>
  <extensions>
    <osmand:codetype>BSB</osmand:codetype>
    <osmand:color>#00842b</osmand:color>
    <osmand:background>square</osmand:background>
    <osmand:amenity_subtype>public_bookcase</osmand:amenity_subtype>
    <osmand:icon>public_bookcase</osmand:icon>
  </extensions>
</wpt>
<wpt lat="45.9699617" lon="3.2573985">
  <name>Place de l Église</name>
  <desc>Boite à livres gérée par la bibliothèque de Thuret. Dans le jardin de la mairie, dans un frigo.</desc>
  <type>Delivrez bookcase Auvergne-Rhône-Alpes</type>
  <extensions>
    <osmand:codetype>BSB</osmand:codetype>
    <osmand:color>#00842b</osmand:color>
    <osmand:background>square</osmand:background>
    <osmand:amenity_subtype>public_bookcase</osmand:amenity_subtype>
    <osmand:icon>public_bookcase</osmand:icon>
  </extensions>
</wpt>
<wpt lat="45.2197255" lon="2.3363965">
  <name>Avenue de Clermont</name>
  <desc>Boîte à lire fixée sur le mur à l'angle de la rue des Roses et l'avenue de Clermont</desc>
  <type>Delivrez bookcase Auvergne-Rhône-Alpes</type>
  <extensions>
    <osmand:codetype>BSB</osmand:codetype>
    <osmand:color>#00842b</osmand:color>
    <osmand:background>square</osmand:background>
    <osmand:amenity_subtype>public_bookcase</osmand:amenity_subtype>
    <osmand:icon>public_bookcase</osmand:icon>
  </extensions>
</wpt>
<wpt lat="45.585538599133201" lon="3.091900348663331">
  <name>25 route des moulins</name>
  <desc>Dans la cabine téléphonique et l'abris de bus</desc>
  <type>Delivrez bookcase Auvergne-Rhône-Alpes</type>
  <extensions>
    <osmand:codetype>BSB</osmand:codetype>
    <osmand:color>#00842b</osmand:color>
    <osmand:background>square</osmand:background>
    <osmand:amenity_subtype>public_bookcase</osmand:amenity_subtype>
    <osmand:icon>public_bookcase</osmand:icon>
  </extensions>
</wpt>
<wpt lat="46.152894" lon="3.064905">
  <name>Route de Lalizolles</name>
  <desc></desc>
  <type>Delivrez bookcase Auvergne-Rhône-Alpes</type>
  <extensions>
    <osmand:codetype>BSB</osmand:codetype>
    <osmand:color>#00842b</osmand:color>
    <osmand:background>square</osmand:background>
    <osmand:amenity_subtype>public_bookcase</osmand:amenity_subtype>
    <osmand:icon>public_bookcase</osmand:icon>
  </extensions>
</wpt>
<wpt lat="44.8798423" lon="2.3849855">
  <name>Ecole du Bex d Ytrac</name>
  <desc>Elle se trouve entre l école et l'église, pleine à craquer, elle n'attend que de nouveaux adeptes. Un banc est mis à disposition mais vous pouvez également vous installez dans l'herbe ou sur les bancs derrière l'église.</desc>
  <type>Delivrez bookcase Auvergne-Rhône-Alpes</type>
  <extensions>
    <osmand:codetype>BSB</osmand:codetype>
    <osmand:color>#00842b</osmand:color>
    <osmand:background>square</osmand:background>
    <osmand:amenity_subtype>public_bookcase</osmand:amenity_subtype>
    <osmand:icon>public_bookcase</osmand:icon>
  </extensions>
</wpt>
<wpt lat="44.854054" lon="2.456862">
  <name>Senilhes</name>
  <desc>Contre la salle polyvalente, à côté des casiers à pain.Cette petite boîte à livre rouge a fait son apparition il y a quelques semaines.</desc>
  <type>Delivrez bookcase Auvergne-Rhône-Alpes</type>
  <extensions>
    <osmand:codetype>BSB</osmand:codetype>
    <osmand:color>#00842b</osmand:color>
    <osmand:background>square</osmand:background>
    <osmand:amenity_subtype>public_bookcase</osmand:amenity_subtype>
    <osmand:icon>public_bookcase</osmand:icon>
  </extensions>
</wpt>
<wpt lat="45.172681" lon="2.970616">
  <name>Le Bourg</name>
  <desc>Au coeur du village,  des livres confortablement installés dans une ancienne cabine téléphonique vous attendent.</desc>
  <type>Delivrez bookcase Auvergne-Rhône-Alpes</type>
  <extensions>
    <osmand:codetype>BSB</osmand:codetype>
    <osmand:color>#00842b</osmand:color>
    <osmand:background>square</osmand:background>
    <osmand:amenity_subtype>public_bookcase</osmand:amenity_subtype>
    <osmand:icon>public_bookcase</osmand:icon>
  </extensions>
</wpt>
<wpt lat="45.759565" lon="4.778859">
  <name>Avenue de Lauterbourg</name>
  <desc>Située dans l&quot;entrée de la MJC Foyer 3ème âge</desc>
  <type>Delivrez bookcase Auvergne-Rhône-Alpes</type>
  <extensions>
    <osmand:codetype>BSB</osmand:codetype>
    <osmand:color>#00842b</osmand:color>
    <osmand:background>square</osmand:background>
    <osmand:amenity_subtype>public_bookcase</osmand:amenity_subtype>
    <osmand:icon>public_bookcase</osmand:icon>
  </extensions>
</wpt>
<wpt lat="45.2006221" lon="5.7512687">
  <name>Parc Doyen Gosse, face au 9 rue du Vercors</name>
  <desc>la boite est en forme de pot à fleurs rouge renversé et suspendue à un mètre au-dessus du sol. Des étagères sont disposées à l intérieur. Il faut de baisser pour entrer.</desc>
  <type>Delivrez bookcase Auvergne-Rhône-Alpes</type>
  <extensions>
    <osmand:codetype>BSB</osmand:codetype>
    <osmand:color>#00842b</osmand:color>
    <osmand:background>square</osmand:background>
    <osmand:amenity_subtype>public_bookcase</osmand:amenity_subtype>
    <osmand:icon>public_bookcase</osmand:icon>
  </extensions>
</wpt>
<wpt lat="45.7860634" lon="4.8325513">
  <name>1 place Jules Ferry</name>
  <desc></desc>
  <type>Delivrez bookcase Auvergne-Rhône-Alpes</type>
  <extensions>
    <osmand:codetype>BSB</osmand:codetype>
    <osmand:color>#00842b</osmand:color>
    <osmand:background>square</osmand:background>
    <osmand:amenity_subtype>public_bookcase</osmand:amenity_subtype>
    <osmand:icon>public_bookcase</osmand:icon>
  </extensions>
</wpt>
<wpt lat="44.656363" lon="4.366821">
  <name>3 Avenue Claude Expilly</name>
  <desc>à l'entrée du parc côté casino sur la droite, juste avant le premier pont</desc>
  <type>Delivrez bookcase Auvergne-Rhône-Alpes</type>
  <extensions>
    <osmand:codetype>BSB</osmand:codetype>
    <osmand:color>#00842b</osmand:color>
    <osmand:background>square</osmand:background>
    <osmand:amenity_subtype>public_bookcase</osmand:amenity_subtype>
    <osmand:icon>public_bookcase</osmand:icon>
  </extensions>
</wpt>
<wpt lat="45.6857345" lon="6.1365957">
  <name>Place René Cassin</name>
  <desc>Boîte à lire dans ancienne cabine téléphonique devant la poste</desc>
  <type>Delivrez bookcase Auvergne-Rhône-Alpes</type>
  <extensions>
    <osmand:codetype>BSB</osmand:codetype>
    <osmand:color>#00842b</osmand:color>
    <osmand:background>square</osmand:background>
    <osmand:amenity_subtype>public_bookcase</osmand:amenity_subtype>
    <osmand:icon>public_bookcase</osmand:icon>
  </extensions>
</wpt>
<wpt lat="45.511338" lon="5.328674">
  <name>rue du Centre</name>
  <desc>Ancienne cabine téléphonique située en centre ville, entre le stade municipal et la mairie</desc>
  <type>Delivrez bookcase Auvergne-Rhône-Alpes</type>
  <extensions>
    <osmand:codetype>BSB</osmand:codetype>
    <osmand:color>#00842b</osmand:color>
    <osmand:background>square</osmand:background>
    <osmand:amenity_subtype>public_bookcase</osmand:amenity_subtype>
    <osmand:icon>public_bookcase</osmand:icon>
  </extensions>
</wpt>
<wpt lat="46.044589" lon="4.421653">
  <name>Meaux la montagne</name>
  <desc>à coté de l église ,elle est toute neuve, et se trouve devant un petit restaurant</desc>
  <type>Delivrez bookcase Auvergne-Rhône-Alpes</type>
  <extensions>
    <osmand:codetype>BSB</osmand:codetype>
    <osmand:color>#00842b</osmand:color>
    <osmand:background>square</osmand:background>
    <osmand:amenity_subtype>public_bookcase</osmand:amenity_subtype>
    <osmand:icon>public_bookcase</osmand:icon>
  </extensions>
</wpt>
<wpt lat="45.7602682" lon="4.8330347">
  <name>Rue Jean Fabre</name>
  <desc>La boite à livre se trouve juste à côté du jardin d'enfant. Elle est tournée vers la place des Jacobins</desc>
  <type>Delivrez bookcase Auvergne-Rhône-Alpes</type>
  <extensions>
    <osmand:codetype>BSB</osmand:codetype>
    <osmand:color>#00842b</osmand:color>
    <osmand:background>square</osmand:background>
    <osmand:amenity_subtype>public_bookcase</osmand:amenity_subtype>
    <osmand:icon>public_bookcase</osmand:icon>
  </extensions>
</wpt>
<wpt lat="45.1918314" lon="5.6882809">
  <name>89 Mail Marcel Cachin</name>
  <desc>Dans le hall de la mairie. Dans un frigo. Accessible les jours d'ouverture de la mairie</desc>
  <type>Delivrez bookcase Auvergne-Rhône-Alpes</type>
  <extensions>
    <osmand:codetype>BSB</osmand:codetype>
    <osmand:color>#00842b</osmand:color>
    <osmand:background>square</osmand:background>
    <osmand:amenity_subtype>public_bookcase</osmand:amenity_subtype>
    <osmand:icon>public_bookcase</osmand:icon>
  </extensions>
</wpt>
<wpt lat="45.1690129" lon="5.6805865">
  <name>31 avenue Hector Berlioz</name>
  <desc>Face à l'école de Seyssinet village. une ancienne cabine téléphonique</desc>
  <type>Delivrez bookcase Auvergne-Rhône-Alpes</type>
  <extensions>
    <osmand:codetype>BSB</osmand:codetype>
    <osmand:color>#00842b</osmand:color>
    <osmand:background>square</osmand:background>
    <osmand:amenity_subtype>public_bookcase</osmand:amenity_subtype>
    <osmand:icon>public_bookcase</osmand:icon>
  </extensions>
</wpt>