<?xml version="1.0"?>
<gpx version="1.1" creator="GDAL 3.4.3" xmlns:xsi="http://www.w3.org/2001/XMLSchema-instance" xmlns:osmand="https://osmand.net" xmlns="http://www.topografix.com/GPX/1/1" xsi:schemaLocation="http://www.topografix.com/GPX/1/1 http://www.topografix.com/GPX/1/1/gpx.xsd">
<metadata><bounds minlat="46.213796000000002" minlon="2.901637000000000" maxlat="48.323041500000002" maxlon="7.015270900000000"/></metadata>                    
<wpt lat="46.9793427" lon="5.6017448">
  <name>Rue Jean Bavilley</name>
  <desc>sous l'abri de la mairie</desc>
  <type>Delivrez bookcase Bourgogne-Franche-Comté</type>
  <extensions>
    <osmand:codetype>BSB</osmand:codetype>
    <osmand:color>#00842b</osmand:color>
    <osmand:background>square</osmand:background>
    <osmand:amenity_subtype>public_bookcase</osmand:amenity_subtype>
    <osmand:icon>public_bookcase</osmand:icon>
  </extensions>
</wpt>
<wpt lat="46.8234053" lon="5.5858557">
  <name>Route de Sellières</name>
  <desc>sous le lavoir</desc>
  <type>Delivrez bookcase Bourgogne-Franche-Comté</type>
  <extensions>
    <osmand:codetype>BSB</osmand:codetype>
    <osmand:color>#00842b</osmand:color>
    <osmand:background>square</osmand:background>
    <osmand:amenity_subtype>public_bookcase</osmand:amenity_subtype>
    <osmand:icon>public_bookcase</osmand:icon>
  </extensions>
</wpt>
<wpt lat="46.4562629" lon="5.3552602">
  <name>Route de Saint-Amour</name>
  <desc>dans le porche de la mairie</desc>
  <type>Delivrez bookcase Bourgogne-Franche-Comté</type>
  <extensions>
    <osmand:codetype>BSB</osmand:codetype>
    <osmand:color>#00842b</osmand:color>
    <osmand:background>square</osmand:background>
    <osmand:amenity_subtype>public_bookcase</osmand:amenity_subtype>
    <osmand:icon>public_bookcase</osmand:icon>
  </extensions>
</wpt>
<wpt lat="46.7258429" lon="5.9172109">
  <name>Avenue Etienne Lamy</name>
  <desc>sous le lavoir</desc>
  <type>Delivrez bookcase Bourgogne-Franche-Comté</type>
  <extensions>
    <osmand:codetype>BSB</osmand:codetype>
    <osmand:color>#00842b</osmand:color>
    <osmand:background>square</osmand:background>
    <osmand:amenity_subtype>public_bookcase</osmand:amenity_subtype>
    <osmand:icon>public_bookcase</osmand:icon>
  </extensions>
</wpt>
<wpt lat="46.4510242" lon="5.4609421">
  <name>Le Chapître</name>
  <desc>dans la cour d'école derrière la mairie.</desc>
  <type>Delivrez bookcase Bourgogne-Franche-Comté</type>
  <extensions>
    <osmand:codetype>BSB</osmand:codetype>
    <osmand:color>#00842b</osmand:color>
    <osmand:background>square</osmand:background>
    <osmand:amenity_subtype>public_bookcase</osmand:amenity_subtype>
    <osmand:icon>public_bookcase</osmand:icon>
  </extensions>
</wpt>
<wpt lat="46.4845687" lon="5.4625917">
  <name>Rue du four LOISIA</name>
  <desc>superbe local de l'ancien four aménagé</desc>
  <type>Delivrez bookcase Bourgogne-Franche-Comté</type>
  <extensions>
    <osmand:codetype>BSB</osmand:codetype>
    <osmand:color>#00842b</osmand:color>
    <osmand:background>square</osmand:background>
    <osmand:amenity_subtype>public_bookcase</osmand:amenity_subtype>
    <osmand:icon>public_bookcase</osmand:icon>
  </extensions>
</wpt>
<wpt lat="46.6038254" lon="5.5143235">
  <name>Rue du Bourg</name>
  <desc>initiative du gîte,  petite boîte deviendra grande !</desc>
  <type>Delivrez bookcase Bourgogne-Franche-Comté</type>
  <extensions>
    <osmand:codetype>BSB</osmand:codetype>
    <osmand:color>#00842b</osmand:color>
    <osmand:background>square</osmand:background>
    <osmand:amenity_subtype>public_bookcase</osmand:amenity_subtype>
    <osmand:icon>public_bookcase</osmand:icon>
  </extensions>
</wpt>
<wpt lat="46.3810357" lon="5.4158087">
  <name>Route de Villechantria</name>
  <desc>sous l'abri bus</desc>
  <type>Delivrez bookcase Bourgogne-Franche-Comté</type>
  <extensions>
    <osmand:codetype>BSB</osmand:codetype>
    <osmand:color>#00842b</osmand:color>
    <osmand:background>square</osmand:background>
    <osmand:amenity_subtype>public_bookcase</osmand:amenity_subtype>
    <osmand:icon>public_bookcase</osmand:icon>
  </extensions>
</wpt>
<wpt lat="46.3856511" lon="5.4047152">
  <name>Rue des Vignes</name>
  <desc>sous un petit hall</desc>
  <type>Delivrez bookcase Bourgogne-Franche-Comté</type>
  <extensions>
    <osmand:codetype>BSB</osmand:codetype>
    <osmand:color>#00842b</osmand:color>
    <osmand:background>square</osmand:background>
    <osmand:amenity_subtype>public_bookcase</osmand:amenity_subtype>
    <osmand:icon>public_bookcase</osmand:icon>
  </extensions>
</wpt>
<wpt lat="46.3833128" lon="5.3990673">
  <name>Rue de l'Église</name>
  <desc>sous abri en bord de route</desc>
  <type>Delivrez bookcase Bourgogne-Franche-Comté</type>
  <extensions>
    <osmand:codetype>BSB</osmand:codetype>
    <osmand:color>#00842b</osmand:color>
    <osmand:background>square</osmand:background>
    <osmand:amenity_subtype>public_bookcase</osmand:amenity_subtype>
    <osmand:icon>public_bookcase</osmand:icon>
  </extensions>
</wpt>
<wpt lat="46.5162874" lon="5.3927337">
  <name>Route de Chevreaux à Digna</name>
  <desc>sous abri bus devant la mairie</desc>
  <type>Delivrez bookcase Bourgogne-Franche-Comté</type>
  <extensions>
    <osmand:codetype>BSB</osmand:codetype>
    <osmand:color>#00842b</osmand:color>
    <osmand:background>square</osmand:background>
    <osmand:amenity_subtype>public_bookcase</osmand:amenity_subtype>
    <osmand:icon>public_bookcase</osmand:icon>
  </extensions>
</wpt>
<wpt lat="46.531363" lon="5.3910644">
  <name>Grande Rue</name>
  <desc>dans le hall de la poste</desc>
  <type>Delivrez bookcase Bourgogne-Franche-Comté</type>
  <extensions>
    <osmand:codetype>BSB</osmand:codetype>
    <osmand:color>#00842b</osmand:color>
    <osmand:background>square</osmand:background>
    <osmand:amenity_subtype>public_bookcase</osmand:amenity_subtype>
    <osmand:icon>public_bookcase</osmand:icon>
  </extensions>
</wpt>
<wpt lat="46.7078523" lon="5.8807253">
  <name>Rue de la Confrérie</name>
  <desc>dans l'ancien poids public</desc>
  <type>Delivrez bookcase Bourgogne-Franche-Comté</type>
  <extensions>
    <osmand:codetype>BSB</osmand:codetype>
    <osmand:color>#00842b</osmand:color>
    <osmand:background>square</osmand:background>
    <osmand:amenity_subtype>public_bookcase</osmand:amenity_subtype>
    <osmand:icon>public_bookcase</osmand:icon>
  </extensions>
</wpt>
<wpt lat="46.5582837" lon="6.065681">
  <name>Route des Fontaines</name>
  <desc>sous abri bus</desc>
  <type>Delivrez bookcase Bourgogne-Franche-Comté</type>
  <extensions>
    <osmand:codetype>BSB</osmand:codetype>
    <osmand:color>#00842b</osmand:color>
    <osmand:background>square</osmand:background>
    <osmand:amenity_subtype>public_bookcase</osmand:amenity_subtype>
    <osmand:icon>public_bookcase</osmand:icon>
  </extensions>
</wpt>
<wpt lat="46.5296106" lon="6.0240176">
  <name>Chemin du Jura</name>
  <desc>sur le grand square</desc>
  <type>Delivrez bookcase Bourgogne-Franche-Comté</type>
  <extensions>
    <osmand:codetype>BSB</osmand:codetype>
    <osmand:color>#00842b</osmand:color>
    <osmand:background>square</osmand:background>
    <osmand:amenity_subtype>public_bookcase</osmand:amenity_subtype>
    <osmand:icon>public_bookcase</osmand:icon>
  </extensions>
</wpt>
<wpt lat="46.5268117" lon="6.0219339">
  <name>Rue de la République</name>
  <desc>petite boîte contre abri bus</desc>
  <type>Delivrez bookcase Bourgogne-Franche-Comté</type>
  <extensions>
    <osmand:codetype>BSB</osmand:codetype>
    <osmand:color>#00842b</osmand:color>
    <osmand:background>square</osmand:background>
    <osmand:amenity_subtype>public_bookcase</osmand:amenity_subtype>
    <osmand:icon>public_bookcase</osmand:icon>
  </extensions>
</wpt>
<wpt lat="46.694481" lon="5.5748045">
  <name>Grande Rue - chilles</name>
  <desc>sous le lavoir</desc>
  <type>Delivrez bookcase Bourgogne-Franche-Comté</type>
  <extensions>
    <osmand:codetype>BSB</osmand:codetype>
    <osmand:color>#00842b</osmand:color>
    <osmand:background>square</osmand:background>
    <osmand:amenity_subtype>public_bookcase</osmand:amenity_subtype>
    <osmand:icon>public_bookcase</osmand:icon>
  </extensions>
</wpt>
<wpt lat="46.7352861" lon="5.6990624">
  <name>Place de l'Église - la Marre</name>
  <desc>à côté de l'église sous abri</desc>
  <type>Delivrez bookcase Bourgogne-Franche-Comté</type>
  <extensions>
    <osmand:codetype>BSB</osmand:codetype>
    <osmand:color>#00842b</osmand:color>
    <osmand:background>square</osmand:background>
    <osmand:amenity_subtype>public_bookcase</osmand:amenity_subtype>
    <osmand:icon>public_bookcase</osmand:icon>
  </extensions>
</wpt>
<wpt lat="47.4465695" lon="5.3921889">
  <name>Rue du Communal</name>
  <desc>_</desc>
  <type>Delivrez bookcase Bourgogne-Franche-Comté</type>
  <extensions>
    <osmand:codetype>BSB</osmand:codetype>
    <osmand:color>#00842b</osmand:color>
    <osmand:background>square</osmand:background>
    <osmand:amenity_subtype>public_bookcase</osmand:amenity_subtype>
    <osmand:icon>public_bookcase</osmand:icon>
  </extensions>
</wpt>
<wpt lat="46.5799832" lon="5.7475188">
  <name>Route de Lons le Saunier</name>
  <desc>devant le Bi1</desc>
  <type>Delivrez bookcase Bourgogne-Franche-Comté</type>
  <extensions>
    <osmand:codetype>BSB</osmand:codetype>
    <osmand:color>#00842b</osmand:color>
    <osmand:background>square</osmand:background>
    <osmand:amenity_subtype>public_bookcase</osmand:amenity_subtype>
    <osmand:icon>public_bookcase</osmand:icon>
  </extensions>
</wpt>
<wpt lat="46.5565876" lon="5.5867438">
  <name>Rue Charnal Presilly</name>
  <desc>sous abri bus dans une bibliothèque</desc>
  <type>Delivrez bookcase Bourgogne-Franche-Comté</type>
  <extensions>
    <osmand:codetype>BSB</osmand:codetype>
    <osmand:color>#00842b</osmand:color>
    <osmand:background>square</osmand:background>
    <osmand:amenity_subtype>public_bookcase</osmand:amenity_subtype>
    <osmand:icon>public_bookcase</osmand:icon>
  </extensions>
</wpt>
<wpt lat="47.2804569" lon="4.2303746">
  <name>Place Monge</name>
  <desc>devant espace culturel Claude Sallier</desc>
  <type>Delivrez bookcase Bourgogne-Franche-Comté</type>
  <extensions>
    <osmand:codetype>BSB</osmand:codetype>
    <osmand:color>#00842b</osmand:color>
    <osmand:background>square</osmand:background>
    <osmand:website>https://delivrez.fr/public/posts/img.636d05890b701.png</osmand:website>
    <osmand:amenity_subtype>public_bookcase</osmand:amenity_subtype>
    <osmand:icon>public_bookcase</osmand:icon>
  </extensions>
</wpt>
<wpt lat="47.5343737" lon="3.6873623">
  <name>Place des Marronniers</name>
  <desc>Chez Jacqueline</desc>
  <type>Delivrez bookcase Bourgogne-Franche-Comté</type>
  <extensions>
    <osmand:codetype>BSB</osmand:codetype>
    <osmand:color>#00842b</osmand:color>
    <osmand:background>square</osmand:background>
    <osmand:website>https://delivrez.fr/public/posts/img.635cd67eee2c4.png</osmand:website>
    <osmand:amenity_subtype>public_bookcase</osmand:amenity_subtype>
    <osmand:icon>public_bookcase</osmand:icon>
  </extensions>
</wpt>
<wpt lat="46.6011838" lon="5.6889407">
  <name>Grande Rue</name>
  <desc>sous l'abri-bus</desc>
  <type>Delivrez bookcase Bourgogne-Franche-Comté</type>
  <extensions>
    <osmand:codetype>BSB</osmand:codetype>
    <osmand:color>#00842b</osmand:color>
    <osmand:background>square</osmand:background>
    <osmand:amenity_subtype>public_bookcase</osmand:amenity_subtype>
    <osmand:icon>public_bookcase</osmand:icon>
  </extensions>
</wpt>
<wpt lat="46.6656618" lon="5.648262">
  <name>Rue du Saugeois</name>
  <desc>sous l'abri-bus</desc>
  <type>Delivrez bookcase Bourgogne-Franche-Comté</type>
  <extensions>
    <osmand:codetype>BSB</osmand:codetype>
    <osmand:color>#00842b</osmand:color>
    <osmand:background>square</osmand:background>
    <osmand:amenity_subtype>public_bookcase</osmand:amenity_subtype>
    <osmand:icon>public_bookcase</osmand:icon>
  </extensions>
</wpt>
<wpt lat="46.6876576" lon="5.6610993">
  <name>Rue de la Carrière</name>
  <desc>au bord du magasin VIVAL</desc>
  <type>Delivrez bookcase Bourgogne-Franche-Comté</type>
  <extensions>
    <osmand:codetype>BSB</osmand:codetype>
    <osmand:color>#00842b</osmand:color>
    <osmand:background>square</osmand:background>
    <osmand:amenity_subtype>public_bookcase</osmand:amenity_subtype>
    <osmand:icon>public_bookcase</osmand:icon>
  </extensions>
</wpt>
<wpt lat="46.7170653" lon="5.5961176">
  <name>Place du 8 Mai 1945</name>
  <desc>sous le lavoir</desc>
  <type>Delivrez bookcase Bourgogne-Franche-Comté</type>
  <extensions>
    <osmand:codetype>BSB</osmand:codetype>
    <osmand:color>#00842b</osmand:color>
    <osmand:background>square</osmand:background>
    <osmand:amenity_subtype>public_bookcase</osmand:amenity_subtype>
    <osmand:icon>public_bookcase</osmand:icon>
  </extensions>
</wpt>
<wpt lat="46.7300166" lon="5.5827622">
  <name>Rue du Quart d'Avaud</name>
  <desc>sous l'abri-bus</desc>
  <type>Delivrez bookcase Bourgogne-Franche-Comté</type>
  <extensions>
    <osmand:codetype>BSB</osmand:codetype>
    <osmand:color>#00842b</osmand:color>
    <osmand:background>square</osmand:background>
    <osmand:amenity_subtype>public_bookcase</osmand:amenity_subtype>
    <osmand:icon>public_bookcase</osmand:icon>
  </extensions>
</wpt>
<wpt lat="46.7631608" lon="5.5972768">
  <name>Rue Marius Buisson</name>
  <desc>dans une boîte sur des tonneaux au bord du parc</desc>
  <type>Delivrez bookcase Bourgogne-Franche-Comté</type>
  <extensions>
    <osmand:codetype>BSB</osmand:codetype>
    <osmand:color>#00842b</osmand:color>
    <osmand:background>square</osmand:background>
    <osmand:amenity_subtype>public_bookcase</osmand:amenity_subtype>
    <osmand:icon>public_bookcase</osmand:icon>
  </extensions>
</wpt>
<wpt lat="46.7825729" lon="5.5791813">
  <name>Grande Rue</name>
  <desc>à Brery sur la façade de la mairie</desc>
  <type>Delivrez bookcase Bourgogne-Franche-Comté</type>
  <extensions>
    <osmand:codetype>BSB</osmand:codetype>
    <osmand:color>#00842b</osmand:color>
    <osmand:background>square</osmand:background>
    <osmand:amenity_subtype>public_bookcase</osmand:amenity_subtype>
    <osmand:icon>public_bookcase</osmand:icon>
  </extensions>
</wpt>
<wpt lat="46.5979657" lon="5.6420745">
  <name>Rue du Faubourg</name>
  <desc>jolie boîte sur pilotis, près d'un abri bus</desc>
  <type>Delivrez bookcase Bourgogne-Franche-Comté</type>
  <extensions>
    <osmand:codetype>BSB</osmand:codetype>
    <osmand:color>#00842b</osmand:color>
    <osmand:background>square</osmand:background>
    <osmand:amenity_subtype>public_bookcase</osmand:amenity_subtype>
    <osmand:icon>public_bookcase</osmand:icon>
  </extensions>
</wpt>
<wpt lat="46.658731" lon="5.5682747">
  <name>Rue du Petit Bourg</name>
  <desc>dans le parking de la salle des fêtes, petite boîte contre un mur</desc>
  <type>Delivrez bookcase Bourgogne-Franche-Comté</type>
  <extensions>
    <osmand:codetype>BSB</osmand:codetype>
    <osmand:color>#00842b</osmand:color>
    <osmand:background>square</osmand:background>
    <osmand:amenity_subtype>public_bookcase</osmand:amenity_subtype>
    <osmand:icon>public_bookcase</osmand:icon>
  </extensions>
</wpt>
<wpt lat="46.6536464" lon="5.5303041">
  <name>Route de Beauregard</name>
  <desc>dans un réfrigérateur devant GRIGRI technique</desc>
  <type>Delivrez bookcase Bourgogne-Franche-Comté</type>
  <extensions>
    <osmand:codetype>BSB</osmand:codetype>
    <osmand:color>#00842b</osmand:color>
    <osmand:background>square</osmand:background>
    <osmand:amenity_subtype>public_bookcase</osmand:amenity_subtype>
    <osmand:icon>public_bookcase</osmand:icon>
  </extensions>
</wpt>
<wpt lat="46.737008" lon="5.4645886">
  <name>Rue nationale</name>
  <desc>ville vieux, jolie armoire rouge sous auvent au centre de la place</desc>
  <type>Delivrez bookcase Bourgogne-Franche-Comté</type>
  <extensions>
    <osmand:codetype>BSB</osmand:codetype>
    <osmand:color>#00842b</osmand:color>
    <osmand:background>square</osmand:background>
    <osmand:amenity_subtype>public_bookcase</osmand:amenity_subtype>
    <osmand:icon>public_bookcase</osmand:icon>
  </extensions>
</wpt>
<wpt lat="46.6315845" lon="5.7485779">
  <name>La Côte</name>
  <desc>sous l'abri bus</desc>
  <type>Delivrez bookcase Bourgogne-Franche-Comté</type>
  <extensions>
    <osmand:codetype>BSB</osmand:codetype>
    <osmand:color>#00842b</osmand:color>
    <osmand:background>square</osmand:background>
    <osmand:amenity_subtype>public_bookcase</osmand:amenity_subtype>
    <osmand:icon>public_bookcase</osmand:icon>
  </extensions>
</wpt>
<wpt lat="46.6823373" lon="5.7828977">
  <name>Rue des Vanniers</name>
  <desc>sous l'abri bus</desc>
  <type>Delivrez bookcase Bourgogne-Franche-Comté</type>
  <extensions>
    <osmand:codetype>BSB</osmand:codetype>
    <osmand:color>#00842b</osmand:color>
    <osmand:background>square</osmand:background>
    <osmand:amenity_subtype>public_bookcase</osmand:amenity_subtype>
    <osmand:icon>public_bookcase</osmand:icon>
  </extensions>
</wpt>
<wpt lat="46.5489515" lon="5.7100672">
  <name>Rue de l'Église</name>
  <desc>sous la petite cabane dans le parc derrière l'église</desc>
  <type>Delivrez bookcase Bourgogne-Franche-Comté</type>
  <extensions>
    <osmand:codetype>BSB</osmand:codetype>
    <osmand:color>#00842b</osmand:color>
    <osmand:background>square</osmand:background>
    <osmand:amenity_subtype>public_bookcase</osmand:amenity_subtype>
    <osmand:icon>public_bookcase</osmand:icon>
  </extensions>
</wpt>
<wpt lat="46.6107384" lon="5.7285734">
  <name>Rue de la Sirène</name>
  <desc>face à la mairie sous l'abri</desc>
  <type>Delivrez bookcase Bourgogne-Franche-Comté</type>
  <extensions>
    <osmand:codetype>BSB</osmand:codetype>
    <osmand:color>#00842b</osmand:color>
    <osmand:background>square</osmand:background>
    <osmand:amenity_subtype>public_bookcase</osmand:amenity_subtype>
    <osmand:icon>public_bookcase</osmand:icon>
  </extensions>
</wpt>
<wpt lat="46.5960788" lon="5.7416713">
  <name>Rue des Fontaines</name>
  <desc>sous l'abri bus</desc>
  <type>Delivrez bookcase Bourgogne-Franche-Comté</type>
  <extensions>
    <osmand:codetype>BSB</osmand:codetype>
    <osmand:color>#00842b</osmand:color>
    <osmand:background>square</osmand:background>
    <osmand:amenity_subtype>public_bookcase</osmand:amenity_subtype>
    <osmand:icon>public_bookcase</osmand:icon>
  </extensions>
</wpt>
<wpt lat="46.6979369" lon="5.5978303">
  <name>Rue de l'Église</name>
  <desc>belle armoire sous abri vers local transformateur</desc>
  <type>Delivrez bookcase Bourgogne-Franche-Comté</type>
  <extensions>
    <osmand:codetype>BSB</osmand:codetype>
    <osmand:color>#00842b</osmand:color>
    <osmand:background>square</osmand:background>
    <osmand:amenity_subtype>public_bookcase</osmand:amenity_subtype>
    <osmand:icon>public_bookcase</osmand:icon>
  </extensions>
</wpt>
<wpt lat="46.393892" lon="5.4540126">
  <name>Place de la Mairie</name>
  <desc>sous le porche de la maison à l'opposé de la cour</desc>
  <type>Delivrez bookcase Bourgogne-Franche-Comté</type>
  <extensions>
    <osmand:codetype>BSB</osmand:codetype>
    <osmand:color>#00842b</osmand:color>
    <osmand:background>square</osmand:background>
    <osmand:amenity_subtype>public_bookcase</osmand:amenity_subtype>
    <osmand:icon>public_bookcase</osmand:icon>
  </extensions>
</wpt>
<wpt lat="46.5521957" lon="5.661704">
  <name>Rue Principale</name>
  <desc>sous l'abri bus</desc>
  <type>Delivrez bookcase Bourgogne-Franche-Comté</type>
  <extensions>
    <osmand:codetype>BSB</osmand:codetype>
    <osmand:color>#00842b</osmand:color>
    <osmand:background>square</osmand:background>
    <osmand:amenity_subtype>public_bookcase</osmand:amenity_subtype>
    <osmand:icon>public_bookcase</osmand:icon>
  </extensions>
</wpt>
<wpt lat="46.5573055" lon="5.810629">
  <name>Curtil de la Rivière - la Frasnee</name>
  <desc>sous le Lavoir</desc>
  <type>Delivrez bookcase Bourgogne-Franche-Comté</type>
  <extensions>
    <osmand:codetype>BSB</osmand:codetype>
    <osmand:color>#00842b</osmand:color>
    <osmand:background>square</osmand:background>
    <osmand:amenity_subtype>public_bookcase</osmand:amenity_subtype>
    <osmand:icon>public_bookcase</osmand:icon>
  </extensions>
</wpt>
<wpt lat="46.5737746" lon="5.8029672">
  <name>Rue sous la Vierge</name>
  <desc>sous l'abri-bus</desc>
  <type>Delivrez bookcase Bourgogne-Franche-Comté</type>
  <extensions>
    <osmand:codetype>BSB</osmand:codetype>
    <osmand:color>#00842b</osmand:color>
    <osmand:background>square</osmand:background>
    <osmand:amenity_subtype>public_bookcase</osmand:amenity_subtype>
    <osmand:icon>public_bookcase</osmand:icon>
  </extensions>
</wpt>
<wpt lat="46.7303062" lon="5.9116156">
  <name>Avenue Etienne Lamy</name>
  <desc>près de l'ecole</desc>
  <type>Delivrez bookcase Bourgogne-Franche-Comté</type>
  <extensions>
    <osmand:codetype>BSB</osmand:codetype>
    <osmand:color>#00842b</osmand:color>
    <osmand:background>square</osmand:background>
    <osmand:amenity_subtype>public_bookcase</osmand:amenity_subtype>
    <osmand:icon>public_bookcase</osmand:icon>
  </extensions>
</wpt>
<wpt lat="46.6368582" lon="6.0305016">
  <name>Route nationale</name>
  <desc>dans le hall de la salle polyvalente</desc>
  <type>Delivrez bookcase Bourgogne-Franche-Comté</type>
  <extensions>
    <osmand:codetype>BSB</osmand:codetype>
    <osmand:color>#00842b</osmand:color>
    <osmand:background>square</osmand:background>
    <osmand:amenity_subtype>public_bookcase</osmand:amenity_subtype>
    <osmand:icon>public_bookcase</osmand:icon>
  </extensions>
</wpt>
<wpt lat="46.5702228" lon="5.9209253">
  <name>Grande Rue</name>
  <desc>contre le mur de la mairie</desc>
  <type>Delivrez bookcase Bourgogne-Franche-Comté</type>
  <extensions>
    <osmand:codetype>BSB</osmand:codetype>
    <osmand:color>#00842b</osmand:color>
    <osmand:background>square</osmand:background>
    <osmand:amenity_subtype>public_bookcase</osmand:amenity_subtype>
    <osmand:icon>public_bookcase</osmand:icon>
  </extensions>
</wpt>
<wpt lat="46.5073393" lon="5.7937796">
  <name>Route de Clairvaux</name>
  <desc>ancienne cabine téléphonique</desc>
  <type>Delivrez bookcase Bourgogne-Franche-Comté</type>
  <extensions>
    <osmand:codetype>BSB</osmand:codetype>
    <osmand:color>#00842b</osmand:color>
    <osmand:background>square</osmand:background>
    <osmand:amenity_subtype>public_bookcase</osmand:amenity_subtype>
    <osmand:icon>public_bookcase</osmand:icon>
  </extensions>
</wpt>
<wpt lat="46.5857432" lon="5.6966094">
  <name>Grande Rue</name>
  <desc>jolie bibliothèque colorée et bien abritée sous un auvent à côté de la mairie</desc>
  <type>Delivrez bookcase Bourgogne-Franche-Comté</type>
  <extensions>
    <osmand:codetype>BSB</osmand:codetype>
    <osmand:color>#00842b</osmand:color>
    <osmand:background>square</osmand:background>
    <osmand:amenity_subtype>public_bookcase</osmand:amenity_subtype>
    <osmand:icon>public_bookcase</osmand:icon>
  </extensions>
</wpt>
<wpt lat="46.6623668" lon="5.522486">
  <name>Rue Aimé Berthod</name>
  <desc>dans une cabine téléphonique superbement colorée</desc>
  <type>Delivrez bookcase Bourgogne-Franche-Comté</type>
  <extensions>
    <osmand:codetype>BSB</osmand:codetype>
    <osmand:color>#00842b</osmand:color>
    <osmand:background>square</osmand:background>
    <osmand:amenity_subtype>public_bookcase</osmand:amenity_subtype>
    <osmand:icon>public_bookcase</osmand:icon>
  </extensions>
</wpt>
<wpt lat="46.6629055" lon="5.5130197">
  <name>Route de Chilly</name>
  <desc>sous l'abri-bus</desc>
  <type>Delivrez bookcase Bourgogne-Franche-Comté</type>
  <extensions>
    <osmand:codetype>BSB</osmand:codetype>
    <osmand:color>#00842b</osmand:color>
    <osmand:background>square</osmand:background>
    <osmand:amenity_subtype>public_bookcase</osmand:amenity_subtype>
    <osmand:icon>public_bookcase</osmand:icon>
  </extensions>
</wpt>
<wpt lat="46.6642328" lon="5.5195934">
  <name>Route de Chilly</name>
  <desc>sous l'abri bus</desc>
  <type>Delivrez bookcase Bourgogne-Franche-Comté</type>
  <extensions>
    <osmand:codetype>BSB</osmand:codetype>
    <osmand:color>#00842b</osmand:color>
    <osmand:background>square</osmand:background>
    <osmand:amenity_subtype>public_bookcase</osmand:amenity_subtype>
    <osmand:icon>public_bookcase</osmand:icon>
  </extensions>
</wpt>
<wpt lat="46.6592819" lon="5.5166036">
  <name>Rue Emmanuel Vauchez</name>
  <desc>dans l'abri-bus</desc>
  <type>Delivrez bookcase Bourgogne-Franche-Comté</type>
  <extensions>
    <osmand:codetype>BSB</osmand:codetype>
    <osmand:color>#00842b</osmand:color>
    <osmand:background>square</osmand:background>
    <osmand:amenity_subtype>public_bookcase</osmand:amenity_subtype>
    <osmand:icon>public_bookcase</osmand:icon>
  </extensions>
</wpt>
<wpt lat="47.0322573" lon="4.8487424">
  <name>Route de Gigny</name>
  <desc>au pied de la résidence primev?res</desc>
  <type>Delivrez bookcase Bourgogne-Franche-Comté</type>
  <extensions>
    <osmand:codetype>BSB</osmand:codetype>
    <osmand:color>#00842b</osmand:color>
    <osmand:background>square</osmand:background>
    <osmand:amenity_subtype>public_bookcase</osmand:amenity_subtype>
    <osmand:icon>public_bookcase</osmand:icon>
  </extensions>
</wpt>
<wpt lat="47.5807435" lon="6.7056457">
  <name>Rue du Moulin</name>
  <desc>à côté de la mairie</desc>
  <type>Delivrez bookcase Bourgogne-Franche-Comté</type>
  <extensions>
    <osmand:codetype>BSB</osmand:codetype>
    <osmand:color>#00842b</osmand:color>
    <osmand:background>square</osmand:background>
    <osmand:website>https://delivrez.fr/public/posts/img.632b0e9d13a8c.png</osmand:website>
    <osmand:amenity_subtype>public_bookcase</osmand:amenity_subtype>
    <osmand:icon>public_bookcase</osmand:icon>
  </extensions>
</wpt>
<wpt lat="47.0188378" lon="3.0868018">
  <name>Place de la Gare</name>
  <desc>_</desc>
  <type>Delivrez bookcase Bourgogne-Franche-Comté</type>
  <extensions>
    <osmand:codetype>BSB</osmand:codetype>
    <osmand:color>#00842b</osmand:color>
    <osmand:background>square</osmand:background>
    <osmand:website>https://delivrez.fr/public/posts/img.631f10b1280ac.png</osmand:website>
    <osmand:amenity_subtype>public_bookcase</osmand:amenity_subtype>
    <osmand:icon>public_bookcase</osmand:icon>
  </extensions>
</wpt>
<wpt lat="47.0146414" lon="3.0834764">
  <name>Place de L’Eglise</name>
  <desc>face à la pharmacie@@__</desc>
  <type>Delivrez bookcase Bourgogne-Franche-Comté</type>
  <extensions>
    <osmand:codetype>BSB</osmand:codetype>
    <osmand:color>#00842b</osmand:color>
    <osmand:background>square</osmand:background>
    <osmand:amenity_subtype>public_bookcase</osmand:amenity_subtype>
    <osmand:icon>public_bookcase</osmand:icon>
  </extensions>
</wpt>
<wpt lat="47.3408481" lon="5.0221117">
  <name>Rue Général de Gaulle</name>
  <desc>à côté de la salle Pierre Jacques</desc>
  <type>Delivrez bookcase Bourgogne-Franche-Comté</type>
  <extensions>
    <osmand:codetype>BSB</osmand:codetype>
    <osmand:color>#00842b</osmand:color>
    <osmand:background>square</osmand:background>
    <osmand:amenity_subtype>public_bookcase</osmand:amenity_subtype>
    <osmand:icon>public_bookcase</osmand:icon>
  </extensions>
</wpt>
<wpt lat="47.0147391" lon="3.0827367">
  <name>Rue Gambetta</name>
  <desc>_</desc>
  <type>Delivrez bookcase Bourgogne-Franche-Comté</type>
  <extensions>
    <osmand:codetype>BSB</osmand:codetype>
    <osmand:color>#00842b</osmand:color>
    <osmand:background>square</osmand:background>
    <osmand:website>https://delivrez.fr/public/posts/img.631c9dbb679c3.png</osmand:website>
    <osmand:amenity_subtype>public_bookcase</osmand:amenity_subtype>
    <osmand:icon>public_bookcase</osmand:icon>
  </extensions>
</wpt>
<wpt lat="47.6595116" lon="6.7462019">
  <name>Rue de Belfort</name>
  <desc>_</desc>
  <type>Delivrez bookcase Bourgogne-Franche-Comté</type>
  <extensions>
    <osmand:codetype>BSB</osmand:codetype>
    <osmand:color>#00842b</osmand:color>
    <osmand:background>square</osmand:background>
    <osmand:website>https://delivrez.fr/public/posts/img.630f1833da11d.png</osmand:website>
    <osmand:amenity_subtype>public_bookcase</osmand:amenity_subtype>
    <osmand:icon>public_bookcase</osmand:icon>
  </extensions>
</wpt>
<wpt lat="47.7953903" lon="3.5255325">
  <name>Route de Chevannes</name>
  <desc>_</desc>
  <type>Delivrez bookcase Bourgogne-Franche-Comté</type>
  <extensions>
    <osmand:codetype>BSB</osmand:codetype>
    <osmand:color>#00842b</osmand:color>
    <osmand:background>square</osmand:background>
    <osmand:amenity_subtype>public_bookcase</osmand:amenity_subtype>
    <osmand:icon>public_bookcase</osmand:icon>
  </extensions>
</wpt>
<wpt lat="47.5880097" lon="6.8864354">
  <name>Rue de la Liberté</name>
  <desc>devant l'école</desc>
  <type>Delivrez bookcase Bourgogne-Franche-Comté</type>
  <extensions>
    <osmand:codetype>BSB</osmand:codetype>
    <osmand:color>#00842b</osmand:color>
    <osmand:background>square</osmand:background>
    <osmand:website>https://delivrez.fr/public/posts/img.630f12d7dcb07.png</osmand:website>
    <osmand:amenity_subtype>public_bookcase</osmand:amenity_subtype>
    <osmand:icon>public_bookcase</osmand:icon>
  </extensions>
</wpt>
<wpt lat="46.7448171" lon="4.7065206">
  <name>Rue de la Grange Saint-Pierre</name>
  <desc>cour de la mairie. boîte à livres et dvd</desc>
  <type>Delivrez bookcase Bourgogne-Franche-Comté</type>
  <extensions>
    <osmand:codetype>BSB</osmand:codetype>
    <osmand:color>#00842b</osmand:color>
    <osmand:background>square</osmand:background>
    <osmand:amenity_subtype>public_bookcase</osmand:amenity_subtype>
    <osmand:icon>public_bookcase</osmand:icon>
  </extensions>
</wpt>
<wpt lat="47.0710748" lon="5.3659729">
  <name>Rue du Centre</name>
  <desc>_</desc>
  <type>Delivrez bookcase Bourgogne-Franche-Comté</type>
  <extensions>
    <osmand:codetype>BSB</osmand:codetype>
    <osmand:color>#00842b</osmand:color>
    <osmand:background>square</osmand:background>
    <osmand:amenity_subtype>public_bookcase</osmand:amenity_subtype>
    <osmand:icon>public_bookcase</osmand:icon>
  </extensions>
</wpt>
<wpt lat="47.8652525" lon="3.5561504">
  <name>Rue du Halage</name>
  <desc>Le long de la rivière</desc>
  <type>Delivrez bookcase Bourgogne-Franche-Comté</type>
  <extensions>
    <osmand:codetype>BSB</osmand:codetype>
    <osmand:color>#00842b</osmand:color>
    <osmand:background>square</osmand:background>
    <osmand:website>https://delivrez.fr/public/posts/img.62fd0a943a43d.png</osmand:website>
    <osmand:amenity_subtype>public_bookcase</osmand:amenity_subtype>
    <osmand:icon>public_bookcase</osmand:icon>
  </extensions>
</wpt>
<wpt lat="47.6706759" lon="6.9193862">
  <name>Avenue du Général de Gaulle</name>
  <desc>Frigo transformé en BAL</desc>
  <type>Delivrez bookcase Bourgogne-Franche-Comté</type>
  <extensions>
    <osmand:codetype>BSB</osmand:codetype>
    <osmand:color>#00842b</osmand:color>
    <osmand:background>square</osmand:background>
    <osmand:website>https://delivrez.fr/public/posts/img.62fa599186ad1.png</osmand:website>
    <osmand:amenity_subtype>public_bookcase</osmand:amenity_subtype>
    <osmand:icon>public_bookcase</osmand:icon>
  </extensions>
</wpt>
<wpt lat="47.6950649" lon="6.6468803">
  <name>Rue des Champs</name>
  <desc>devant la bibliothèque</desc>
  <type>Delivrez bookcase Bourgogne-Franche-Comté</type>
  <extensions>
    <osmand:codetype>BSB</osmand:codetype>
    <osmand:color>#00842b</osmand:color>
    <osmand:background>square</osmand:background>
    <osmand:website>https://delivrez.fr/public/posts/img.62f3d714b33e4.png</osmand:website>
    <osmand:amenity_subtype>public_bookcase</osmand:amenity_subtype>
    <osmand:icon>public_bookcase</osmand:icon>
  </extensions>
</wpt>
<wpt lat="47.6370023" lon="6.8503642">
  <name>Avenue du Général Dubail</name>
  <desc>devant centre culturel Oïkos</desc>
  <type>Delivrez bookcase Bourgogne-Franche-Comté</type>
  <extensions>
    <osmand:codetype>BSB</osmand:codetype>
    <osmand:color>#00842b</osmand:color>
    <osmand:background>square</osmand:background>
    <osmand:website>https://delivrez.fr/public/posts/img.62f36560bc734.png</osmand:website>
    <osmand:amenity_subtype>public_bookcase</osmand:amenity_subtype>
    <osmand:icon>public_bookcase</osmand:icon>
  </extensions>
</wpt>
<wpt lat="47.1913576" lon="3.0134754">
  <name>Avenue Maréchal Leclerc</name>
  <desc>dans la galerie marchande du Auchan. a gauche en entrant. grande armoire</desc>
  <type>Delivrez bookcase Bourgogne-Franche-Comté</type>
  <extensions>
    <osmand:codetype>BSB</osmand:codetype>
    <osmand:color>#00842b</osmand:color>
    <osmand:background>square</osmand:background>
    <osmand:amenity_subtype>public_bookcase</osmand:amenity_subtype>
    <osmand:icon>public_bookcase</osmand:icon>
  </extensions>
</wpt>
<wpt lat="47.0170895" lon="3.0784835">
  <name>Impasse Roquebeau</name>
  <desc>_</desc>
  <type>Delivrez bookcase Bourgogne-Franche-Comté</type>
  <extensions>
    <osmand:codetype>BSB</osmand:codetype>
    <osmand:color>#00842b</osmand:color>
    <osmand:background>square</osmand:background>
    <osmand:amenity_subtype>public_bookcase</osmand:amenity_subtype>
    <osmand:icon>public_bookcase</osmand:icon>
  </extensions>
</wpt>
<wpt lat="46.6807444" lon="3.8163392">
  <name>Route de Bourbon</name>
  <desc>_</desc>
  <type>Delivrez bookcase Bourgogne-Franche-Comté</type>
  <extensions>
    <osmand:codetype>BSB</osmand:codetype>
    <osmand:color>#00842b</osmand:color>
    <osmand:background>square</osmand:background>
    <osmand:website>https://delivrez.fr/public/posts/img.6235f7dcb7084.png</osmand:website>
    <osmand:amenity_subtype>public_bookcase</osmand:amenity_subtype>
    <osmand:icon>public_bookcase</osmand:icon>
  </extensions>
</wpt>
<wpt lat="47.29394" lon="5.280335">
  <name>david36.davdav@gmail.com</name>
  <desc>Ancienne cabine de téléphone</desc>
  <type>Delivrez bookcase Bourgogne-Franche-Comté</type>
  <extensions>
    <osmand:codetype>BSB</osmand:codetype>
    <osmand:color>#00842b</osmand:color>
    <osmand:background>square</osmand:background>
    <osmand:website>https://delivrez.fr/public/posts/img.62ef73fa5b67f.png</osmand:website>
    <osmand:amenity_subtype>public_bookcase</osmand:amenity_subtype>
    <osmand:icon>public_bookcase</osmand:icon>
  </extensions>
</wpt>
<wpt lat="46.9942856" lon="4.8745184">
  <name>Place de l'Hauterot</name>
  <desc>Wine barrels turned into shelves next to the bus stop</desc>
  <type>Delivrez bookcase Bourgogne-Franche-Comté</type>
  <extensions>
    <osmand:codetype>BSB</osmand:codetype>
    <osmand:color>#00842b</osmand:color>
    <osmand:background>square</osmand:background>
    <osmand:amenity_subtype>public_bookcase</osmand:amenity_subtype>
    <osmand:icon>public_bookcase</osmand:icon>
  </extensions>
</wpt>
<wpt lat="47.2754188" lon="6.3826507">
  <name>Chemin des Pequignots</name>
  <desc>à l' entrée de la fruitière</desc>
  <type>Delivrez bookcase Bourgogne-Franche-Comté</type>
  <extensions>
    <osmand:codetype>BSB</osmand:codetype>
    <osmand:color>#00842b</osmand:color>
    <osmand:background>square</osmand:background>
    <osmand:amenity_subtype>public_bookcase</osmand:amenity_subtype>
    <osmand:icon>public_bookcase</osmand:icon>
  </extensions>
</wpt>
<wpt lat="47.4733988" lon="6.7680513">
  <name>Grande Rue</name>
  <desc>devant la poste</desc>
  <type>Delivrez bookcase Bourgogne-Franche-Comté</type>
  <extensions>
    <osmand:codetype>BSB</osmand:codetype>
    <osmand:color>#00842b</osmand:color>
    <osmand:background>square</osmand:background>
    <osmand:amenity_subtype>public_bookcase</osmand:amenity_subtype>
    <osmand:icon>public_bookcase</osmand:icon>
  </extensions>
</wpt>
<wpt lat="46.4358544" lon="5.3425094">
  <name>setthe@gmail.com</name>
  <desc>au magasin d'Est en Ouest</desc>
  <type>Delivrez bookcase Bourgogne-Franche-Comté</type>
  <extensions>
    <osmand:codetype>BSB</osmand:codetype>
    <osmand:color>#00842b</osmand:color>
    <osmand:background>square</osmand:background>
    <osmand:website>https://delivrez.fr/public/posts/img.628ddc7d2787a.png</osmand:website>
    <osmand:amenity_subtype>public_bookcase</osmand:amenity_subtype>
    <osmand:icon>public_bookcase</osmand:icon>
  </extensions>
</wpt>
<wpt lat="46.6979559" lon="4.7485919">
  <name>Boîte à livre</name>
  <desc>En face de l'arrêt de bus vers la table de pique nique</desc>
  <type>Delivrez bookcase Bourgogne-Franche-Comté</type>
  <extensions>
    <osmand:codetype>BSB</osmand:codetype>
    <osmand:color>#00842b</osmand:color>
    <osmand:background>square</osmand:background>
    <osmand:amenity_subtype>public_bookcase</osmand:amenity_subtype>
    <osmand:icon>public_bookcase</osmand:icon>
  </extensions>
</wpt>
<wpt lat="47.3235293" lon="5.0338808">
  <name>boîte chouette</name>
  <desc>_</desc>
  <type>Delivrez bookcase Bourgogne-Franche-Comté</type>
  <extensions>
    <osmand:codetype>BSB</osmand:codetype>
    <osmand:color>#00842b</osmand:color>
    <osmand:background>square</osmand:background>
    <osmand:amenity_subtype>public_bookcase</osmand:amenity_subtype>
    <osmand:icon>public_bookcase</osmand:icon>
  </extensions>
</wpt>
<wpt lat="46.8166804" lon="4.8823327">
  <name>La crisso'livres</name>
  <desc>En face de la mairie</desc>
  <type>Delivrez bookcase Bourgogne-Franche-Comté</type>
  <extensions>
    <osmand:codetype>BSB</osmand:codetype>
    <osmand:color>#00842b</osmand:color>
    <osmand:background>square</osmand:background>
    <osmand:website>https://delivrez.fr/public/posts/img.6230982b8780c.png</osmand:website>
    <osmand:amenity_subtype>public_bookcase</osmand:amenity_subtype>
    <osmand:icon>public_bookcase</osmand:icon>
  </extensions>
</wpt>
<wpt lat="46.6491875" lon="4.7602506">
  <name>Boîte. Livre</name>
  <desc>Sur le terrain de boules</desc>
  <type>Delivrez bookcase Bourgogne-Franche-Comté</type>
  <extensions>
    <osmand:codetype>BSB</osmand:codetype>
    <osmand:color>#00842b</osmand:color>
    <osmand:background>square</osmand:background>
    <osmand:amenity_subtype>public_bookcase</osmand:amenity_subtype>
    <osmand:icon>public_bookcase</osmand:icon>
  </extensions>
</wpt>
<wpt lat="47.5986994" lon="3.7579909">
  <name>Grande Rue</name>
  <desc>_</desc>
  <type>Delivrez bookcase Bourgogne-Franche-Comté</type>
  <extensions>
    <osmand:codetype>BSB</osmand:codetype>
    <osmand:color>#00842b</osmand:color>
    <osmand:background>square</osmand:background>
    <osmand:website>https://delivrez.fr/public/posts/img.620cca0577763.png</osmand:website>
    <osmand:amenity_subtype>public_bookcase</osmand:amenity_subtype>
    <osmand:icon>public_bookcase</osmand:icon>
  </extensions>
</wpt>
<wpt lat="47.4299598" lon="3.8242461">
  <name>Route d'Avallon</name>
  <desc>A côté de la boîte aux lettres</desc>
  <type>Delivrez bookcase Bourgogne-Franche-Comté</type>
  <extensions>
    <osmand:codetype>BSB</osmand:codetype>
    <osmand:color>#00842b</osmand:color>
    <osmand:background>square</osmand:background>
    <osmand:website>https://delivrez.fr/public/posts/img.620e329427461.png</osmand:website>
    <osmand:amenity_subtype>public_bookcase</osmand:amenity_subtype>
    <osmand:icon>public_bookcase</osmand:icon>
  </extensions>
</wpt>
<wpt lat="46.8996906" lon="3.4666507">
  <name>place des fusillés</name>
  <desc>_</desc>
  <type>Delivrez bookcase Bourgogne-Franche-Comté</type>
  <extensions>
    <osmand:codetype>BSB</osmand:codetype>
    <osmand:color>#00842b</osmand:color>
    <osmand:background>square</osmand:background>
    <osmand:amenity_subtype>public_bookcase</osmand:amenity_subtype>
    <osmand:icon>public_bookcase</osmand:icon>
  </extensions>
</wpt>
<wpt lat="46.7463193" lon="5.455227">
  <name>Rue Louis le Grand</name>
  <desc>Grande armoire aux livres.</desc>
  <type>Delivrez bookcase Bourgogne-Franche-Comté</type>
  <extensions>
    <osmand:codetype>BSB</osmand:codetype>
    <osmand:color>#00842b</osmand:color>
    <osmand:background>square</osmand:background>
    <osmand:website>https://delivrez.fr/public/posts/img.61fbfa3d35e31.png</osmand:website>
    <osmand:amenity_subtype>public_bookcase</osmand:amenity_subtype>
    <osmand:icon>public_bookcase</osmand:icon>
  </extensions>
</wpt>
<wpt lat="47.6894328" lon="6.7581504">
  <name>Rue des Étangs</name>
  <desc>au numéro 2 de la rue sur une maison</desc>
  <type>Delivrez bookcase Bourgogne-Franche-Comté</type>
  <extensions>
    <osmand:codetype>BSB</osmand:codetype>
    <osmand:color>#00842b</osmand:color>
    <osmand:background>square</osmand:background>
    <osmand:amenity_subtype>public_bookcase</osmand:amenity_subtype>
    <osmand:icon>public_bookcase</osmand:icon>
  </extensions>
</wpt>
<wpt lat="46.3474501" lon="4.6978529">
  <name>Rue du Grand Cèdre</name>
  <desc>Vers la Mairie</desc>
  <type>Delivrez bookcase Bourgogne-Franche-Comté</type>
  <extensions>
    <osmand:codetype>BSB</osmand:codetype>
    <osmand:color>#00842b</osmand:color>
    <osmand:background>square</osmand:background>
    <osmand:amenity_subtype>public_bookcase</osmand:amenity_subtype>
    <osmand:icon>public_bookcase</osmand:icon>
  </extensions>
</wpt>
<wpt lat="46.7854993" lon="4.8438564">
  <name>Rue Rhin et Danube</name>
  <desc>_</desc>
  <type>Delivrez bookcase Bourgogne-Franche-Comté</type>
  <extensions>
    <osmand:codetype>BSB</osmand:codetype>
    <osmand:color>#00842b</osmand:color>
    <osmand:background>square</osmand:background>
    <osmand:amenity_subtype>public_bookcase</osmand:amenity_subtype>
    <osmand:icon>public_bookcase</osmand:icon>
  </extensions>
</wpt>
<wpt lat="47.369205" lon="3.9966471">
  <name>Place de l'Église</name>
  <desc>vers l'office du tourisme</desc>
  <type>Delivrez bookcase Bourgogne-Franche-Comté</type>
  <extensions>
    <osmand:codetype>BSB</osmand:codetype>
    <osmand:color>#00842b</osmand:color>
    <osmand:background>square</osmand:background>
    <osmand:amenity_subtype>public_bookcase</osmand:amenity_subtype>
    <osmand:icon>public_bookcase</osmand:icon>
  </extensions>
</wpt>
<wpt lat="46.7622035" lon="6.3268785">
  <name>Rue de l'Étoile</name>
  <desc>_</desc>
  <type>Delivrez bookcase Bourgogne-Franche-Comté</type>
  <extensions>
    <osmand:codetype>BSB</osmand:codetype>
    <osmand:color>#00842b</osmand:color>
    <osmand:background>square</osmand:background>
    <osmand:website>https://delivrez.fr/public/posts/img.617e72ac66329.png</osmand:website>
    <osmand:amenity_subtype>public_bookcase</osmand:amenity_subtype>
    <osmand:icon>public_bookcase</osmand:icon>
  </extensions>
</wpt>
<wpt lat="47.270815" lon="5.0070696">
  <name>Cours des Petites Loueres</name>
  <desc>_</desc>
  <type>Delivrez bookcase Bourgogne-Franche-Comté</type>
  <extensions>
    <osmand:codetype>BSB</osmand:codetype>
    <osmand:color>#00842b</osmand:color>
    <osmand:background>square</osmand:background>
    <osmand:amenity_subtype>public_bookcase</osmand:amenity_subtype>
    <osmand:icon>public_bookcase</osmand:icon>
  </extensions>
</wpt>
<wpt lat="46.7587918" lon="5.9387004">
  <name>Route des Sapins</name>
  <desc>A l'arrêt de bus</desc>
  <type>Delivrez bookcase Bourgogne-Franche-Comté</type>
  <extensions>
    <osmand:codetype>BSB</osmand:codetype>
    <osmand:color>#00842b</osmand:color>
    <osmand:background>square</osmand:background>
    <osmand:amenity_subtype>public_bookcase</osmand:amenity_subtype>
    <osmand:icon>public_bookcase</osmand:icon>
  </extensions>
</wpt>
<wpt lat="46.9496129" lon="4.2985803">
  <name>Rue du Général André Demetz</name>
  <desc>_</desc>
  <type>Delivrez bookcase Bourgogne-Franche-Comté</type>
  <extensions>
    <osmand:codetype>BSB</osmand:codetype>
    <osmand:color>#00842b</osmand:color>
    <osmand:background>square</osmand:background>
    <osmand:amenity_subtype>public_bookcase</osmand:amenity_subtype>
    <osmand:icon>public_bookcase</osmand:icon>
  </extensions>
</wpt>
<wpt lat="46.7734561" lon="4.833847">
  <name>Place du Pont Paron</name>
  <desc>_</desc>
  <type>Delivrez bookcase Bourgogne-Franche-Comté</type>
  <extensions>
    <osmand:codetype>BSB</osmand:codetype>
    <osmand:color>#00842b</osmand:color>
    <osmand:background>square</osmand:background>
    <osmand:amenity_subtype>public_bookcase</osmand:amenity_subtype>
    <osmand:icon>public_bookcase</osmand:icon>
  </extensions>
</wpt>
<wpt lat="47.2051093" lon="5.8026834">
  <name>Rue Millotière</name>
  <desc>_</desc>
  <type>Delivrez bookcase Bourgogne-Franche-Comté</type>
  <extensions>
    <osmand:codetype>BSB</osmand:codetype>
    <osmand:color>#00842b</osmand:color>
    <osmand:background>square</osmand:background>
    <osmand:amenity_subtype>public_bookcase</osmand:amenity_subtype>
    <osmand:icon>public_bookcase</osmand:icon>
  </extensions>
</wpt>
<wpt lat="46.5561768" lon="4.6737134">
  <name>Rue du Pont de Pierre</name>
  <desc>_</desc>
  <type>Delivrez bookcase Bourgogne-Franche-Comté</type>
  <extensions>
    <osmand:codetype>BSB</osmand:codetype>
    <osmand:color>#00842b</osmand:color>
    <osmand:background>square</osmand:background>
    <osmand:amenity_subtype>public_bookcase</osmand:amenity_subtype>
    <osmand:icon>public_bookcase</osmand:icon>
  </extensions>
</wpt>
<wpt lat="47.9620169" lon="3.5131624">
  <name>Avenue Roger Salengro</name>
  <desc>MIGENNES@@__Au niveau des berges, près du pont piétons SNCF</desc>
  <type>Delivrez bookcase Bourgogne-Franche-Comté</type>
  <extensions>
    <osmand:codetype>BSB</osmand:codetype>
    <osmand:color>#00842b</osmand:color>
    <osmand:background>square</osmand:background>
    <osmand:amenity_subtype>public_bookcase</osmand:amenity_subtype>
    <osmand:icon>public_bookcase</osmand:icon>
  </extensions>
</wpt>
<wpt lat="47.9554545" lon="3.5319699">
  <name>Rue du Pont</name>
  <desc>Commune  de CHENY (89) sur D91 au niveau du rond point. @@__Situé à gauche de la boulangerie Opaline.</desc>
  <type>Delivrez bookcase Bourgogne-Franche-Comté</type>
  <extensions>
    <osmand:codetype>BSB</osmand:codetype>
    <osmand:color>#00842b</osmand:color>
    <osmand:background>square</osmand:background>
    <osmand:amenity_subtype>public_bookcase</osmand:amenity_subtype>
    <osmand:icon>public_bookcase</osmand:icon>
  </extensions>
</wpt>
<wpt lat="46.8197455" lon="4.8366144">
  <name>Rue Charles Lemaux</name>
  <desc>à côté de la halte garderie</desc>
  <type>Delivrez bookcase Bourgogne-Franche-Comté</type>
  <extensions>
    <osmand:codetype>BSB</osmand:codetype>
    <osmand:color>#00842b</osmand:color>
    <osmand:background>square</osmand:background>
    <osmand:amenity_subtype>public_bookcase</osmand:amenity_subtype>
    <osmand:icon>public_bookcase</osmand:icon>
  </extensions>
</wpt>
<wpt lat="46.7785609" lon="4.8472991">
  <name>Grande Rue Saint-Cosme</name>
  <desc>devant le conservatoire</desc>
  <type>Delivrez bookcase Bourgogne-Franche-Comté</type>
  <extensions>
    <osmand:codetype>BSB</osmand:codetype>
    <osmand:color>#00842b</osmand:color>
    <osmand:background>square</osmand:background>
    <osmand:amenity_subtype>public_bookcase</osmand:amenity_subtype>
    <osmand:icon>public_bookcase</osmand:icon>
  </extensions>
</wpt>
<wpt lat="47.5293968" lon="3.5550067">
  <name>Place de l'Église</name>
  <desc>vers le pub</desc>
  <type>Delivrez bookcase Bourgogne-Franche-Comté</type>
  <extensions>
    <osmand:codetype>BSB</osmand:codetype>
    <osmand:color>#00842b</osmand:color>
    <osmand:background>square</osmand:background>
    <osmand:amenity_subtype>public_bookcase</osmand:amenity_subtype>
    <osmand:icon>public_bookcase</osmand:icon>
  </extensions>
</wpt>
<wpt lat="47.8928471" lon="3.9451982">
  <name>Rue de Dannemoine</name>
  <desc>2 route de Tonnerre dans la cour de la mairie à Vézinnes</desc>
  <type>Delivrez bookcase Bourgogne-Franche-Comté</type>
  <extensions>
    <osmand:codetype>BSB</osmand:codetype>
    <osmand:color>#00842b</osmand:color>
    <osmand:background>square</osmand:background>
    <osmand:amenity_subtype>public_bookcase</osmand:amenity_subtype>
    <osmand:icon>public_bookcase</osmand:icon>
  </extensions>
</wpt>
<wpt lat="47.856458" lon="3.9733394">
  <name>Rue de l'Hôtel de ville</name>
  <desc>Vers l'hôtel de ville</desc>
  <type>Delivrez bookcase Bourgogne-Franche-Comté</type>
  <extensions>
    <osmand:codetype>BSB</osmand:codetype>
    <osmand:color>#00842b</osmand:color>
    <osmand:background>square</osmand:background>
    <osmand:amenity_subtype>public_bookcase</osmand:amenity_subtype>
    <osmand:icon>public_bookcase</osmand:icon>
  </extensions>
</wpt>
<wpt lat="47.7865128" lon="4.0494755">
  <name>D200</name>
  <desc>Vers la mairie</desc>
  <type>Delivrez bookcase Bourgogne-Franche-Comté</type>
  <extensions>
    <osmand:codetype>BSB</osmand:codetype>
    <osmand:color>#00842b</osmand:color>
    <osmand:background>square</osmand:background>
    <osmand:amenity_subtype>public_bookcase</osmand:amenity_subtype>
    <osmand:icon>public_bookcase</osmand:icon>
  </extensions>
</wpt>
<wpt lat="46.8593475" lon="5.7120988">
  <name>N83</name>
  <desc>_</desc>
  <type>Delivrez bookcase Bourgogne-Franche-Comté</type>
  <extensions>
    <osmand:codetype>BSB</osmand:codetype>
    <osmand:color>#00842b</osmand:color>
    <osmand:background>square</osmand:background>
    <osmand:amenity_subtype>public_bookcase</osmand:amenity_subtype>
    <osmand:icon>public_bookcase</osmand:icon>
  </extensions>
</wpt>
<wpt lat="46.8336448" lon="5.7040855">
  <name>Rue du Champ de Foire</name>
  <desc>Cabane à livres</desc>
  <type>Delivrez bookcase Bourgogne-Franche-Comté</type>
  <extensions>
    <osmand:codetype>BSB</osmand:codetype>
    <osmand:color>#00842b</osmand:color>
    <osmand:background>square</osmand:background>
    <osmand:amenity_subtype>public_bookcase</osmand:amenity_subtype>
    <osmand:icon>public_bookcase</osmand:icon>
  </extensions>
</wpt>
<wpt lat="47.2033374" lon="5.6870393">
  <name>Rue Richebourg</name>
  <desc>_</desc>
  <type>Delivrez bookcase Bourgogne-Franche-Comté</type>
  <extensions>
    <osmand:codetype>BSB</osmand:codetype>
    <osmand:color>#00842b</osmand:color>
    <osmand:background>square</osmand:background>
    <osmand:amenity_subtype>public_bookcase</osmand:amenity_subtype>
    <osmand:icon>public_bookcase</osmand:icon>
  </extensions>
</wpt>
<wpt lat="47.6279748" lon="3.6603671">
  <name>Rue de l'Église</name>
  <desc>vers l'église</desc>
  <type>Delivrez bookcase Bourgogne-Franche-Comté</type>
  <extensions>
    <osmand:codetype>BSB</osmand:codetype>
    <osmand:color>#00842b</osmand:color>
    <osmand:background>square</osmand:background>
    <osmand:amenity_subtype>public_bookcase</osmand:amenity_subtype>
    <osmand:icon>public_bookcase</osmand:icon>
  </extensions>
</wpt>
<wpt lat="47.6641895" lon="3.7337362">
  <name>Rue du Gén de Gaulle</name>
  <desc>En face de la brasserie Le Méridien</desc>
  <type>Delivrez bookcase Bourgogne-Franche-Comté</type>
  <extensions>
    <osmand:codetype>BSB</osmand:codetype>
    <osmand:color>#00842b</osmand:color>
    <osmand:background>square</osmand:background>
    <osmand:amenity_subtype>public_bookcase</osmand:amenity_subtype>
    <osmand:icon>public_bookcase</osmand:icon>
  </extensions>
</wpt>
<wpt lat="47.6642538" lon="3.7376103">
  <name>Rue Paul Bert</name>
  <desc>sous l'abri vers l'école maternelle</desc>
  <type>Delivrez bookcase Bourgogne-Franche-Comté</type>
  <extensions>
    <osmand:codetype>BSB</osmand:codetype>
    <osmand:color>#00842b</osmand:color>
    <osmand:background>square</osmand:background>
    <osmand:amenity_subtype>public_bookcase</osmand:amenity_subtype>
    <osmand:icon>public_bookcase</osmand:icon>
  </extensions>
</wpt>
<wpt lat="47.6608026" lon="3.7322591">
  <name>Place de la Gare</name>
  <desc>vers l'aire de jeux</desc>
  <type>Delivrez bookcase Bourgogne-Franche-Comté</type>
  <extensions>
    <osmand:codetype>BSB</osmand:codetype>
    <osmand:color>#00842b</osmand:color>
    <osmand:background>square</osmand:background>
    <osmand:amenity_subtype>public_bookcase</osmand:amenity_subtype>
    <osmand:icon>public_bookcase</osmand:icon>
  </extensions>
</wpt>
<wpt lat="47.4161298" lon="3.810286">
  <name>Rue de Saint-Antoine</name>
  <desc>vers la mairie</desc>
  <type>Delivrez bookcase Bourgogne-Franche-Comté</type>
  <extensions>
    <osmand:codetype>BSB</osmand:codetype>
    <osmand:color>#00842b</osmand:color>
    <osmand:background>square</osmand:background>
    <osmand:amenity_subtype>public_bookcase</osmand:amenity_subtype>
    <osmand:icon>public_bookcase</osmand:icon>
  </extensions>
</wpt>
<wpt lat="47.7279398" lon="3.8543695">
  <name>D144</name>
  <desc>sous le préau vers la Mairie</desc>
  <type>Delivrez bookcase Bourgogne-Franche-Comté</type>
  <extensions>
    <osmand:codetype>BSB</osmand:codetype>
    <osmand:color>#00842b</osmand:color>
    <osmand:background>square</osmand:background>
    <osmand:amenity_subtype>public_bookcase</osmand:amenity_subtype>
    <osmand:icon>public_bookcase</osmand:icon>
  </extensions>
</wpt>
<wpt lat="47.3849825" lon="3.8115876">
  <name>Rue des Laboureurs</name>
  <desc>vers le lavoir</desc>
  <type>Delivrez bookcase Bourgogne-Franche-Comté</type>
  <extensions>
    <osmand:codetype>BSB</osmand:codetype>
    <osmand:color>#00842b</osmand:color>
    <osmand:background>square</osmand:background>
    <osmand:amenity_subtype>public_bookcase</osmand:amenity_subtype>
    <osmand:icon>public_bookcase</osmand:icon>
  </extensions>
</wpt>
<wpt lat="47.6030072" lon="3.7583137">
  <name>Rue de l'Orme</name>
  <desc>place Pasteur</desc>
  <type>Delivrez bookcase Bourgogne-Franche-Comté</type>
  <extensions>
    <osmand:codetype>BSB</osmand:codetype>
    <osmand:color>#00842b</osmand:color>
    <osmand:background>square</osmand:background>
    <osmand:amenity_subtype>public_bookcase</osmand:amenity_subtype>
    <osmand:icon>public_bookcase</osmand:icon>
  </extensions>
</wpt>
<wpt lat="47.527757" lon="3.8578039">
  <name>Grande Rue</name>
  <desc>dans l'abribus</desc>
  <type>Delivrez bookcase Bourgogne-Franche-Comté</type>
  <extensions>
    <osmand:codetype>BSB</osmand:codetype>
    <osmand:color>#00842b</osmand:color>
    <osmand:background>square</osmand:background>
    <osmand:amenity_subtype>public_bookcase</osmand:amenity_subtype>
    <osmand:icon>public_bookcase</osmand:icon>
  </extensions>
</wpt>
<wpt lat="47.8212843" lon="3.3082178">
  <name>sous l'abri bus</name>
  <desc>_</desc>
  <type>Delivrez bookcase Bourgogne-Franche-Comté</type>
  <extensions>
    <osmand:codetype>BSB</osmand:codetype>
    <osmand:color>#00842b</osmand:color>
    <osmand:background>square</osmand:background>
    <osmand:amenity_subtype>public_bookcase</osmand:amenity_subtype>
    <osmand:icon>public_bookcase</osmand:icon>
  </extensions>
</wpt>
<wpt lat="47.8417302" lon="3.3926001">
  <name>sur la place</name>
  <desc>_</desc>
  <type>Delivrez bookcase Bourgogne-Franche-Comté</type>
  <extensions>
    <osmand:codetype>BSB</osmand:codetype>
    <osmand:color>#00842b</osmand:color>
    <osmand:background>square</osmand:background>
    <osmand:amenity_subtype>public_bookcase</osmand:amenity_subtype>
    <osmand:icon>public_bookcase</osmand:icon>
  </extensions>
</wpt>
<wpt lat="47.2710126" lon="4.0898666">
  <name>D20</name>
  <desc>En face du monument aux morts</desc>
  <type>Delivrez bookcase Bourgogne-Franche-Comté</type>
  <extensions>
    <osmand:codetype>BSB</osmand:codetype>
    <osmand:color>#00842b</osmand:color>
    <osmand:background>square</osmand:background>
    <osmand:amenity_subtype>public_bookcase</osmand:amenity_subtype>
    <osmand:icon>public_bookcase</osmand:icon>
  </extensions>
</wpt>
<wpt lat="47.7997056" lon="3.3322145">
  <name>Rue de l'Église</name>
  <desc>_</desc>
  <type>Delivrez bookcase Bourgogne-Franche-Comté</type>
  <extensions>
    <osmand:codetype>BSB</osmand:codetype>
    <osmand:color>#00842b</osmand:color>
    <osmand:background>square</osmand:background>
    <osmand:amenity_subtype>public_bookcase</osmand:amenity_subtype>
    <osmand:icon>public_bookcase</osmand:icon>
  </extensions>
</wpt>
<wpt lat="47.5420076" lon="4.0363933">
  <name>D957</name>
  <desc>cabane à livres pour enfants(sur le mur de la boutique associative La Nichée )</desc>
  <type>Delivrez bookcase Bourgogne-Franche-Comté</type>
  <extensions>
    <osmand:codetype>BSB</osmand:codetype>
    <osmand:color>#00842b</osmand:color>
    <osmand:background>square</osmand:background>
    <osmand:amenity_subtype>public_bookcase</osmand:amenity_subtype>
    <osmand:icon>public_bookcase</osmand:icon>
  </extensions>
</wpt>
<wpt lat="47.5417425" lon="4.0364168">
  <name>Place du Prieuré</name>
  <desc>boîte à poèmes</desc>
  <type>Delivrez bookcase Bourgogne-Franche-Comté</type>
  <extensions>
    <osmand:codetype>BSB</osmand:codetype>
    <osmand:color>#00842b</osmand:color>
    <osmand:background>square</osmand:background>
    <osmand:amenity_subtype>public_bookcase</osmand:amenity_subtype>
    <osmand:icon>public_bookcase</osmand:icon>
  </extensions>
</wpt>
<wpt lat="47.3646874" lon="4.6417925">
  <name>9 Rue de l'hôpital</name>
  <desc>Abri bus Mairie - Boîte à livres et revues</desc>
  <type>Delivrez bookcase Bourgogne-Franche-Comté</type>
  <extensions>
    <osmand:codetype>BSB</osmand:codetype>
    <osmand:color>#00842b</osmand:color>
    <osmand:background>square</osmand:background>
    <osmand:amenity_subtype>public_bookcase</osmand:amenity_subtype>
    <osmand:icon>public_bookcase</osmand:icon>
  </extensions>
</wpt>
<wpt lat="46.4257279" lon="4.6654818">
  <name>Place des Martyrs de la Déportation</name>
  <desc>vers la boulangerie Le pain sur la table</desc>
  <type>Delivrez bookcase Bourgogne-Franche-Comté</type>
  <extensions>
    <osmand:codetype>BSB</osmand:codetype>
    <osmand:color>#00842b</osmand:color>
    <osmand:background>square</osmand:background>
    <osmand:amenity_subtype>public_bookcase</osmand:amenity_subtype>
    <osmand:icon>public_bookcase</osmand:icon>
  </extensions>
</wpt>
<wpt lat="47.1385092" lon="4.9509925">
  <name>Rue Camille Rodier</name>
  <desc>sur le parking, côté musée</desc>
  <type>Delivrez bookcase Bourgogne-Franche-Comté</type>
  <extensions>
    <osmand:codetype>BSB</osmand:codetype>
    <osmand:color>#00842b</osmand:color>
    <osmand:background>square</osmand:background>
    <osmand:amenity_subtype>public_bookcase</osmand:amenity_subtype>
    <osmand:icon>public_bookcase</osmand:icon>
  </extensions>
</wpt>
<wpt lat="47.3242829" lon="5.0076112">
  <name>Parking du lac Kir</name>
  <desc>_</desc>
  <type>Delivrez bookcase Bourgogne-Franche-Comté</type>
  <extensions>
    <osmand:codetype>BSB</osmand:codetype>
    <osmand:color>#00842b</osmand:color>
    <osmand:background>square</osmand:background>
    <osmand:amenity_subtype>public_bookcase</osmand:amenity_subtype>
    <osmand:icon>public_bookcase</osmand:icon>
  </extensions>
</wpt>
<wpt lat="47.1726609" lon="4.9819275">
  <name>Place du Château</name>
  <desc>_</desc>
  <type>Delivrez bookcase Bourgogne-Franche-Comté</type>
  <extensions>
    <osmand:codetype>BSB</osmand:codetype>
    <osmand:color>#00842b</osmand:color>
    <osmand:background>square</osmand:background>
    <osmand:amenity_subtype>public_bookcase</osmand:amenity_subtype>
    <osmand:icon>public_bookcase</osmand:icon>
  </extensions>
</wpt>
<wpt lat="47.7354401" lon="4.2313842">
  <name>Chemin des Varennes</name>
  <desc>Rue de la terrasse, au pied d'un immeuble</desc>
  <type>Delivrez bookcase Bourgogne-Franche-Comté</type>
  <extensions>
    <osmand:codetype>BSB</osmand:codetype>
    <osmand:color>#00842b</osmand:color>
    <osmand:background>square</osmand:background>
    <osmand:amenity_subtype>public_bookcase</osmand:amenity_subtype>
    <osmand:icon>public_bookcase</osmand:icon>
  </extensions>
</wpt>
<wpt lat="47.5866379" lon="4.0039328">
  <name>D11</name>
  <desc>Dans la cour de la Mairie</desc>
  <type>Delivrez bookcase Bourgogne-Franche-Comté</type>
  <extensions>
    <osmand:codetype>BSB</osmand:codetype>
    <osmand:color>#00842b</osmand:color>
    <osmand:background>square</osmand:background>
    <osmand:amenity_subtype>public_bookcase</osmand:amenity_subtype>
    <osmand:icon>public_bookcase</osmand:icon>
  </extensions>
</wpt>
<wpt lat="46.3876558" lon="5.8633943">
  <name>Rue de la Poyat</name>
  <desc>Dans la cœur de la maison du peuple</desc>
  <type>Delivrez bookcase Bourgogne-Franche-Comté</type>
  <extensions>
    <osmand:codetype>BSB</osmand:codetype>
    <osmand:color>#00842b</osmand:color>
    <osmand:background>square</osmand:background>
    <osmand:amenity_subtype>public_bookcase</osmand:amenity_subtype>
    <osmand:icon>public_bookcase</osmand:icon>
  </extensions>
</wpt>
<wpt lat="46.3821685" lon="5.7771876">
  <name>Rue du Crêt du Bief</name>
  <desc>A l'entrée de b1, beaux meubles bien garnis !</desc>
  <type>Delivrez bookcase Bourgogne-Franche-Comté</type>
  <extensions>
    <osmand:codetype>BSB</osmand:codetype>
    <osmand:color>#00842b</osmand:color>
    <osmand:background>square</osmand:background>
    <osmand:amenity_subtype>public_bookcase</osmand:amenity_subtype>
    <osmand:icon>public_bookcase</osmand:icon>
  </extensions>
</wpt>
<wpt lat="46.4208504" lon="5.7232368">
  <name>Avenue de Saint-Claude</name>
  <desc>Petite boîte à l'extérieur, devant l'accueil</desc>
  <type>Delivrez bookcase Bourgogne-Franche-Comté</type>
  <extensions>
    <osmand:codetype>BSB</osmand:codetype>
    <osmand:color>#00842b</osmand:color>
    <osmand:background>square</osmand:background>
    <osmand:amenity_subtype>public_bookcase</osmand:amenity_subtype>
    <osmand:icon>public_bookcase</osmand:icon>
  </extensions>
</wpt>
<wpt lat="46.624349" lon="5.4932791">
  <name>Rue de Pré-Haut</name>
  <desc>Boite récente qui ne demande qu'à vous rencontrer</desc>
  <type>Delivrez bookcase Bourgogne-Franche-Comté</type>
  <extensions>
    <osmand:codetype>BSB</osmand:codetype>
    <osmand:color>#00842b</osmand:color>
    <osmand:background>square</osmand:background>
    <osmand:amenity_subtype>public_bookcase</osmand:amenity_subtype>
    <osmand:icon>public_bookcase</osmand:icon>
  </extensions>
</wpt>
<wpt lat="47.2453255" lon="6.1875066">
  <name>Grande Rue</name>
  <desc>dans l'abri bus</desc>
  <type>Delivrez bookcase Bourgogne-Franche-Comté</type>
  <extensions>
    <osmand:codetype>BSB</osmand:codetype>
    <osmand:color>#00842b</osmand:color>
    <osmand:background>square</osmand:background>
    <osmand:amenity_subtype>public_bookcase</osmand:amenity_subtype>
    <osmand:icon>public_bookcase</osmand:icon>
  </extensions>
</wpt>
<wpt lat="47.7029281" lon="6.7008386">
  <name>Avenue de la Gare</name>
  <desc>devant la gare</desc>
  <type>Delivrez bookcase Bourgogne-Franche-Comté</type>
  <extensions>
    <osmand:codetype>BSB</osmand:codetype>
    <osmand:color>#00842b</osmand:color>
    <osmand:background>square</osmand:background>
    <osmand:amenity_subtype>public_bookcase</osmand:amenity_subtype>
    <osmand:icon>public_bookcase</osmand:icon>
  </extensions>
</wpt>
<wpt lat="47.07944" lon="4.87739">
  <name>VIVAL BOUILLE LORETZ</name>
  <desc>Little Free Library</desc>
  <type>Delivrez bookcase Bourgogne-Franche-Comté</type>
  <extensions>
    <osmand:codetype>BSB</osmand:codetype>
    <osmand:color>#00842b</osmand:color>
    <osmand:background>square</osmand:background>
    <osmand:amenity_subtype>public_bookcase</osmand:amenity_subtype>
    <osmand:icon>public_bookcase</osmand:icon>
  </extensions>
</wpt>
<wpt lat="47.82111" lon="3.28691">
  <name>VIVAL BATTENHEIM</name>
  <desc>Little Free Library</desc>
  <type>Delivrez bookcase Bourgogne-Franche-Comté</type>
  <extensions>
    <osmand:codetype>BSB</osmand:codetype>
    <osmand:color>#00842b</osmand:color>
    <osmand:background>square</osmand:background>
    <osmand:amenity_subtype>public_bookcase</osmand:amenity_subtype>
    <osmand:icon>public_bookcase</osmand:icon>
  </extensions>
</wpt>
<wpt lat="46.69349" lon="4.13946">
  <name>VIVAL TOULON SUR ARROUX</name>
  <desc>Little Free Library</desc>
  <type>Delivrez bookcase Bourgogne-Franche-Comté</type>
  <extensions>
    <osmand:codetype>BSB</osmand:codetype>
    <osmand:color>#00842b</osmand:color>
    <osmand:background>square</osmand:background>
    <osmand:amenity_subtype>public_bookcase</osmand:amenity_subtype>
    <osmand:icon>public_bookcase</osmand:icon>
  </extensions>
</wpt>
<wpt lat="46.53803" lon="3.77823">
  <name>VIVAL MARIZY</name>
  <desc>Little Free Library</desc>
  <type>Delivrez bookcase Bourgogne-Franche-Comté</type>
  <extensions>
    <osmand:codetype>BSB</osmand:codetype>
    <osmand:color>#00842b</osmand:color>
    <osmand:background>square</osmand:background>
    <osmand:amenity_subtype>public_bookcase</osmand:amenity_subtype>
    <osmand:icon>public_bookcase</osmand:icon>
  </extensions>
</wpt>
<wpt lat="47.95111" lon="3.87833">
  <name>VIVAL FLOGNY LA CHAPELLE</name>
  <desc>Little Free Library</desc>
  <type>Delivrez bookcase Bourgogne-Franche-Comté</type>
  <extensions>
    <osmand:codetype>BSB</osmand:codetype>
    <osmand:color>#00842b</osmand:color>
    <osmand:background>square</osmand:background>
    <osmand:amenity_subtype>public_bookcase</osmand:amenity_subtype>
    <osmand:icon>public_bookcase</osmand:icon>
  </extensions>
</wpt>
<wpt lat="47.38416" lon="4.17444">
  <name>VIVAL LA ROCHE EN BRENIL</name>
  <desc>Little Free Library</desc>
  <type>Delivrez bookcase Bourgogne-Franche-Comté</type>
  <extensions>
    <osmand:codetype>BSB</osmand:codetype>
    <osmand:color>#00842b</osmand:color>
    <osmand:background>square</osmand:background>
    <osmand:amenity_subtype>public_bookcase</osmand:amenity_subtype>
    <osmand:icon>public_bookcase</osmand:icon>
  </extensions>
</wpt>
<wpt lat="46.3096491" lon="4.8105557">
  <name>Rue Ambroise Paré</name>
  <desc>À côté de l'église</desc>
  <type>Delivrez bookcase Bourgogne-Franche-Comté</type>
  <extensions>
    <osmand:codetype>BSB</osmand:codetype>
    <osmand:color>#00842b</osmand:color>
    <osmand:background>square</osmand:background>
    <osmand:amenity_subtype>public_bookcase</osmand:amenity_subtype>
    <osmand:icon>public_bookcase</osmand:icon>
  </extensions>
</wpt>
<wpt lat="46.7670129" lon="4.8333352">
  <name>Rue du Champ Rosey</name>
  <desc>_</desc>
  <type>Delivrez bookcase Bourgogne-Franche-Comté</type>
  <extensions>
    <osmand:codetype>BSB</osmand:codetype>
    <osmand:color>#00842b</osmand:color>
    <osmand:background>square</osmand:background>
    <osmand:amenity_subtype>public_bookcase</osmand:amenity_subtype>
    <osmand:icon>public_bookcase</osmand:icon>
  </extensions>
</wpt>
<wpt lat="47.0425767" lon="5.414235">
  <name>Avenue Kennedy</name>
  <desc>Devant magasin la boutique d'emy</desc>
  <type>Delivrez bookcase Bourgogne-Franche-Comté</type>
  <extensions>
    <osmand:codetype>BSB</osmand:codetype>
    <osmand:color>#00842b</osmand:color>
    <osmand:background>square</osmand:background>
    <osmand:amenity_subtype>public_bookcase</osmand:amenity_subtype>
    <osmand:icon>public_bookcase</osmand:icon>
  </extensions>
</wpt>
<wpt lat="47.1654443" lon="5.5649885">
  <name>Rue Charles Blanc</name>
  <desc>Abri bus école</desc>
  <type>Delivrez bookcase Bourgogne-Franche-Comté</type>
  <extensions>
    <osmand:codetype>BSB</osmand:codetype>
    <osmand:color>#00842b</osmand:color>
    <osmand:background>square</osmand:background>
    <osmand:amenity_subtype>public_bookcase</osmand:amenity_subtype>
    <osmand:icon>public_bookcase</osmand:icon>
  </extensions>
</wpt>
<wpt lat="47.1452718" lon="5.4310025">
  <name>Place de l'Église</name>
  <desc>ancienne cabine téléphonique</desc>
  <type>Delivrez bookcase Bourgogne-Franche-Comté</type>
  <extensions>
    <osmand:codetype>BSB</osmand:codetype>
    <osmand:color>#00842b</osmand:color>
    <osmand:background>square</osmand:background>
    <osmand:amenity_subtype>public_bookcase</osmand:amenity_subtype>
    <osmand:icon>public_bookcase</osmand:icon>
  </extensions>
</wpt>
<wpt lat="46.7693443" lon="4.8285576">
  <name>Place Jean Jaurès</name>
  <desc>Cabane à lire</desc>
  <type>Delivrez bookcase Bourgogne-Franche-Comté</type>
  <extensions>
    <osmand:codetype>BSB</osmand:codetype>
    <osmand:color>#00842b</osmand:color>
    <osmand:background>square</osmand:background>
    <osmand:amenity_subtype>public_bookcase</osmand:amenity_subtype>
    <osmand:icon>public_bookcase</osmand:icon>
  </extensions>
</wpt>
<wpt lat="46.3891875" lon="4.8339334">
  <name>Place de la Mairie</name>
  <desc>Devant la mairie</desc>
  <type>Delivrez bookcase Bourgogne-Franche-Comté</type>
  <extensions>
    <osmand:codetype>BSB</osmand:codetype>
    <osmand:color>#00842b</osmand:color>
    <osmand:background>square</osmand:background>
    <osmand:amenity_subtype>public_bookcase</osmand:amenity_subtype>
    <osmand:icon>public_bookcase</osmand:icon>
  </extensions>
</wpt>
<wpt lat="46.4211026" lon="4.8228263">
  <name>Place de la Mairie</name>
  <desc>A côté de la bibliothèque</desc>
  <type>Delivrez bookcase Bourgogne-Franche-Comté</type>
  <extensions>
    <osmand:codetype>BSB</osmand:codetype>
    <osmand:color>#00842b</osmand:color>
    <osmand:background>square</osmand:background>
    <osmand:amenity_subtype>public_bookcase</osmand:amenity_subtype>
    <osmand:icon>public_bookcase</osmand:icon>
  </extensions>
</wpt>
<wpt lat="46.337917" lon="4.7073727">
  <name>Route Alphonse de Lamartine</name>
  <desc>vers l'arrêt de bus</desc>
  <type>Delivrez bookcase Bourgogne-Franche-Comté</type>
  <extensions>
    <osmand:codetype>BSB</osmand:codetype>
    <osmand:color>#00842b</osmand:color>
    <osmand:background>square</osmand:background>
    <osmand:amenity_subtype>public_bookcase</osmand:amenity_subtype>
    <osmand:icon>public_bookcase</osmand:icon>
  </extensions>
</wpt>
<wpt lat="47.4975437" lon="3.882322">
  <name>Place des Tilleuls</name>
  <desc>Vers l'aire de jeux pour enfants &quot;Les Galopins&quot;</desc>
  <type>Delivrez bookcase Bourgogne-Franche-Comté</type>
  <extensions>
    <osmand:codetype>BSB</osmand:codetype>
    <osmand:color>#00842b</osmand:color>
    <osmand:background>square</osmand:background>
    <osmand:amenity_subtype>public_bookcase</osmand:amenity_subtype>
    <osmand:icon>public_bookcase</osmand:icon>
  </extensions>
</wpt>
<wpt lat="47.4921029" lon="3.8723035">
  <name>Ruelle d'Orbigny</name>
  <desc>Face au numéro 2</desc>
  <type>Delivrez bookcase Bourgogne-Franche-Comté</type>
  <extensions>
    <osmand:codetype>BSB</osmand:codetype>
    <osmand:color>#00842b</osmand:color>
    <osmand:background>square</osmand:background>
    <osmand:amenity_subtype>public_bookcase</osmand:amenity_subtype>
    <osmand:icon>public_bookcase</osmand:icon>
  </extensions>
</wpt>
<wpt lat="47.4877491" lon="3.8592458">
  <name>Route d'Island</name>
  <desc>Square Chemin de la Mardelle</desc>
  <type>Delivrez bookcase Bourgogne-Franche-Comté</type>
  <extensions>
    <osmand:codetype>BSB</osmand:codetype>
    <osmand:color>#00842b</osmand:color>
    <osmand:background>square</osmand:background>
    <osmand:amenity_subtype>public_bookcase</osmand:amenity_subtype>
    <osmand:icon>public_bookcase</osmand:icon>
  </extensions>
</wpt>
<wpt lat="47.4898076" lon="3.8612425">
  <name>D957</name>
  <desc>Place de la Mairie</desc>
  <type>Delivrez bookcase Bourgogne-Franche-Comté</type>
  <extensions>
    <osmand:codetype>BSB</osmand:codetype>
    <osmand:color>#00842b</osmand:color>
    <osmand:background>square</osmand:background>
    <osmand:amenity_subtype>public_bookcase</osmand:amenity_subtype>
    <osmand:icon>public_bookcase</osmand:icon>
  </extensions>
</wpt>
<wpt lat="47.6230731" lon="6.8632924">
  <name>Rue du Stand</name>
  <desc>A l'angle de la rue du stand et de la rue du Bosmont</desc>
  <type>Delivrez bookcase Bourgogne-Franche-Comté</type>
  <extensions>
    <osmand:codetype>BSB</osmand:codetype>
    <osmand:color>#00842b</osmand:color>
    <osmand:background>square</osmand:background>
    <osmand:amenity_subtype>public_bookcase</osmand:amenity_subtype>
    <osmand:icon>public_bookcase</osmand:icon>
  </extensions>
</wpt>
<wpt lat="47.6191716" lon="6.8501347">
  <name>Rue Edmond Miellet</name>
  <desc>abri bus@@__</desc>
  <type>Delivrez bookcase Bourgogne-Franche-Comté</type>
  <extensions>
    <osmand:codetype>BSB</osmand:codetype>
    <osmand:color>#00842b</osmand:color>
    <osmand:background>square</osmand:background>
    <osmand:amenity_subtype>public_bookcase</osmand:amenity_subtype>
    <osmand:icon>public_bookcase</osmand:icon>
  </extensions>
</wpt>
<wpt lat="47.2220559" lon="5.5358415">
  <name>Place de la Mairie</name>
  <desc></desc>
  <type>Delivrez bookcase Bourgogne-Franche-Comté</type>
  <extensions>
    <osmand:codetype>BSB</osmand:codetype>
    <osmand:color>#00842b</osmand:color>
    <osmand:background>square</osmand:background>
    <osmand:amenity_subtype>public_bookcase</osmand:amenity_subtype>
    <osmand:icon>public_bookcase</osmand:icon>
  </extensions>
</wpt>
<wpt lat="46.389222" lon="5.8643802">
  <name>Rue du Pré</name>
  <desc>test</desc>
  <type>Delivrez bookcase Bourgogne-Franche-Comté</type>
  <extensions>
    <osmand:codetype>BSB</osmand:codetype>
    <osmand:color>#00842b</osmand:color>
    <osmand:background>square</osmand:background>
    <osmand:amenity_subtype>public_bookcase</osmand:amenity_subtype>
    <osmand:icon>public_bookcase</osmand:icon>
  </extensions>
</wpt>
<wpt lat="46.8056507" lon="4.4206234">
  <name>11 PLACE SCHNEIDER</name>
  <desc>En face de l'hôtel-restaurant LE CREUSOT HÔTEL</desc>
  <type>Delivrez bookcase Bourgogne-Franche-Comté</type>
  <extensions>
    <osmand:codetype>BSB</osmand:codetype>
    <osmand:color>#00842b</osmand:color>
    <osmand:background>square</osmand:background>
    <osmand:amenity_subtype>public_bookcase</osmand:amenity_subtype>
    <osmand:icon>public_bookcase</osmand:icon>
  </extensions>
</wpt>
<wpt lat="46.8054353" lon="4.4231665">
  <name>PARC DE LA VERRERIE</name>
  <desc>Espace jeux pour enfants</desc>
  <type>Delivrez bookcase Bourgogne-Franche-Comté</type>
  <extensions>
    <osmand:codetype>BSB</osmand:codetype>
    <osmand:color>#00842b</osmand:color>
    <osmand:background>square</osmand:background>
    <osmand:amenity_subtype>public_bookcase</osmand:amenity_subtype>
    <osmand:icon>public_bookcase</osmand:icon>
  </extensions>
</wpt>
<wpt lat="46.956413928795854" lon="6.011699438095094">
  <name>Sur la croix</name>
  <desc>Arrêt de bus</desc>
  <type>Delivrez bookcase Bourgogne-Franche-Comté</type>
  <extensions>
    <osmand:codetype>BSB</osmand:codetype>
    <osmand:color>#00842b</osmand:color>
    <osmand:background>square</osmand:background>
    <osmand:amenity_subtype>public_bookcase</osmand:amenity_subtype>
    <osmand:icon>public_bookcase</osmand:icon>
  </extensions>
</wpt>
<wpt lat="47.9333637" lon="3.1061189">
  <name>2 route de Montargis</name>
  <desc>Devant la Mairie</desc>
  <type>Delivrez bookcase Bourgogne-Franche-Comté</type>
  <extensions>
    <osmand:codetype>BSB</osmand:codetype>
    <osmand:color>#00842b</osmand:color>
    <osmand:background>square</osmand:background>
    <osmand:amenity_subtype>public_bookcase</osmand:amenity_subtype>
    <osmand:icon>public_bookcase</osmand:icon>
  </extensions>
</wpt>
<wpt lat="47.393239" lon="6.497117">
  <name>Rue porte des noyes</name>
  <desc>Proche camping</desc>
  <type>Delivrez bookcase Bourgogne-Franche-Comté</type>
  <extensions>
    <osmand:codetype>BSB</osmand:codetype>
    <osmand:color>#00842b</osmand:color>
    <osmand:background>square</osmand:background>
    <osmand:amenity_subtype>public_bookcase</osmand:amenity_subtype>
    <osmand:icon>public_bookcase</osmand:icon>
  </extensions>
</wpt>
<wpt lat="46.4656996" lon="5.7136118">
  <name>La mairie</name>
  <desc>Dans une cabine téléphonique, adossée à la mairie de la commune</desc>
  <type>Delivrez bookcase Bourgogne-Franche-Comté</type>
  <extensions>
    <osmand:codetype>BSB</osmand:codetype>
    <osmand:color>#00842b</osmand:color>
    <osmand:background>square</osmand:background>
    <osmand:amenity_subtype>public_bookcase</osmand:amenity_subtype>
    <osmand:icon>public_bookcase</osmand:icon>
  </extensions>
</wpt>
<wpt lat="47.796935" lon="3.5535254">
  <name>30 rue Pierre et Marie Curie</name>
  <desc>Petite boîte à livres faites par des particuliers.Parfois il y a aussi des objets, des chaussures, vêtements... un bon endroit de troc !</desc>
  <type>Delivrez bookcase Bourgogne-Franche-Comté</type>
  <extensions>
    <osmand:codetype>BSB</osmand:codetype>
    <osmand:color>#00842b</osmand:color>
    <osmand:background>square</osmand:background>
    <osmand:amenity_subtype>public_bookcase</osmand:amenity_subtype>
    <osmand:icon>public_bookcase</osmand:icon>
  </extensions>
</wpt>
<wpt lat="48.0011802" lon="3.7181436">
  <name>magasin atac entree de saint florentin</name>
  <desc>à l interieur du magasin</desc>
  <type>Delivrez bookcase Bourgogne-Franche-Comté</type>
  <extensions>
    <osmand:codetype>BSB</osmand:codetype>
    <osmand:color>#00842b</osmand:color>
    <osmand:background>square</osmand:background>
    <osmand:amenity_subtype>public_bookcase</osmand:amenity_subtype>
    <osmand:icon>public_bookcase</osmand:icon>
  </extensions>
</wpt>
<wpt lat="48.1845187" lon="3.2790715">
  <name>parc du moulin a tan</name>
  <desc></desc>
  <type>Delivrez bookcase Bourgogne-Franche-Comté</type>
  <extensions>
    <osmand:codetype>BSB</osmand:codetype>
    <osmand:color>#00842b</osmand:color>
    <osmand:background>square</osmand:background>
    <osmand:amenity_subtype>public_bookcase</osmand:amenity_subtype>
    <osmand:icon>public_bookcase</osmand:icon>
  </extensions>
</wpt>
<wpt lat="48.131865" lon="3.487301">
  <name>sur la place pres du café dans une cabine téléphonique</name>
  <desc>la route departementale traverse cerisiers </desc>
  <type>Delivrez bookcase Bourgogne-Franche-Comté</type>
  <extensions>
    <osmand:codetype>BSB</osmand:codetype>
    <osmand:color>#00842b</osmand:color>
    <osmand:background>square</osmand:background>
    <osmand:amenity_subtype>public_bookcase</osmand:amenity_subtype>
    <osmand:icon>public_bookcase</osmand:icon>
  </extensions>
</wpt>
<wpt lat="46.55605" lon="4.567875">
  <name>76  Route de ST GENGOUX</name>
  <desc>Au centre du bourg près du monument aux morts</desc>
  <type>Delivrez bookcase Bourgogne-Franche-Comté</type>
  <extensions>
    <osmand:codetype>BSB</osmand:codetype>
    <osmand:color>#00842b</osmand:color>
    <osmand:background>square</osmand:background>
    <osmand:amenity_subtype>public_bookcase</osmand:amenity_subtype>
    <osmand:icon>public_bookcase</osmand:icon>
  </extensions>
</wpt>
<wpt lat="46.601968" lon="5.828704">
  <name>Centre village</name>
  <desc></desc>
  <type>Delivrez bookcase Bourgogne-Franche-Comté</type>
  <extensions>
    <osmand:codetype>BSB</osmand:codetype>
    <osmand:color>#00842b</osmand:color>
    <osmand:background>square</osmand:background>
    <osmand:amenity_subtype>public_bookcase</osmand:amenity_subtype>
    <osmand:icon>public_bookcase</osmand:icon>
  </extensions>
</wpt>
<wpt lat="46.750697" lon="5.895906">
  <name>Avenue Edouard HERRIOT</name>
  <desc></desc>
  <type>Delivrez bookcase Bourgogne-Franche-Comté</type>
  <extensions>
    <osmand:codetype>BSB</osmand:codetype>
    <osmand:color>#00842b</osmand:color>
    <osmand:background>square</osmand:background>
    <osmand:amenity_subtype>public_bookcase</osmand:amenity_subtype>
    <osmand:icon>public_bookcase</osmand:icon>
  </extensions>
</wpt>
<wpt lat="46.660482415983651" lon="4.622154235839845">
  <name>Le bourg route D28</name>
  <desc>Abri bus près de la mairie</desc>
  <type>Delivrez bookcase Bourgogne-Franche-Comté</type>
  <extensions>
    <osmand:codetype>BSB</osmand:codetype>
    <osmand:color>#00842b</osmand:color>
    <osmand:background>square</osmand:background>
    <osmand:amenity_subtype>public_bookcase</osmand:amenity_subtype>
    <osmand:icon>public_bookcase</osmand:icon>
  </extensions>
</wpt>
<wpt lat="46.6131181" lon="4.4987993">
  <name>Le bourg route D105</name>
  <desc>Cour de l'école</desc>
  <type>Delivrez bookcase Bourgogne-Franche-Comté</type>
  <extensions>
    <osmand:codetype>BSB</osmand:codetype>
    <osmand:color>#00842b</osmand:color>
    <osmand:background>square</osmand:background>
    <osmand:amenity_subtype>public_bookcase</osmand:amenity_subtype>
    <osmand:icon>public_bookcase</osmand:icon>
  </extensions>
</wpt>
<wpt lat="47.3964188" lon="6.6721316">
  <name>9, rue des Fontaines</name>
  <desc>Grande boîte à livres couverte au centre du village.</desc>
  <type>Delivrez bookcase Bourgogne-Franche-Comté</type>
  <extensions>
    <osmand:codetype>BSB</osmand:codetype>
    <osmand:color>#00842b</osmand:color>
    <osmand:background>square</osmand:background>
    <osmand:amenity_subtype>public_bookcase</osmand:amenity_subtype>
    <osmand:icon>public_bookcase</osmand:icon>
  </extensions>
</wpt>
<wpt lat="46.652470425502997" lon="4.652538299560548">
  <name>Le Bourg</name>
  <desc>Ancienne cabine telephonique</desc>
  <type>Delivrez bookcase Bourgogne-Franche-Comté</type>
  <extensions>
    <osmand:codetype>BSB</osmand:codetype>
    <osmand:color>#00842b</osmand:color>
    <osmand:background>square</osmand:background>
    <osmand:amenity_subtype>public_bookcase</osmand:amenity_subtype>
    <osmand:icon>public_bookcase</osmand:icon>
  </extensions>
</wpt>
<wpt lat="46.8341502" lon="4.8426199">
  <name>45 bis Rue du bourg</name>
  <desc>A côté de la boulangerie</desc>
  <type>Delivrez bookcase Bourgogne-Franche-Comté</type>
  <extensions>
    <osmand:codetype>BSB</osmand:codetype>
    <osmand:color>#00842b</osmand:color>
    <osmand:background>square</osmand:background>
    <osmand:amenity_subtype>public_bookcase</osmand:amenity_subtype>
    <osmand:icon>public_bookcase</osmand:icon>
  </extensions>
</wpt>
<wpt lat="47.103127" lon="5.883235">
  <name>Place de la mairie</name>
  <desc></desc>
  <type>Delivrez bookcase Bourgogne-Franche-Comté</type>
  <extensions>
    <osmand:codetype>BSB</osmand:codetype>
    <osmand:color>#00842b</osmand:color>
    <osmand:background>square</osmand:background>
    <osmand:amenity_subtype>public_bookcase</osmand:amenity_subtype>
    <osmand:icon>public_bookcase</osmand:icon>
  </extensions>
</wpt>
<wpt lat="46.7676721" lon="4.8344241">
  <name>Parc Comtesse-Keller, rue Auguste Martin</name>
  <desc>8 boîtes à lire en forme de nichoirs réparties dans le parc.</desc>
  <type>Delivrez bookcase Bourgogne-Franche-Comté</type>
  <extensions>
    <osmand:codetype>BSB</osmand:codetype>
    <osmand:color>#00842b</osmand:color>
    <osmand:background>square</osmand:background>
    <osmand:amenity_subtype>public_bookcase</osmand:amenity_subtype>
    <osmand:icon>public_bookcase</osmand:icon>
  </extensions>
</wpt>
<wpt lat="46.652757" lon="5.486366">
  <name>Rue Prosper Sordet</name>
  <desc>Sur le mur de la mairie. A l'initiative du Lions Club</desc>
  <type>Delivrez bookcase Bourgogne-Franche-Comté</type>
  <extensions>
    <osmand:codetype>BSB</osmand:codetype>
    <osmand:color>#00842b</osmand:color>
    <osmand:background>square</osmand:background>
    <osmand:amenity_subtype>public_bookcase</osmand:amenity_subtype>
    <osmand:icon>public_bookcase</osmand:icon>
  </extensions>
</wpt>
<wpt lat="47.254766844727207" lon="6.02027177810669">
  <name>Parc Buffon</name>
  <desc></desc>
  <type>Delivrez bookcase Bourgogne-Franche-Comté</type>
  <extensions>
    <osmand:codetype>BSB</osmand:codetype>
    <osmand:color>#00842b</osmand:color>
    <osmand:background>square</osmand:background>
    <osmand:amenity_subtype>public_bookcase</osmand:amenity_subtype>
    <osmand:icon>public_bookcase</osmand:icon>
  </extensions>
</wpt>
<wpt lat="47.8123909" lon="6.3804544">
  <name>Place du 8 mai 1945</name>
  <desc></desc>
  <type>Delivrez bookcase Bourgogne-Franche-Comté</type>
  <extensions>
    <osmand:codetype>BSB</osmand:codetype>
    <osmand:color>#00842b</osmand:color>
    <osmand:background>square</osmand:background>
    <osmand:amenity_subtype>public_bookcase</osmand:amenity_subtype>
    <osmand:icon>public_bookcase</osmand:icon>
  </extensions>
</wpt>
<wpt lat="47.820214893508044" lon="6.376833915710449">
  <name>Thermes</name>
  <desc>Boîte à Lire dans le parc thermal</desc>
  <type>Delivrez bookcase Bourgogne-Franche-Comté</type>
  <extensions>
    <osmand:codetype>BSB</osmand:codetype>
    <osmand:color>#00842b</osmand:color>
    <osmand:background>square</osmand:background>
    <osmand:amenity_subtype>public_bookcase</osmand:amenity_subtype>
    <osmand:icon>public_bookcase</osmand:icon>
  </extensions>
</wpt>
<wpt lat="47.8216472" lon="6.375366">
  <name>Rue Clémenceau</name>
  <desc>BAL dans une ancienne cabine téléphonique rouge</desc>
  <type>Delivrez bookcase Bourgogne-Franche-Comté</type>
  <extensions>
    <osmand:codetype>BSB</osmand:codetype>
    <osmand:color>#00842b</osmand:color>
    <osmand:background>square</osmand:background>
    <osmand:amenity_subtype>public_bookcase</osmand:amenity_subtype>
    <osmand:icon>public_bookcase</osmand:icon>
  </extensions>
</wpt>
<wpt lat="46.7448476" lon="4.4736861">
  <name>24 RUE DE MACON</name>
  <desc>Sur le mur de clôture maison .</desc>
  <type>Delivrez bookcase Bourgogne-Franche-Comté</type>
  <extensions>
    <osmand:codetype>BSB</osmand:codetype>
    <osmand:color>#00842b</osmand:color>
    <osmand:background>square</osmand:background>
    <osmand:amenity_subtype>public_bookcase</osmand:amenity_subtype>
    <osmand:icon>public_bookcase</osmand:icon>
  </extensions>
</wpt>
<wpt lat="46.748987" lon="4.811993">
  <name>Rue des marronniers</name>
  <desc>Nichoirs à lire à CORTELIN</desc>
  <type>Delivrez bookcase Bourgogne-Franche-Comté</type>
  <extensions>
    <osmand:codetype>BSB</osmand:codetype>
    <osmand:color>#00842b</osmand:color>
    <osmand:background>square</osmand:background>
    <osmand:amenity_subtype>public_bookcase</osmand:amenity_subtype>
    <osmand:icon>public_bookcase</osmand:icon>
  </extensions>
</wpt>
<wpt lat="46.7663984" lon="4.8179875">
  <name>PLACE DU CARCAN</name>
  <desc>ARBRE à LIRE  à TAISEY</desc>
  <type>Delivrez bookcase Bourgogne-Franche-Comté</type>
  <extensions>
    <osmand:codetype>BSB</osmand:codetype>
    <osmand:color>#00842b</osmand:color>
    <osmand:background>square</osmand:background>
    <osmand:amenity_subtype>public_bookcase</osmand:amenity_subtype>
    <osmand:icon>public_bookcase</osmand:icon>
  </extensions>
</wpt>
<wpt lat="46.63009" lon="4.4778269">
  <name>Pla ce du chateau</name>
  <desc>En face du parking de la maison de retraite PLACE DU CHATEAU</desc>
  <type>Delivrez bookcase Bourgogne-Franche-Comté</type>
  <extensions>
    <osmand:codetype>BSB</osmand:codetype>
    <osmand:color>#00842b</osmand:color>
    <osmand:background>square</osmand:background>
    <osmand:amenity_subtype>public_bookcase</osmand:amenity_subtype>
    <osmand:icon>public_bookcase</osmand:icon>
  </extensions>
</wpt>
<wpt lat="46.8412602" lon="4.4321008">
  <name>Le bourg</name>
  <desc>Cour de la boulangerie face au lac</desc>
  <type>Delivrez bookcase Bourgogne-Franche-Comté</type>
  <extensions>
    <osmand:codetype>BSB</osmand:codetype>
    <osmand:color>#00842b</osmand:color>
    <osmand:background>square</osmand:background>
    <osmand:amenity_subtype>public_bookcase</osmand:amenity_subtype>
    <osmand:icon>public_bookcase</osmand:icon>
  </extensions>
</wpt>
<wpt lat="46.7118659" lon="4.4619256">
  <name>Le Bourg</name>
  <desc>En face la boulangerie</desc>
  <type>Delivrez bookcase Bourgogne-Franche-Comté</type>
  <extensions>
    <osmand:codetype>BSB</osmand:codetype>
    <osmand:color>#00842b</osmand:color>
    <osmand:background>square</osmand:background>
    <osmand:amenity_subtype>public_bookcase</osmand:amenity_subtype>
    <osmand:icon>public_bookcase</osmand:icon>
  </extensions>
</wpt>
<wpt lat="47.1496333" lon="6.268689">
  <name>2 rue des Granges</name>
  <desc>Petite  Boite à Lire pour voyageurs&quot; sous les arches de la mairie/école</desc>
  <type>Delivrez bookcase Bourgogne-Franche-Comté</type>
  <extensions>
    <osmand:codetype>BSB</osmand:codetype>
    <osmand:color>#00842b</osmand:color>
    <osmand:background>square</osmand:background>
    <osmand:amenity_subtype>public_bookcase</osmand:amenity_subtype>
    <osmand:icon>public_bookcase</osmand:icon>
  </extensions>
</wpt>
<wpt lat="48.2939828" lon="3.400837">
  <name>Ruelle de la Croix Blanche</name>
  <desc>Une cabane à livre construite avec plusieurs essences de bois locaux, par un bénévole passionné de menuiserie. Située à l entrée de l'école, près d'une aire de jeux et de bacs potagers partagés.</desc>
  <type>Delivrez bookcase Bourgogne-Franche-Comté</type>
  <extensions>
    <osmand:codetype>BSB</osmand:codetype>
    <osmand:color>#00842b</osmand:color>
    <osmand:background>square</osmand:background>
    <osmand:amenity_subtype>public_bookcase</osmand:amenity_subtype>
    <osmand:icon>public_bookcase</osmand:icon>
  </extensions>
</wpt>
<wpt lat="47.9556392" lon="3.5363114">
  <name>Place de l église</name>
  <desc>Derrière un arbre près du parking</desc>
  <type>Delivrez bookcase Bourgogne-Franche-Comté</type>
  <extensions>
    <osmand:codetype>BSB</osmand:codetype>
    <osmand:color>#00842b</osmand:color>
    <osmand:background>square</osmand:background>
    <osmand:amenity_subtype>public_bookcase</osmand:amenity_subtype>
    <osmand:icon>public_bookcase</osmand:icon>
  </extensions>
</wpt>
<wpt lat="46.6004466" lon="6.1161595">
  <name>rue des Carias</name>
  <desc></desc>
  <type>Delivrez bookcase Bourgogne-Franche-Comté</type>
  <extensions>
    <osmand:codetype>BSB</osmand:codetype>
    <osmand:color>#00842b</osmand:color>
    <osmand:background>square</osmand:background>
    <osmand:amenity_subtype>public_bookcase</osmand:amenity_subtype>
    <osmand:icon>public_bookcase</osmand:icon>
  </extensions>
</wpt>
<wpt lat="47.6296238" lon="4.3358414">
  <name>rue Michel Servet</name>
  <desc>Centre aquatique Amphitrite</desc>
  <type>Delivrez bookcase Bourgogne-Franche-Comté</type>
  <extensions>
    <osmand:codetype>BSB</osmand:codetype>
    <osmand:color>#00842b</osmand:color>
    <osmand:background>square</osmand:background>
    <osmand:amenity_subtype>public_bookcase</osmand:amenity_subtype>
    <osmand:icon>public_bookcase</osmand:icon>
  </extensions>
</wpt>
<wpt lat="47.2396664" lon="6.0274233">
  <name>Square Saint Amour</name>
  <desc>A l entrée du square coté Café de la  Poste</desc>
  <type>Delivrez bookcase Bourgogne-Franche-Comté</type>
  <extensions>
    <osmand:codetype>BSB</osmand:codetype>
    <osmand:color>#00842b</osmand:color>
    <osmand:background>square</osmand:background>
    <osmand:amenity_subtype>public_bookcase</osmand:amenity_subtype>
    <osmand:icon>public_bookcase</osmand:icon>
  </extensions>
</wpt>
<wpt lat="46.836764" lon="4.663571">
  <name>Aluze</name>
  <desc>Boite a lire sous l arret de bus</desc>
  <type>Delivrez bookcase Bourgogne-Franche-Comté</type>
  <extensions>
    <osmand:codetype>BSB</osmand:codetype>
    <osmand:color>#00842b</osmand:color>
    <osmand:background>square</osmand:background>
    <osmand:amenity_subtype>public_bookcase</osmand:amenity_subtype>
    <osmand:icon>public_bookcase</osmand:icon>
  </extensions>
</wpt>
<wpt lat="47.2309393" lon="6.0333958">
  <name>Parc saint Étienne</name>
  <desc></desc>
  <type>Delivrez bookcase Bourgogne-Franche-Comté</type>
  <extensions>
    <osmand:codetype>BSB</osmand:codetype>
    <osmand:color>#00842b</osmand:color>
    <osmand:background>square</osmand:background>
    <osmand:amenity_subtype>public_bookcase</osmand:amenity_subtype>
    <osmand:icon>public_bookcase</osmand:icon>
  </extensions>
</wpt>
<wpt lat="47.740458" lon="3.599956">
  <name>magasin Atac</name>
  <desc>A l'entrée  du magasin Atac à  champs sur yonne</desc>
  <type>Delivrez bookcase Bourgogne-Franche-Comté</type>
  <extensions>
    <osmand:codetype>BSB</osmand:codetype>
    <osmand:color>#00842b</osmand:color>
    <osmand:background>square</osmand:background>
    <osmand:amenity_subtype>public_bookcase</osmand:amenity_subtype>
    <osmand:icon>public_bookcase</osmand:icon>
  </extensions>
</wpt>
<wpt lat="47.0433421" lon="6.1500022">
  <name>3 bis, Grande Rue</name>
  <desc>Située sur la grande rue, près de la mairie</desc>
  <type>Delivrez bookcase Bourgogne-Franche-Comté</type>
  <extensions>
    <osmand:codetype>BSB</osmand:codetype>
    <osmand:color>#00842b</osmand:color>
    <osmand:background>square</osmand:background>
    <osmand:amenity_subtype>public_bookcase</osmand:amenity_subtype>
    <osmand:icon>public_bookcase</osmand:icon>
  </extensions>
</wpt>
<wpt lat="46.8329328" lon="4.8065385">
  <name>24 grande rue</name>
  <desc>Boite à livre devant la mairie</desc>
  <type>Delivrez bookcase Bourgogne-Franche-Comté</type>
  <extensions>
    <osmand:codetype>BSB</osmand:codetype>
    <osmand:color>#00842b</osmand:color>
    <osmand:background>square</osmand:background>
    <osmand:amenity_subtype>public_bookcase</osmand:amenity_subtype>
    <osmand:icon>public_bookcase</osmand:icon>
  </extensions>
</wpt>
<wpt lat="47.1997101" lon="6.0217984">
  <name>Rue de la fontaine</name>
  <desc>Bibliothèque de rue&quot; aménagée dans un ancien abribus à côté du restaurant Gladoux.</desc>
  <type>Delivrez bookcase Bourgogne-Franche-Comté</type>
  <extensions>
    <osmand:codetype>BSB</osmand:codetype>
    <osmand:color>#00842b</osmand:color>
    <osmand:background>square</osmand:background>
    <osmand:amenity_subtype>public_bookcase</osmand:amenity_subtype>
    <osmand:icon>public_bookcase</osmand:icon>
  </extensions>
</wpt>
<wpt lat="47.3109037" lon="5.1041273">
  <name>CC Carrefour Quetigny - Avenue de Bourgogne</name>
  <desc>Pomme de Pain QUETIGNY</desc>
  <type>Delivrez bookcase Bourgogne-Franche-Comté</type>
  <extensions>
    <osmand:codetype>BSB</osmand:codetype>
    <osmand:color>#00842b</osmand:color>
    <osmand:background>square</osmand:background>
    <osmand:amenity_subtype>public_bookcase</osmand:amenity_subtype>
    <osmand:icon>public_bookcase</osmand:icon>
  </extensions>
</wpt>
<wpt lat="47.340641" lon="5.823649">
  <name>Grande rue</name>
  <desc>Contre l arrêt de bus à côté de la fontaine</desc>
  <type>Delivrez bookcase Bourgogne-Franche-Comté</type>
  <extensions>
    <osmand:codetype>BSB</osmand:codetype>
    <osmand:color>#00842b</osmand:color>
    <osmand:background>square</osmand:background>
    <osmand:amenity_subtype>public_bookcase</osmand:amenity_subtype>
    <osmand:icon>public_bookcase</osmand:icon>
  </extensions>
</wpt>
<wpt lat="47.6214281" lon="4.3338809">
  <name>Place Gambetta</name>
  <desc>À l entrée du marché couvert</desc>
  <type>Delivrez bookcase Bourgogne-Franche-Comté</type>
  <extensions>
    <osmand:codetype>BSB</osmand:codetype>
    <osmand:color>#00842b</osmand:color>
    <osmand:background>square</osmand:background>
    <osmand:amenity_subtype>public_bookcase</osmand:amenity_subtype>
    <osmand:icon>public_bookcase</osmand:icon>
  </extensions>
</wpt>
<wpt lat="47.6186998" lon="4.3362696">
  <name>Gare SNCF</name>
  <desc></desc>
  <type>Delivrez bookcase Bourgogne-Franche-Comté</type>
  <extensions>
    <osmand:codetype>BSB</osmand:codetype>
    <osmand:color>#00842b</osmand:color>
    <osmand:background>square</osmand:background>
    <osmand:amenity_subtype>public_bookcase</osmand:amenity_subtype>
    <osmand:icon>public_bookcase</osmand:icon>
  </extensions>
</wpt>
<wpt lat="46.539341" lon="4.688779">
  <name>1 rue de l hermitage</name>
  <desc>Boite à échange,  livres et objetsà l angle de la D 187  et de l'impasse de l hermitage.</desc>
  <type>Delivrez bookcase Bourgogne-Franche-Comté</type>
  <extensions>
    <osmand:codetype>BSB</osmand:codetype>
    <osmand:color>#00842b</osmand:color>
    <osmand:background>square</osmand:background>
    <osmand:amenity_subtype>public_bookcase</osmand:amenity_subtype>
    <osmand:icon>public_bookcase</osmand:icon>
  </extensions>
</wpt>
<wpt lat="46.5121949" lon="4.6687016">
  <name>en Nolainge, en direction de Flagy, à côté du GAEC Parfums de terroir</name>
  <desc>boite à livres</desc>
  <type>Delivrez bookcase Bourgogne-Franche-Comté</type>
  <extensions>
    <osmand:codetype>BSB</osmand:codetype>
    <osmand:color>#00842b</osmand:color>
    <osmand:background>square</osmand:background>
    <osmand:amenity_subtype>public_bookcase</osmand:amenity_subtype>
    <osmand:icon>public_bookcase</osmand:icon>
  </extensions>
</wpt>
<wpt lat="47.5055834" lon="7.0099188">
  <name>21 Avenue du général de Gaulle</name>
  <desc>Une petite boîte à livres est disponible au café de la gare</desc>
  <type>Delivrez bookcase Bourgogne-Franche-Comté</type>
  <extensions>
    <osmand:codetype>BSB</osmand:codetype>
    <osmand:color>#00842b</osmand:color>
    <osmand:background>square</osmand:background>
    <osmand:amenity_subtype>public_bookcase</osmand:amenity_subtype>
    <osmand:icon>public_bookcase</osmand:icon>
  </extensions>
</wpt>
<wpt lat="46.4455879" lon="4.2916817">
  <name>Route de Viry</name>
  <desc>La boîte à lire est située au sein du camping municipal. Elle est bien sûr accessible à tous et à toutes. Livres jeunesse et pour adultes s'y côtoient.</desc>
  <type>Delivrez bookcase Bourgogne-Franche-Comté</type>
  <extensions>
    <osmand:codetype>BSB</osmand:codetype>
    <osmand:color>#00842b</osmand:color>
    <osmand:background>square</osmand:background>
    <osmand:amenity_subtype>public_bookcase</osmand:amenity_subtype>
    <osmand:icon>public_bookcase</osmand:icon>
  </extensions>
</wpt>
<wpt lat="46.4379581" lon="4.6617668">
  <name>entre le parking du Prado et l hôtel Cluny Séjour</name>
  <desc></desc>
  <type>Delivrez bookcase Bourgogne-Franche-Comté</type>
  <extensions>
    <osmand:codetype>BSB</osmand:codetype>
    <osmand:color>#00842b</osmand:color>
    <osmand:background>square</osmand:background>
    <osmand:amenity_subtype>public_bookcase</osmand:amenity_subtype>
    <osmand:icon>public_bookcase</osmand:icon>
  </extensions>
</wpt>
<wpt lat="46.8751099" lon="4.7389211">
  <name>32 place sainte marie</name>
  <desc>Boîte à livre située devant le commerce Vival</desc>
  <type>Delivrez bookcase Bourgogne-Franche-Comté</type>
  <extensions>
    <osmand:codetype>BSB</osmand:codetype>
    <osmand:color>#00842b</osmand:color>
    <osmand:background>square</osmand:background>
    <osmand:amenity_subtype>public_bookcase</osmand:amenity_subtype>
    <osmand:icon>public_bookcase</osmand:icon>
  </extensions>
</wpt>
<wpt lat="46.7833527" lon="4.8488105">
  <name>square Chabas, Boulevard de la république</name>
  <desc>elle se trouve dans le petit parc</desc>
  <type>Delivrez bookcase Bourgogne-Franche-Comté</type>
  <extensions>
    <osmand:codetype>BSB</osmand:codetype>
    <osmand:color>#00842b</osmand:color>
    <osmand:background>square</osmand:background>
    <osmand:amenity_subtype>public_bookcase</osmand:amenity_subtype>
    <osmand:icon>public_bookcase</osmand:icon>
  </extensions>
</wpt>
<wpt lat="46.676349" lon="4.383414">
  <name>Boulevard du Plessis, aux abords du lac</name>
  <desc></desc>
  <type>Delivrez bookcase Bourgogne-Franche-Comté</type>
  <extensions>
    <osmand:codetype>BSB</osmand:codetype>
    <osmand:color>#00842b</osmand:color>
    <osmand:background>square</osmand:background>
    <osmand:amenity_subtype>public_bookcase</osmand:amenity_subtype>
    <osmand:icon>public_bookcase</osmand:icon>
  </extensions>
</wpt>