{
"type": "FeatureCollection",
"crs": { "type": "name", "properties": { "name": "urn:ogc:def:crs:OGC:1.3:CRS84" } },
"features": [
{ "type": "Feature", "properties": { "name": "Allée du Prunelli", "codetype": "BSB", "type": "Delivrez bookcase Corse", "desc": "Dans la galerie commerçante Géant Casino près des toilettes", "color": "#00842b", "background": "square", "website": "https://delivrez.fr/public/posts/img.634d5a936212e.png", "amenity_subtype": "public_bookcase", "icon": "public_bookcase" }, "geometry": { "type": "Point", "coordinates": [ 8.7769391, 41.9495344 ] } },
{ "type": "Feature", "properties": { "name": "Cours Napoléon", "codetype": "BSB", "type": "Delivrez bookcase Corse", "desc": "Face auto distribution", "color": "#00842b", "background": "square", "website": null, "amenity_subtype": "public_bookcase", "icon": "public_bookcase" }, "geometry": { "type": "Point", "coordinates": [ 8.739299, 41.930239 ] } },
{ "type": "Feature", "properties": { "name": "Casino", "codetype": "BSB", "type": "Delivrez bookcase Corse", "desc": "A la sortie du Casino, près des caisses, il y a une petite caisse de livres en libre service !", "color": "#00842b", "background": "square", "website": null, "amenity_subtype": "public_bookcase", "icon": "public_bookcase" }, "geometry": { "type": "Point", "coordinates": [ 8.9380841, 42.6326037 ] } },
{ "type": "Feature", "properties": { "name": "Résidence golfe du valinco, Olmeto plage", "codetype": "BSB", "type": "Delivrez bookcase Corse", "desc": "Petite boite à lire au rond point du Motel et du Spar, à 25 mètres de la plage, pratique pour une petite lecture les pieds dans l'eau.", "color": "#00842b", "background": "square", "website": null, "amenity_subtype": "public_bookcase", "icon": "public_bookcase" }, "geometry": { "type": "Point", "coordinates": [ 8.840952515602114, 41.699063978799174 ] } },
{ "type": "Feature", "properties": { "name": "Bâtiment U palazzu", "codetype": "BSB", "type": "Delivrez bookcase Corse", "desc": "La boîte à lire se trouve à l'entrée de la médiathèque. Des livres pour les petits et grands .Réapprovisionnée tous les jours ...Une vrai mine ...", "color": "#00842b", "background": "square", "website": null, "amenity_subtype": "public_bookcase", "icon": "public_bookcase" }, "geometry": { "type": "Point", "coordinates": [ 9.060516, 42.081804 ] } },
{ "type": "Feature", "properties": { "name": "Université", "codetype": "BSB", "type": "Delivrez bookcase Corse", "desc": "A votre disposition dans le hall du bâtiment Desanti-bibliothèque universitaire.", "color": "#00842b", "background": "square", "website": null, "amenity_subtype": "public_bookcase", "icon": "public_bookcase" }, "geometry": { "type": "Point", "coordinates": [ 9.1528366, 42.2989986 ] } },
{ "type": "Feature", "properties": { "name": "Place Saint Nicolas ", "codetype": "BSB", "type": "Delivrez bookcase Corse", "desc": "Boîte à lire aménagée dans une ancienne cabine téléphonique.", "color": "#00842b", "background": "square", "website": null, "amenity_subtype": "public_bookcase", "icon": "public_bookcase" }, "geometry": { "type": "Point", "coordinates": [ 9.4512278, 42.7005856 ] } },
{ "type": "Feature", "properties": { "name": "Migliacciaro", "codetype": "BSB", "type": "Delivrez bookcase Corse", "desc": "Armoire à lire près de la boutique Bio Sous les Glycines.", "color": "#00842b", "background": "square", "website": null, "amenity_subtype": "public_bookcase", "icon": "public_bookcase" }, "geometry": { "type": "Point", "coordinates": [ 9.399904, 41.997829 ] } }
]
}
