<?xml version="1.0"?>
<gpx version="1.1" creator="GDAL 3.4.3" xmlns:xsi="http://www.w3.org/2001/XMLSchema-instance" xmlns:osmand="https://osmand.net" xmlns="http://www.topografix.com/GPX/1/1" xsi:schemaLocation="http://www.topografix.com/GPX/1/1 http://www.topografix.com/GPX/1/1/gpx.xsd">
<metadata><bounds minlat="41.699063978799174" minlon="8.739299000000001" maxlat="42.700585599999997" maxlon="9.451227800000000"/></metadata>                    
<wpt lat="41.9495344" lon="8.7769391">
  <name>Allée du Prunelli</name>
  <desc>Dans la galerie commerçante Géant Casino près des toilettes</desc>
  <type>delivrez bookcase</type>
  <extensions>
    <osmand:codetype>BSB</osmand:codetype>
    <osmand:color>#00842b</osmand:color>
    <osmand:background>square</osmand:background>
    <osmand:website>https://delivrez.fr/public/posts/img.634d5a936212e.png</osmand:website>
    <osmand:amenity_subtype>public_bookcase</osmand:amenity_subtype>
    <osmand:icon>public_bookcase</osmand:icon>
  </extensions>
</wpt>
<wpt lat="41.930239" lon="8.739299">
  <name>Cours Napoléon</name>
  <desc>Face auto distribution</desc>
  <type>delivrez bookcase</type>
  <extensions>
    <osmand:codetype>BSB</osmand:codetype>
    <osmand:color>#00842b</osmand:color>
    <osmand:background>square</osmand:background>
    <osmand:amenity_subtype>public_bookcase</osmand:amenity_subtype>
    <osmand:icon>public_bookcase</osmand:icon>
  </extensions>
</wpt>
<wpt lat="42.6326037" lon="8.9380841">
  <name>Casino</name>
  <desc>A la sortie du Casino, près des caisses, il y a une petite caisse de livres en libre service !</desc>
  <type>delivrez bookcase</type>
  <extensions>
    <osmand:codetype>BSB</osmand:codetype>
    <osmand:color>#00842b</osmand:color>
    <osmand:background>square</osmand:background>
    <osmand:amenity_subtype>public_bookcase</osmand:amenity_subtype>
    <osmand:icon>public_bookcase</osmand:icon>
  </extensions>
</wpt>
<wpt lat="41.699063978799174" lon="8.840952515602114">
  <name>Résidence golfe du valinco, Olmeto plage</name>
  <desc>Petite boite à lire au rond point du Motel et du Spar, à 25 mètres de la plage, pratique pour une petite lecture les pieds dans l'eau.</desc>
  <type>delivrez bookcase</type>
  <extensions>
    <osmand:codetype>BSB</osmand:codetype>
    <osmand:color>#00842b</osmand:color>
    <osmand:background>square</osmand:background>
    <osmand:amenity_subtype>public_bookcase</osmand:amenity_subtype>
    <osmand:icon>public_bookcase</osmand:icon>
  </extensions>
</wpt>
<wpt lat="42.081804" lon="9.060516">
  <name>Bâtiment U palazzu</name>
  <desc>La boîte à lire se trouve à l'entrée de la médiathèque. Des livres pour les petits et grands .Réapprovisionnée tous les jours ...Une vrai mine ...</desc>
  <type>delivrez bookcase</type>
  <extensions>
    <osmand:codetype>BSB</osmand:codetype>
    <osmand:color>#00842b</osmand:color>
    <osmand:background>square</osmand:background>
    <osmand:amenity_subtype>public_bookcase</osmand:amenity_subtype>
    <osmand:icon>public_bookcase</osmand:icon>
  </extensions>
</wpt>
<wpt lat="42.2989986" lon="9.1528366">
  <name>Université</name>
  <desc>A votre disposition dans le hall du bâtiment Desanti-bibliothèque universitaire.</desc>
  <type>delivrez bookcase</type>
  <extensions>
    <osmand:codetype>BSB</osmand:codetype>
    <osmand:color>#00842b</osmand:color>
    <osmand:background>square</osmand:background>
    <osmand:amenity_subtype>public_bookcase</osmand:amenity_subtype>
    <osmand:icon>public_bookcase</osmand:icon>
  </extensions>
</wpt>
<wpt lat="42.7005856" lon="9.4512278">
  <name>Place Saint Nicolas </name>
  <desc>Boîte à lire aménagée dans une ancienne cabine téléphonique.</desc>
  <type>delivrez bookcase</type>
  <extensions>
    <osmand:codetype>BSB</osmand:codetype>
    <osmand:color>#00842b</osmand:color>
    <osmand:background>square</osmand:background>
    <osmand:amenity_subtype>public_bookcase</osmand:amenity_subtype>
    <osmand:icon>public_bookcase</osmand:icon>
  </extensions>
</wpt>
<wpt lat="41.997829" lon="9.399904">
  <name>Migliacciaro</name>
  <desc>Armoire à lire près de la boutique Bio Sous les Glycines.</desc>
  <type>delivrez bookcase</type>
  <extensions>
    <osmand:codetype>BSB</osmand:codetype>
    <osmand:color>#00842b</osmand:color>
    <osmand:background>square</osmand:background>
    <osmand:amenity_subtype>public_bookcase</osmand:amenity_subtype>
    <osmand:icon>public_bookcase</osmand:icon>
  </extensions>
</wpt>
</gpx>
