{
"type": "FeatureCollection",
"crs": { "type": "name", "properties": { "name": "urn:ogc:def:crs:OGC:1.3:CRS84" } },
"features": [
{ "type": "Feature", "properties": { "title": "Rue de l'Hôtel de ville", "type": "BSB", "observation": "_", "picture": "img.62f7535286844.png" }, "geometry": { "type": "Point", "coordinates": [ 3.8408058, 50.1994154 ] } },
{ "type": "Feature", "properties": { "title": "Rue Léon Blum", "type": "BSB", "observation": "_", "picture": null }, "geometry": { "type": "Point", "coordinates": [ 3.0559938, 50.4772681 ] } },
{ "type": "Feature", "properties": { "title": "Rue Saint-Pierre", "type": "BSB", "observation": "elle est vide et toute cassée  :(", "picture": "img.6330186d2614a.png" }, "geometry": { "type": "Point", "coordinates": [ 1.6425182, 50.1844331 ] } },
{ "type": "Feature", "properties": { "title": "Rue du Général Leclerc", "type": "BSB", "observation": "Dans les halles", "picture": null }, "geometry": { "type": "Point", "coordinates": [ 2.2947657, 49.8955175 ] } },
{ "type": "Feature", "properties": { "title": "Rue de Paris", "type": "BSB", "observation": "_", "picture": null }, "geometry": { "type": "Point", "coordinates": [ 3.5156044, 49.049752 ] } },
{ "type": "Feature", "properties": { "title": "Route d'Amiens", "type": "BSB", "observation": "_", "picture": null }, "geometry": { "type": "Point", "coordinates": [ 2.4807982, 49.8216234 ] } },
{ "type": "Feature", "properties": { "title": "Rue des Charmes", "type": "BSB", "observation": "_", "picture": "img.630e21a352c5b.png" }, "geometry": { "type": "Point", "coordinates": [ 3.452125, 50.4393539 ] } },
{ "type": "Feature", "properties": { "title": "Rue Floris Durez", "type": "BSB", "observation": "_", "picture": "img.6316279c024f2.png" }, "geometry": { "type": "Point", "coordinates": [ 3.2418976, 50.4685745 ] } },
{ "type": "Feature", "properties": { "title": "rue des rotisseurs", "type": "BSB", "observation": "boite plastique du fleuriste", "picture": null }, "geometry": { "type": "Point", "coordinates": [ 3.2415065, 50.1904244 ] } },
{ "type": "Feature", "properties": { "title": "Route de Merlimont", "type": "BSB", "observation": "boite colle à l office du tourisme", "picture": "img.615727d74e958.png" }, "geometry": { "type": "Point", "coordinates": [ 1.6385532, 50.4178081 ] } },
{ "type": "Feature", "properties": { "title": "Rue de l'Aronde", "type": "BSB", "observation": "Dans le parc", "picture": "img.62c1f5e82b151.png" }, "geometry": { "type": "Point", "coordinates": [ 2.8457211, 49.4414715 ] } },
{ "type": "Feature", "properties": { "title": "Rue de l'Impératrice", "type": "BSB", "observation": "square Claude duffit", "picture": "img.62ef6bf7b6847.png" }, "geometry": { "type": "Point", "coordinates": [ 1.5644388, 50.4047662 ] } },
{ "type": "Feature", "properties": { "title": "Rue Attilio Bernasconi", "type": "BSB", "observation": "_", "picture": null }, "geometry": { "type": "Point", "coordinates": [ 3.2547895, 50.4650554 ] } },
{ "type": "Feature", "properties": { "title": "Rue Talon", "type": "BSB", "observation": "_", "picture": null }, "geometry": { "type": "Point", "coordinates": [ 2.0467651, 49.208024 ] } },
{ "type": "Feature", "properties": { "title": "Rue de la malterie", "type": "BSB", "observation": "Ancienne cabine téléphonique", "picture": null }, "geometry": { "type": "Point", "coordinates": [ 2.7600402, 50.3061783 ] } },
{ "type": "Feature", "properties": { "title": "Face à  la mairie / poste", "type": "BSB", "observation": "_", "picture": "img.62d18a3208dc3.png" }, "geometry": { "type": "Point", "coordinates": [ 1.6430628, 50.6194393 ] } },
{ "type": "Feature", "properties": { "title": "maison des jeunes", "type": "BSB", "observation": "Espace jeunes Pacific", "picture": "img.62cc44d572d3b.png" }, "geometry": { "type": "Point", "coordinates": [ 1.6490936, 50.522279 ] } },
{ "type": "Feature", "properties": { "title": "Piscine", "type": "BSB", "observation": "Devant l'entrée de la piscine", "picture": "img.62cc4036a4fbe.png" }, "geometry": { "type": "Point", "coordinates": [ 1.6462107, 50.518389 ] } },
{ "type": "Feature", "properties": { "title": "Parc du clos St Victor", "type": "BSB", "observation": "A côté des jeux pour enfants", "picture": "img.62cc3671cbb84.png" }, "geometry": { "type": "Point", "coordinates": [ 1.6298472, 50.5194675 ] } },
{ "type": "Feature", "properties": { "title": "Square de la Liberté", "type": "BSB", "observation": "à l'extrémité de l'avenue des pelouses.", "picture": "img.62c98a4f22429.png" }, "geometry": { "type": "Point", "coordinates": [ 1.6028906, 50.4826297 ] } },
{ "type": "Feature", "properties": { "title": "Poste de Trépied", "type": "BSB", "observation": "à gauche de l'entrée", "picture": "img.62c98e5d0c709.png" }, "geometry": { "type": "Point", "coordinates": [ 1.6232467, 50.4873162 ] } },
{ "type": "Feature", "properties": { "title": "École de Trépied", "type": "BSB", "observation": "face à l'école, devant l'église", "picture": "img.62c9a6fa76d60.png" }, "geometry": { "type": "Point", "coordinates": [ 1.6270907, 50.5003606 ] } },
{ "type": "Feature", "properties": { "title": "École de Cucq", "type": "BSB", "observation": "près du parking", "picture": "img.62c9ab7224fc4.png" }, "geometry": { "type": "Point", "coordinates": [ 1.6243659, 50.4817161 ] } },
{ "type": "Feature", "properties": { "title": "Mairie de Sorrus", "type": "BSB", "observation": "Dans le square juste en face de la mairie.", "picture": "img.62c8498a19542.png" }, "geometry": { "type": "Point", "coordinates": [ 1.7177841, 50.4592628 ] } },
{ "type": "Feature", "properties": { "title": "Salle Édith Piaf", "type": "BSB", "observation": "_", "picture": "img.62c5a26a40d19.png" }, "geometry": { "type": "Point", "coordinates": [ 1.6370828, 50.418328 ] } },
{ "type": "Feature", "properties": { "title": "Office de tourisme", "type": "BSB", "observation": "_", "picture": "img.62c594b1a9618.png" }, "geometry": { "type": "Point", "coordinates": [ 1.5780037, 50.4615029 ] } },
{ "type": "Feature", "properties": { "title": "devant l'office de tourisme", "type": "BSB", "observation": "_", "picture": "img.62c45575d75f5.png" }, "geometry": { "type": "Point", "coordinates": [ 1.638225, 50.4182956 ] } },
{ "type": "Feature", "properties": { "title": "Place Sapin", "type": "BSB", "observation": "_", "picture": "img.62c30ced1ae94.png" }, "geometry": { "type": "Point", "coordinates": [ 1.5888167, 50.4810015 ] } },
{ "type": "Feature", "properties": { "title": "Boulevard de la Mer", "type": "BSB", "observation": "ouvert l'été en journée", "picture": "img.62c31a9b6e20d.png" }, "geometry": { "type": "Point", "coordinates": [ 1.5755392, 50.4782505 ] } },
{ "type": "Feature", "properties": { "title": "Ecole du fort vert", "type": "BSB", "observation": "_", "picture": null }, "geometry": { "type": "Point", "coordinates": [ 1.9376414, 50.9679641 ] } },
{ "type": "Feature", "properties": { "title": "Ecole Victor Hugo Marck", "type": "BSB", "observation": "devant l'entrée", "picture": "img.62bc4014e0770.png" }, "geometry": { "type": "Point", "coordinates": [ 1.9544569, 50.9480877 ] } },
{ "type": "Feature", "properties": { "title": "Place Mal de Lattre de Tassigny", "type": "BSB", "observation": "a coté de la salle des fêtes", "picture": "img.62a4b0066d121.png" }, "geometry": { "type": "Point", "coordinates": [ 2.8169686, 49.5258275 ] } },
{ "type": "Feature", "properties": { "title": "Rue de Stalingrad", "type": "BSB", "observation": "dans le parc", "picture": "img.62a31949c6f7e.png" }, "geometry": { "type": "Point", "coordinates": [ 2.8027672, 49.3992676 ] } },
{ "type": "Feature", "properties": { "title": "Rue de la Baguette", "type": "BSB", "observation": "a la deuxième entrée du parc", "picture": "img.62a0b1e4a0586.png" }, "geometry": { "type": "Point", "coordinates": [ 2.8211838, 49.4171524 ] } },
{ "type": "Feature", "properties": { "title": "Rue des Frères Gréban", "type": "BSB", "observation": "boite à livre devant une maison proche de l'église", "picture": "img.62a0af9a58f09.png" }, "geometry": { "type": "Point", "coordinates": [ 2.8147523, 49.4136223 ] } },
{ "type": "Feature", "properties": { "title": "Rue Magenta", "type": "BSB", "observation": "derrière l'arrêt de bus", "picture": "img.628b29aff31f2.png" }, "geometry": { "type": "Point", "coordinates": [ 2.8270424, 49.4162783 ] } },
{ "type": "Feature", "properties": { "title": "Rue du Pavé Gay", "type": "BSB", "observation": "dans un ancien four", "picture": "img.629257d9a6cdd.png" }, "geometry": { "type": "Point", "coordinates": [ 2.8841399, 49.5654966 ] } },
{ "type": "Feature", "properties": { "title": "Rue d'Abbeville", "type": "BSB", "observation": "dans l ancienne cabine téléphonique", "picture": "img.629393df0aa53.png" }, "geometry": { "type": "Point", "coordinates": [ 2.0424098, 50.3653787 ] } },
{ "type": "Feature", "properties": { "title": "Rue de la Rivierette", "type": "BSB", "observation": "dans ancienne cabine de telephone", "picture": null }, "geometry": { "type": "Point", "coordinates": [ 2.1576795, 50.3532495 ] } },
{ "type": "Feature", "properties": { "title": "Boulevard Sainte-Beuve", "type": "BSB", "observation": "_", "picture": null }, "geometry": { "type": "Point", "coordinates": [ 1.5968677, 50.7298401 ] } },
{ "type": "Feature", "properties": { "title": "Rue de la Poste", "type": "BSB", "observation": "sur le devant du proxi", "picture": "img.627d28dd0983e.png" }, "geometry": { "type": "Point", "coordinates": [ 2.8104377, 49.4617161 ] } },
{ "type": "Feature", "properties": { "title": "Rue de la Gare", "type": "BSB", "observation": "au bord de l'ancienne gare", "picture": "img.627d26f446412.png" }, "geometry": { "type": "Point", "coordinates": [ 2.8084879, 49.4610609 ] } },
{ "type": "Feature", "properties": { "title": "Rue du Port À Bateaux", "type": "BSB", "observation": "à côté de l'université utc", "picture": "img.6278c1f01acf0.png" }, "geometry": { "type": "Point", "coordinates": [ 2.8192012, 49.4157554 ] } },
{ "type": "Feature", "properties": { "title": "Place de la Croix Blanche", "type": "BSB", "observation": "Sur la place de la croix blanche", "picture": "img.6278c2bd453e3.png" }, "geometry": { "type": "Point", "coordinates": [ 2.8212925, 49.4134047 ] } },
{ "type": "Feature", "properties": { "title": "Rue de Clamart", "type": "BSB", "observation": "juste en face du gymnase", "picture": "img.6278c3fbc5875.png" }, "geometry": { "type": "Point", "coordinates": [ 2.8275532, 49.4127201 ] } },
{ "type": "Feature", "properties": { "title": "Rue Napoléon", "type": "BSB", "observation": "derrière la mairie", "picture": "img.62764455daf60.png" }, "geometry": { "type": "Point", "coordinates": [ 2.9780187, 49.3469803 ] } },
{ "type": "Feature", "properties": { "title": "Place de la Grande Cour", "type": "BSB", "observation": "en face de la mairie", "picture": "img.627429357e15e.png" }, "geometry": { "type": "Point", "coordinates": [ 2.9051891, 49.3475337 ] } },
{ "type": "Feature", "properties": { "title": "Place Carnot", "type": "BSB", "observation": "sur la place Carnot", "picture": "img.62696d170be7c.png" }, "geometry": { "type": "Point", "coordinates": [ 2.8298283, 49.4090573 ] } },
{ "type": "Feature", "properties": { "title": "Quai Jeanne d'Arc", "type": "BSB", "observation": "boite jaune et grise dans le parc", "picture": "img.62614159d0043.png" }, "geometry": { "type": "Point", "coordinates": [ 1.627209, 50.1900733 ] } },
{ "type": "Feature", "properties": { "title": "Rue du Bras d'Or", "type": "BSB", "observation": "boite a livre en bois", "picture": "img.6239fd5c068e4.png" }, "geometry": { "type": "Point", "coordinates": [ 1.7602623, 50.4555701 ] } },
{ "type": "Feature", "properties": { "title": "Rue de la Tossée", "type": "BSB", "observation": "_", "picture": null }, "geometry": { "type": "Point", "coordinates": [ 3.1655809, 50.7107737 ] } },
{ "type": "Feature", "properties": { "title": "La Place", "type": "BSB", "observation": "_", "picture": "img.6200f98640932.png" }, "geometry": { "type": "Point", "coordinates": [ 2.3429789, 50.7099623 ] } },
{ "type": "Feature", "properties": { "title": "Rue de la Croix", "type": "BSB", "observation": "près de la aire de jeux", "picture": "img.61fbd29f26316.png" }, "geometry": { "type": "Point", "coordinates": [ 2.2039505, 50.7779876 ] } },
{ "type": "Feature", "properties": { "title": "Rue François Mitterand", "type": "BSB", "observation": "A côté de la mairie", "picture": "img.61fbcb5b25451.png" }, "geometry": { "type": "Point", "coordinates": [ 2.1251962, 50.8061395 ] } },
{ "type": "Feature", "properties": { "title": "Rue de la Mairie", "type": "BSB", "observation": "A côté de la bibliothèque", "picture": "img.61fbc541d43f4.png" }, "geometry": { "type": "Point", "coordinates": [ 2.1537956, 50.8051498 ] } },
{ "type": "Feature", "properties": { "title": "Rue des Arts", "type": "BSB", "observation": "près de la mairie et de la poste", "picture": "img.61fbbf80167d0.png" }, "geometry": { "type": "Point", "coordinates": [ 2.1767191, 50.7894209 ] } },
{ "type": "Feature", "properties": { "title": "Chemin d'Eperlecques", "type": "BSB", "observation": "Près de la mairie et poste", "picture": "img.61fbbade1d797.png" }, "geometry": { "type": "Point", "coordinates": [ 2.2014486, 50.7931173 ] } },
{ "type": "Feature", "properties": { "title": "Boulevard Vauban", "type": "BSB", "observation": "Dans le parc, près du kiosque", "picture": "img.61fa76f0c1f0c.png" }, "geometry": { "type": "Point", "coordinates": [ 2.2483259, 50.7489006 ] } },
{ "type": "Feature", "properties": { "title": "Rue Antoine de Saint-Exupéry", "type": "BSB", "observation": "_", "picture": "img.61fa74c86bdeb.png" }, "geometry": { "type": "Point", "coordinates": [ 2.258238, 50.7420901 ] } },
{ "type": "Feature", "properties": { "title": "Chemin des Berceaux", "type": "BSB", "observation": "_", "picture": "img.61fa6d963eab5.png" }, "geometry": { "type": "Point", "coordinates": [ 2.2387998, 50.7344165 ] } },
{ "type": "Feature", "properties": { "title": "Place du 8 Mai 1945", "type": "BSB", "observation": "près de la accès extérieur voie 1", "picture": "img.61f927df01687.png" }, "geometry": { "type": "Point", "coordinates": [ 2.2664474, 50.7537284 ] } },
{ "type": "Feature", "properties": { "title": "Place de la Ghière", "type": "BSB", "observation": "Près de la arrêt de bus", "picture": "img.61f91b70a3a0a.png" }, "geometry": { "type": "Point", "coordinates": [ 2.2615415, 50.7575697 ] } },
{ "type": "Feature", "properties": { "title": "Rue Saint-Sépulcre", "type": "BSB", "observation": "Cour intérieure Hôtel de Ville", "picture": "img.61f916c99755c.png" }, "geometry": { "type": "Point", "coordinates": [ 2.2535444, 50.7519469 ] } },
{ "type": "Feature", "properties": { "title": "Rue des Tribunaux", "type": "BSB", "observation": "A côté de l' entrée intérieure de la Office du Tourisme de la ville de Saint Omer", "picture": "img.61f900b6afbc6.png" }, "geometry": { "type": "Point", "coordinates": [ 2.2527302, 50.7481708 ] } },
{ "type": "Feature", "properties": { "title": "Avenue Arthur Rimbaud", "type": "BSB", "observation": "A côté du cabinet paramédical", "picture": "img.61f809b4a9934.png" }, "geometry": { "type": "Point", "coordinates": [ 2.2656628, 50.7392864 ] } },
{ "type": "Feature", "properties": { "title": "Square Marcel Pagnol", "type": "BSB", "observation": "_", "picture": "img.61f802d00f854.png" }, "geometry": { "type": "Point", "coordinates": [ 2.2767509, 50.7393565 ] } },
{ "type": "Feature", "properties": { "title": "Lieu dit Bloc les Pigeons rue Brughel", "type": "BSB", "observation": "_", "picture": null }, "geometry": { "type": "Point", "coordinates": [ 2.2667617, 50.7426843 ] } },
{ "type": "Feature", "properties": { "title": "Rue de Sète", "type": "BSB", "observation": "Entrée halte garderie", "picture": "img.61f7edad4d30d.png" }, "geometry": { "type": "Point", "coordinates": [ 2.2941249, 50.7246549 ] } },
{ "type": "Feature", "properties": { "title": "38 a Rue Jules Ferry", "type": "BSB", "observation": "A côté de l' entrée de l' École maternelle Pauline Kergomard", "picture": "img.61f7dd6ec8ed9.png" }, "geometry": { "type": "Point", "coordinates": [ 2.3111494, 50.7425006 ] } },
{ "type": "Feature", "properties": { "title": "Résidence d'Albret", "type": "BSB", "observation": "_", "picture": "img.61f53d51c551d.png" }, "geometry": { "type": "Point", "coordinates": [ 2.2608991, 50.7522559 ] } },
{ "type": "Feature", "properties": { "title": "Rue Principale", "type": "BSB", "observation": "boite rouge sur la place", "picture": "img.61cb1159d571a.png" }, "geometry": { "type": "Point", "coordinates": [ 1.8298123, 50.5182049 ] } },
{ "type": "Feature", "properties": { "title": "Boîte à livres", "type": "BSB", "observation": "Devant l'entrée de l'école dans une cabine téléphonique", "picture": null }, "geometry": { "type": "Point", "coordinates": [ 3.9732103, 49.8591519 ] } },
{ "type": "Feature", "properties": { "title": "Boîte à livres", "type": "BSB", "observation": "a côté de l'église.", "picture": null }, "geometry": { "type": "Point", "coordinates": [ 4.0327909, 49.9303519 ] } },
{ "type": "Feature", "properties": { "title": "Le Village", "type": "BSB", "observation": "dans ancienne cabine", "picture": null }, "geometry": { "type": "Point", "coordinates": [ 1.7744002, 50.8894953 ] } },
{ "type": "Feature", "properties": { "title": "Rue de boulogne", "type": "BSB", "observation": "grise", "picture": "img.6180126d1f238.png" }, "geometry": { "type": "Point", "coordinates": [ 2.6777825, 50.4708555 ] } },
{ "type": "Feature", "properties": { "title": "Rue Moussy", "type": "BSB", "observation": "grise en face terrain. pétanque", "picture": "img.61800a16ce35b.png" }, "geometry": { "type": "Point", "coordinates": [ 2.6777825, 50.4708555 ] } },
{ "type": "Feature", "properties": { "title": "Rue Principale", "type": "BSB", "observation": "rouge près de la mairie", "picture": "img.617fb2f525b32.png" }, "geometry": { "type": "Point", "coordinates": [ 1.9697654, 50.5234724 ] } },
{ "type": "Feature", "properties": { "title": "Rue de Montreuil", "type": "BSB", "observation": "A côté de la boucherie Morel", "picture": "img.616a75c6e664b.png" }, "geometry": { "type": "Point", "coordinates": [ 1.7750245, 50.4734682 ] } },
{ "type": "Feature", "properties": { "title": "Rue de Frévent", "type": "BSB", "observation": "dans ancienne cabine téléphonique", "picture": null }, "geometry": { "type": "Point", "coordinates": [ 2.0426143, 50.3634438 ] } },
{ "type": "Feature", "properties": { "title": "Route nationale", "type": "BSB", "observation": "dans l espace vert face au restaurant à l auberge des contrebandiers", "picture": "img.61670c6a0b3e7.png" }, "geometry": { "type": "Point", "coordinates": [ 1.7451207, 50.3487559 ] } },
{ "type": "Feature", "properties": { "title": "Place Victor Hugo", "type": "BSB", "observation": "Devant le restaurant chinois.", "picture": "img.615da9d67d5b2.png" }, "geometry": { "type": "Point", "coordinates": [ 4.0813519, 49.9243116 ] } },
{ "type": "Feature", "properties": { "title": "Rue Antoine Sue", "type": "BSB", "observation": "Sur la place de la gare.", "picture": "img.615da7991b582.png" }, "geometry": { "type": "Point", "coordinates": [ 4.0841181, 49.9181131 ] } },
{ "type": "Feature", "properties": { "title": "Rue du Petit Versailles", "type": "BSB", "observation": "Sur la place de l'église.", "picture": "img.615b580a9e118.png" }, "geometry": { "type": "Point", "coordinates": [ 3.9898135, 49.9824883 ] } },
{ "type": "Feature", "properties": { "title": "Allée Charles Péguy", "type": "BSB", "observation": "en bas des immeubles", "picture": "img.6159a661deca5.png" }, "geometry": { "type": "Point", "coordinates": [ 1.6500998, 50.5186716 ] } },
{ "type": "Feature", "properties": { "title": "Route d'Andrés", "type": "BSB", "observation": "a la poste à côté de l école", "picture": "img.6155c9246a9d2.png" }, "geometry": { "type": "Point", "coordinates": [ 1.9317066, 50.9048821 ] } },
{ "type": "Feature", "properties": { "title": "avenue de l Europe", "type": "BSB", "observation": "face au magasin Armande thierry", "picture": "img.614c4cc2e50ee.png" }, "geometry": { "type": "Point", "coordinates": [ 2.3095502, 49.9230791 ] } },
{ "type": "Feature", "properties": { "title": "Rue de l'Europe", "type": "BSB", "observation": "_", "picture": null }, "geometry": { "type": "Point", "coordinates": [ 3.609621, 49.0765685 ] } },
{ "type": "Feature", "properties": { "title": "Rue du Général de Gaulle", "type": "BSB", "observation": "_", "picture": "img.6144b18c1eae0.png" }, "geometry": { "type": "Point", "coordinates": [ 3.1712552, 50.5087481 ] } },
{ "type": "Feature", "properties": { "title": "Grande Rue", "type": "BSB", "observation": "devant la mairie", "picture": null }, "geometry": { "type": "Point", "coordinates": [ 1.717788, 50.4592422 ] } },
{ "type": "Feature", "properties": { "title": "Rue de Verdun", "type": "BSB", "observation": "À l'entrée du village", "picture": null }, "geometry": { "type": "Point", "coordinates": [ 3.9656735, 49.9265785 ] } },
{ "type": "Feature", "properties": { "title": "Place de l'Église", "type": "BSB", "observation": "Arrêt de bus", "picture": null }, "geometry": { "type": "Point", "coordinates": [ 3.962832, 49.9248732 ] } },
{ "type": "Feature", "properties": { "title": "boîtes à livres", "type": "BSB", "observation": "Terrain de tennis", "picture": null }, "geometry": { "type": "Point", "coordinates": [ 3.9637996, 49.9243757 ] } },
{ "type": "Feature", "properties": { "title": "Boîtes à livres", "type": "BSB", "observation": "Près de la rivière", "picture": null }, "geometry": { "type": "Point", "coordinates": [ 3.9632136, 49.9218859 ] } },
{ "type": "Feature", "properties": { "title": "Boîte à livres", "type": "BSB", "observation": "Cabine téléphonique à côté de la mairie.", "picture": null }, "geometry": { "type": "Point", "coordinates": [ 3.98482, 49.9231606 ] } },
{ "type": "Feature", "properties": { "title": "Boîte à livres.", "type": "BSB", "observation": "Dans la cours de la mairie.", "picture": null }, "geometry": { "type": "Point", "coordinates": [ 3.9998698, 50.1206093 ] } },
{ "type": "Feature", "properties": { "title": "Rue de l'Église", "type": "BSB", "observation": "derrière le stade de foot @@__adossée à l air de jeux pour enfants", "picture": null }, "geometry": { "type": "Point", "coordinates": [ 1.7621398, 50.4454237 ] } },
{ "type": "Feature", "properties": { "title": "Avenue d'Etaples", "type": "BSB", "observation": "parking lidl", "picture": null }, "geometry": { "type": "Point", "coordinates": [ 1.627373, 50.507327 ] } },
{ "type": "Feature", "properties": { "title": "Rue Auguste Biblocq", "type": "BSB", "observation": "face à l école simone veille adossée au mur à côté du square", "picture": null }, "geometry": { "type": "Point", "coordinates": [ 1.6145437, 50.4547015 ] } },
{ "type": "Feature", "properties": { "title": "Avenue du Général Leclerc", "type": "BSB", "observation": "située face au Canal à  côté du restaurant le port de plaisance le long de la voix du chemin de fer @@__", "picture": null }, "geometry": { "type": "Point", "coordinates": [ 1.6447697, 50.1799342 ] } },
{ "type": "Feature", "properties": { "title": "Quai du Romerel", "type": "BSB", "observation": "le long de la jetée à côté des petites cabines blanche en bois", "picture": null }, "geometry": { "type": "Point", "coordinates": [ 1.6336049, 50.18844 ] } },
{ "type": "Feature", "properties": { "title": "Rue de l'Abbaye", "type": "BSB", "observation": "dans le petit square à côté des toilettes publics", "picture": null }, "geometry": { "type": "Point", "coordinates": [ 1.6211021, 50.1880231 ] } },
{ "type": "Feature", "properties": { "title": "Rue de l'Abbaye", "type": "BSB", "observation": "dans petit square à côté des toilettes", "picture": null }, "geometry": { "type": "Point", "coordinates": [ 1.6211831, 50.1880558 ] } },
{ "type": "Feature", "properties": { "title": "Avenue Paul Bert", "type": "BSB", "observation": "parc jean ferrat", "picture": null }, "geometry": { "type": "Point", "coordinates": [ 3.2102852, 50.6738393 ] } },
{ "type": "Feature", "properties": { "title": "Avenue de la Plage", "type": "BSB", "observation": "Heliport côté sanitaires", "picture": null }, "geometry": { "type": "Point", "coordinates": [ 1.5501561, 50.3387548 ] } },
{ "type": "Feature", "properties": { "title": "Rue Henri Sellier", "type": "BSB", "observation": "Face au groupe scolaire Pruvot", "picture": null }, "geometry": { "type": "Point", "coordinates": [ 1.8238903, 50.1187635 ] } },
{ "type": "Feature", "properties": { "title": "Rue du Moulin", "type": "BSB", "observation": "_", "picture": null }, "geometry": { "type": "Point", "coordinates": [ 3.4552807, 50.0364449 ] } },
{ "type": "Feature", "properties": { "title": "205, Rue de l'Offrande", "type": "BSB", "observation": "_", "picture": null }, "geometry": { "type": "Point", "coordinates": [ 3.0818094, 50.4897781 ] } },
{ "type": "Feature", "properties": { "title": "halles de wazemmes", "type": "BSB", "observation": "_", "picture": null }, "geometry": { "type": "Point", "coordinates": [ 3.0493262, 50.626834 ] } },
{ "type": "Feature", "properties": { "title": "Ruelle Clemenceau", "type": "BSB", "observation": "Ancien téléphone rénové en cabane à livres", "picture": null }, "geometry": { "type": "Point", "coordinates": [ 3.4135344, 50.1832893 ] } },
{ "type": "Feature", "properties": { "title": "parc aux tortues", "type": "BSB", "observation": "_", "picture": null }, "geometry": { "type": "Point", "coordinates": [ 3.2122588, 50.6697226 ] } },
{ "type": "Feature", "properties": { "title": "Rue du Général de Gaulle", "type": "BSB", "observation": "Près du canal.", "picture": null }, "geometry": { "type": "Point", "coordinates": [ 3.6912752, 50.1237799 ] } },
{ "type": "Feature", "properties": { "title": "Rue de Revelles", "type": "BSB", "observation": "_", "picture": null }, "geometry": { "type": "Point", "coordinates": [ 2.1631311, 49.8391064 ] } },
{ "type": "Feature", "properties": { "title": "Rue du Port Salut", "type": "BSB", "observation": "_", "picture": null }, "geometry": { "type": "Point", "coordinates": [ 2.7237638, 49.3127919 ] } },
{ "type": "Feature", "properties": { "title": "Place Paul Vimereu", "type": "BSB", "observation": "_", "picture": null }, "geometry": { "type": "Point", "coordinates": [ 1.5509897, 50.1567044 ] } },
{ "type": "Feature", "properties": { "title": "Route de la Plage Cise", "type": "BSB", "observation": "_", "picture": null }, "geometry": { "type": "Point", "coordinates": [ 1.4235872, 50.0892618 ] } },
{ "type": "Feature", "properties": { "title": "Rue de la République", "type": "BSB", "observation": "_", "picture": null }, "geometry": { "type": "Point", "coordinates": [ 1.4894739, 50.0304775 ] } },
{ "type": "Feature", "properties": { "title": "Rue de la Forêt", "type": "BSB", "observation": "Face aux grands près", "picture": null }, "geometry": { "type": "Point", "coordinates": [ 1.4934441, 50.0265612 ] } },
{ "type": "Feature", "properties": { "title": "Rue Diderot", "type": "BSB", "observation": "_", "picture": null }, "geometry": { "type": "Point", "coordinates": [ 1.8653759, 50.9544426 ] } },
{ "type": "Feature", "properties": { "title": "VIVAL FROISSY", "type": "BSB", "observation": "Little Free Library", "picture": null }, "geometry": { "type": "Point", "coordinates": [ 2.22025, 49.56562 ] } },
{ "type": "Feature", "properties": { "title": "VIVAL WINGLES", "type": "BSB", "observation": "Little Free Library", "picture": null }, "geometry": { "type": "Point", "coordinates": [ 2.8925, 50.49646 ] } },
{ "type": "Feature", "properties": { "title": "VIVAL CARTIGNIES", "type": "BSB", "observation": "Little Free Library", "picture": null }, "geometry": { "type": "Point", "coordinates": [ 3.84478, 50.08082 ] } },
{ "type": "Feature", "properties": { "title": "VIVAL BAINCTHUN", "type": "BSB", "observation": "Little Free Library", "picture": null }, "geometry": { "type": "Point", "coordinates": [ 1.67108, 50.71235 ] } },
{ "type": "Feature", "properties": { "title": "VIVAL CREVECOEUR LE GRAND", "type": "BSB", "observation": "Little Free Library", "picture": null }, "geometry": { "type": "Point", "coordinates": [ 2.07655, 49.60832 ] } },
{ "type": "Feature", "properties": { "title": "VIVAL MOLLIENS DREUIL", "type": "BSB", "observation": "Little Free Library", "picture": null }, "geometry": { "type": "Point", "coordinates": [ 2.00421, 49.88122 ] } },
{ "type": "Feature", "properties": { "title": "VIVAL ROOST WARENDIN", "type": "BSB", "observation": "Little Free Library", "picture": null }, "geometry": { "type": "Point", "coordinates": [ 3.09822, 50.40462 ] } },
{ "type": "Feature", "properties": { "title": "Rue de la Seigneurie", "type": "BSB", "observation": "Dans l'entrée d'intermarché", "picture": null }, "geometry": { "type": "Point", "coordinates": [ 2.4250697, 49.1499197 ] } },
{ "type": "Feature", "properties": { "title": "Rue de la Seigneurie", "type": "BSB", "observation": "Dans l'entrée d'intermarché", "picture": null }, "geometry": { "type": "Point", "coordinates": [ 2.4250697, 49.1499197 ] } },
{ "type": "Feature", "properties": { "title": "S.A.J", "type": "BSB", "observation": "boite à livres dans l'enceinte de la cours . en prise iibre", "picture": null }, "geometry": { "type": "Point", "coordinates": [ 2.939329, 50.4486012 ] } },
{ "type": "Feature", "properties": { "title": "Rue de Montevideo", "type": "BSB", "observation": "_", "picture": null }, "geometry": { "type": "Point", "coordinates": [ 3.3791141, 49.5957159 ] } },
{ "type": "Feature", "properties": { "title": "Rue briffoteaux", "type": "BSB", "observation": "Elle est située entre la mairie et l école. Fabriquée et installée par la municipalité en 2018.", "picture": null }, "geometry": { "type": "Point", "coordinates": [ 3.143191, 49.5721289 ] } },
{ "type": "Feature", "properties": { "title": "Place Jacques Prévert", "type": "BSB", "observation": "", "picture": null }, "geometry": { "type": "Point", "coordinates": [ 3.6222295, 49.5533502 ] } },
{ "type": "Feature", "properties": { "title": "Place de l église", "type": "BSB", "observation": "", "picture": null }, "geometry": { "type": "Point", "coordinates": [ 2.5759259, 49.1510286 ] } },
{ "type": "Feature", "properties": { "title": "24 rue Cagnard", "type": "BSB", "observation": "Au croisement entre rue Cagnard et rue de Vignacourt", "picture": null }, "geometry": { "type": "Point", "coordinates": [ 2.2883277, 49.904028 ] } },
{ "type": "Feature", "properties": { "title": "grande rue", "type": "BSB", "observation": "", "picture": null }, "geometry": { "type": "Point", "coordinates": [ 1.523795127868653, 50.105331692970601 ] } },
{ "type": "Feature", "properties": { "title": "Rue de Compiègne", "type": "BSB", "observation": "Cabine téléphonique rose en face de la pharmacie. Inaugurée il y a quelques semaines", "picture": null }, "geometry": { "type": "Point", "coordinates": [ 2.8050823, 49.4158433 ] } },
{ "type": "Feature", "properties": { "title": "163 Rue du Maréchal Foch", "type": "BSB", "observation": "Dans l ancienne cabine téléphonique, sur le trottoir de l'école Notre Dame. Dédiée principalement aux livres pour enfants.", "picture": null }, "geometry": { "type": "Point", "coordinates": [ 2.9565356, 50.5956702 ] } },
{ "type": "Feature", "properties": { "title": "Mairie", "type": "BSB", "observation": "Sous l'abribus à coté de la mairie", "picture": null }, "geometry": { "type": "Point", "coordinates": [ 1.9749022, 49.2066419 ] } },
{ "type": "Feature", "properties": { "title": "Rue de l'église", "type": "BSB", "observation": "C'est une cabine téléphonique", "picture": null }, "geometry": { "type": "Point", "coordinates": [ 2.36371, 49.4217304 ] } },
{ "type": "Feature", "properties": { "title": "", "type": "BSB", "observation": "", "picture": null }, "geometry": { "type": "Point", "coordinates": [ 2.90019, 49.48252 ] } },
{ "type": "Feature", "properties": { "title": "ROUTE DE LA BASSEE", "type": "BSB", "observation": "Accessible aux horaires d ouverture", "picture": null }, "geometry": { "type": "Point", "coordinates": [ 2.813078, 50.4683205 ] } },
{ "type": "Feature", "properties": { "title": "rue camélinat", "type": "BSB", "observation": "Elle est composée de 3 boites, 1 grande pour les adultes et 2 petites pour les enfants.Elle est située derrière la mairie, entre le restaurant scolaire et l'école maternelle D. Casanova", "picture": null }, "geometry": { "type": "Point", "coordinates": [ 3.3791537, 50.1975936 ] } },
{ "type": "Feature", "properties": { "title": "Rue de Prezelle", "type": "BSB", "observation": "", "picture": null }, "geometry": { "type": "Point", "coordinates": [ 3.3124791, 49.9293989 ] } },
{ "type": "Feature", "properties": { "title": "Rue du général de Gaulle", "type": "BSB", "observation": "", "picture": null }, "geometry": { "type": "Point", "coordinates": [ 2.86794662475586, 50.519184313496837 ] } },
{ "type": "Feature", "properties": { "title": "centre commercial E.Leclerc", "type": "BSB", "observation": "", "picture": null }, "geometry": { "type": "Point", "coordinates": [ 2.5807785, 49.6476112 ] } },
{ "type": "Feature", "properties": { "title": "Ru du Capitaine Fay", "type": "BSB", "observation": "La boite se trouve sur l aire de jeux pour enfants juste derrière la salle des fêtes qui se trouve elle place de la république.", "picture": null }, "geometry": { "type": "Point", "coordinates": [ 1.9784846, 49.7757245 ] } },
{ "type": "Feature", "properties": { "title": "Parc Municipal de Loos lez Lille", "type": "BSB", "observation": "Une belle boîte jaune !", "picture": null }, "geometry": { "type": "Point", "coordinates": [ 3.0175362, 50.6008387 ] } },
{ "type": "Feature", "properties": { "title": "Rue d Hérivaux", "type": "BSB", "observation": "Devant le centre culturel, en face du marché.", "picture": null }, "geometry": { "type": "Point", "coordinates": [ 2.4693043, 49.1395338 ] } },
{ "type": "Feature", "properties": { "title": "Place de la mairie", "type": "BSB", "observation": "L ancienne cabine téléphonique en bois a été recyclée en boîte à lire.", "picture": null }, "geometry": { "type": "Point", "coordinates": [ 2.4681095, 49.1439032 ] } },
{ "type": "Feature", "properties": { "title": "place de rouen", "type": "BSB", "observation": "au pied d un immeuble", "picture": null }, "geometry": { "type": "Point", "coordinates": [ 2.7681783, 50.2711508 ] } },
{ "type": "Feature", "properties": { "title": "residence des soir paisible", "type": "BSB", "observation": "", "picture": null }, "geometry": { "type": "Point", "coordinates": [ 2.770711, 50.2710182 ] } },
{ "type": "Feature", "properties": { "title": "75-155 Rue Béranger", "type": "BSB", "observation": "La boite se trouve à l'entrée du parc, à l'opposé du kiosque à musique.", "picture": null }, "geometry": { "type": "Point", "coordinates": [ 2.632083892822266, 50.52936105325702 ] } },
{ "type": "Feature", "properties": { "title": "Rue Jean Macé", "type": "BSB", "observation": "Située dans le petit square juste à coté de l office de tourisme.", "picture": null }, "geometry": { "type": "Point", "coordinates": [ 3.127718567848206, 50.670404912938885 ] } },
{ "type": "Feature", "properties": { "title": "Rue des Houppeux", "type": "BSB", "observation": "", "picture": null }, "geometry": { "type": "Point", "coordinates": [ 3.4307505, 49.5927886 ] } },
{ "type": "Feature", "properties": { "title": "Rue de la plaine", "type": "BSB", "observation": "", "picture": null }, "geometry": { "type": "Point", "coordinates": [ 3.538989, 49.5614782 ] } },
{ "type": "Feature", "properties": { "title": "6 Rue Jeanne d Arc à Lille", "type": "BSB", "observation": "Devant l Atelier des Petites Créations", "picture": null }, "geometry": { "type": "Point", "coordinates": [ 3.0647071, 50.629674 ] } },
{ "type": "Feature", "properties": { "title": "7 rue Villa-la-Croix", "type": "BSB", "observation": "Boite à lire gérée par la mairie.", "picture": null }, "geometry": { "type": "Point", "coordinates": [ 3.2770717, 49.3771173 ] } },
{ "type": "Feature", "properties": { "title": "Rue de pressy", "type": "BSB", "observation": "Ancienne cabine téléphonique la boîte à livre est rouge", "picture": null }, "geometry": { "type": "Point", "coordinates": [ 2.4068386, 50.4823656 ] } },
{ "type": "Feature", "properties": { "title": "10, rue Condorcet", "type": "BSB", "observation": "La ville d Amiens a installé une nouvelle boite à lire devant l'association ACIP. Des bénévoles de cette association veille sur cette dernière.", "picture": null }, "geometry": { "type": "Point", "coordinates": [ 2.3251327, 49.8763048 ] } },
{ "type": "Feature", "properties": { "title": "Campus Inovia. 1435 boulevard Cambronne", "type": "BSB", "observation": "Elle se trouve au niveau des boites aux lettres, à l'entrée du Campus", "picture": null }, "geometry": { "type": "Point", "coordinates": [ 3.0081583, 49.5979187 ] } },
{ "type": "Feature", "properties": { "title": "77 rue Roland", "type": "BSB", "observation": "Situé dans la cour du centre socio  culturel Simone Veil du quartier Vauban Esquermes", "picture": null }, "geometry": { "type": "Point", "coordinates": [ 3.038688, 50.6300958 ] } },
{ "type": "Feature", "properties": { "title": "Salle des fêtes", "type": "BSB", "observation": "A côté de la salle des fêtes au fond du parking", "picture": null }, "geometry": { "type": "Point", "coordinates": [ 2.1149845, 49.3546757 ] } },
{ "type": "Feature", "properties": { "title": "Centre Commercial Auchan D121", "type": "BSB", "observation": "", "picture": null }, "geometry": { "type": "Point", "coordinates": [ 3.9375076, 50.2564404 ] } },
{ "type": "Feature", "properties": { "title": "Centre Commercial Auchan Les Géants, 352 Route nationale, lot 85", "type": "BSB", "observation": "", "picture": null }, "geometry": { "type": "Point", "coordinates": [ 2.9688254, 50.6321722 ] } },
{ "type": "Feature", "properties": { "title": "rue de champien", "type": "BSB", "observation": "rue de champienPetite boite à lire  fait maison\"", "picture": null }, "geometry": { "type": "Point", "coordinates": [ 2.8289594, 49.6848044 ] } },
{ "type": "Feature", "properties": { "title": "7 Rue Léon Gambetta", "type": "BSB", "observation": "Zone de dépôt à même le sol, au pied d une peinture à la bombe.À droite de La Baraque aux arts.", "picture": null }, "geometry": { "type": "Point", "coordinates": [ 3.079853, 50.3682282 ] } },
{ "type": "Feature", "properties": { "title": "Rue de Sain-Venant", "type": "BSB", "observation": "À côté de l arrêt de bus Liberté", "picture": null }, "geometry": { "type": "Point", "coordinates": [ 2.6274053, 50.5396042 ] } },
{ "type": "Feature", "properties": { "title": "Rue traversière", "type": "BSB", "observation": "La boîte à livres est située dans le hall du cinéma Le méliès.", "picture": null }, "geometry": { "type": "Point", "coordinates": [ 3.1427805, 50.6173045 ] } },
{ "type": "Feature", "properties": { "title": "2 rue des Bois", "type": "BSB", "observation": "ancienne cabine téléphonique recyclée en boite à livresur la D81", "picture": null }, "geometry": { "type": "Point", "coordinates": [ 2.9371417, 49.4199508 ] } },
{ "type": "Feature", "properties": { "title": "21 rue marcel sembat", "type": "BSB", "observation": "Accessible aux heures d ouverture 9h-12h / 14h-17h", "picture": null }, "geometry": { "type": "Point", "coordinates": [ 2.8397082, 50.4342557 ] } },
{ "type": "Feature", "properties": { "title": "25 rue victor picard", "type": "BSB", "observation": "", "picture": null }, "geometry": { "type": "Point", "coordinates": [ 2.8316374, 50.4307564 ] } },
{ "type": "Feature", "properties": { "title": "Rue d?ailly", "type": "BSB", "observation": "Elle se situe près du banc dans la rue", "picture": null }, "geometry": { "type": "Point", "coordinates": [ 2.2142203, 49.9035794 ] } },
{ "type": "Feature", "properties": { "title": "Parc des faitelles", "type": "BSB", "observation": "À côté de la buvette.", "picture": null }, "geometry": { "type": "Point", "coordinates": [ 2.8500697, 50.4626377 ] } },
{ "type": "Feature", "properties": { "title": "devant le presbytère de Vaux à Laon", "type": "BSB", "observation": "devant le presbytère de Vaux à Laon à la demande du père Marçin GRZYB .", "picture": null }, "geometry": { "type": "Point", "coordinates": [ 3.6244754, 49.5641017 ] } },
{ "type": "Feature", "properties": { "title": "22 rue Pasteur", "type": "BSB", "observation": "La boite se trouve dans le Square Poggibosi.", "picture": null }, "geometry": { "type": "Point", "coordinates": [ 3.0807925, 50.6600939 ] } },
{ "type": "Feature", "properties": { "title": "63 boulevard Clémenceau", "type": "BSB", "observation": "La boite à lire se trouve à proximité du Parc du petit prince.", "picture": null }, "geometry": { "type": "Point", "coordinates": [ 3.0834263, 50.6651217 ] } },
{ "type": "Feature", "properties": { "title": "Rue de la justice", "type": "BSB", "observation": "Sous un kiosque près de l école primaire", "picture": null }, "geometry": { "type": "Point", "coordinates": [ 2.847159, 50.45198 ] } },
{ "type": "Feature", "properties": { "title": "85 rue georges devouges", "type": "BSB", "observation": "Parking ecole maternelle", "picture": null }, "geometry": { "type": "Point", "coordinates": [ 2.8486636, 50.4455389 ] } },
{ "type": "Feature", "properties": { "title": "Place de la mairie", "type": "BSB", "observation": "", "picture": null }, "geometry": { "type": "Point", "coordinates": [ 1.9424051, 49.2790712 ] } },
{ "type": "Feature", "properties": { "title": "41 rue des grenadiers", "type": "BSB", "observation": "une boîte à livres créée par les élèves du collège du Septentrion . Elle est placée sur le mur de la  Maison pour tous, derrière la mairie.", "picture": null }, "geometry": { "type": "Point", "coordinates": [ 2.5243916, 51.0698034 ] } },
{ "type": "Feature", "properties": { "title": "Rue de l Église", "type": "BSB", "observation": "", "picture": null }, "geometry": { "type": "Point", "coordinates": [ 2.3157318, 49.8341197 ] } },
{ "type": "Feature", "properties": { "title": "169 avenue du Général Foy", "type": "BSB", "observation": "", "picture": null }, "geometry": { "type": "Point", "coordinates": [ 2.2815147, 49.8891762 ] } },
{ "type": "Feature", "properties": { "title": "Place du 8 Mai 1945", "type": "BSB", "observation": "", "picture": null }, "geometry": { "type": "Point", "coordinates": [ 2.318428, 49.9996 ] } },
{ "type": "Feature", "properties": { "title": "13 Grand Rue", "type": "BSB", "observation": "", "picture": null }, "geometry": { "type": "Point", "coordinates": [ 2.362462, 49.940928 ] } },
{ "type": "Feature", "properties": { "title": "Rue du Quai", "type": "BSB", "observation": "", "picture": null }, "geometry": { "type": "Point", "coordinates": [ 2.279531, 49.807696 ] } },
{ "type": "Feature", "properties": { "title": "28 rue de Paris", "type": "BSB", "observation": "", "picture": null }, "geometry": { "type": "Point", "coordinates": [ 2.2607818, 49.8142353 ] } },
{ "type": "Feature", "properties": { "title": "Rue de Seux", "type": "BSB", "observation": "", "picture": null }, "geometry": { "type": "Point", "coordinates": [ 2.2543986, 49.7872944 ] } },
{ "type": "Feature", "properties": { "title": "15, boulevard Dunant", "type": "BSB", "observation": "Derrière la Mia, où se trouve la crèche", "picture": null }, "geometry": { "type": "Point", "coordinates": [ 4.1058025, 50.2909528 ] } },
{ "type": "Feature", "properties": { "title": "Centre commercial Auchan-Fâches", "type": "BSB", "observation": "Se situe en face du magasin Edisac dans la galerie d Auchan", "picture": null }, "geometry": { "type": "Point", "coordinates": [ 3.0807768, 50.5819273 ] } },
{ "type": "Feature", "properties": { "title": "Place des republique", "type": "BSB", "observation": "Devant office du tourisme", "picture": null }, "geometry": { "type": "Point", "coordinates": [ 1.9050171, 50.5683826 ] } },
{ "type": "Feature", "properties": { "title": "Jardin Public, rue du cheval", "type": "BSB", "observation": "Réalisée par les enfants du Conseil Municipal des Jeunes de la commune, avec l appui technique du CPIE Val d'Authie et des matériaux de récupération durant l'année 2018, elle sera implantée et inaugurée le 12 Janvier 2019. D'autres sont déjà en construction !", "picture": null }, "geometry": { "type": "Point", "coordinates": [ 2.1060887, 50.2340566 ] } },
{ "type": "Feature", "properties": { "title": "2 rue Victor Hugo", "type": "BSB", "observation": "Elle se trouve dans la cour de la maison de santé.", "picture": null }, "geometry": { "type": "Point", "coordinates": [ 4.1044937, 50.0586162 ] } },
{ "type": "Feature", "properties": { "title": "2 rue des dunes le Töôk Tøõk", "type": "BSB", "observation": "Aux heures d?ouverture du restaurant", "picture": null }, "geometry": { "type": "Point", "coordinates": [ 1.5845339, 50.52735 ] } },
{ "type": "Feature", "properties": { "title": "rue du Village", "type": "BSB", "observation": "Accolée au mur de l école communale", "picture": null }, "geometry": { "type": "Point", "coordinates": [ 1.667315, 50.27248 ] } },
{ "type": "Feature", "properties": { "title": "rue norbert Ségard", "type": "BSB", "observation": "...Face à la maison de retraite !", "picture": null }, "geometry": { "type": "Point", "coordinates": [ 3.0995403, 50.7068629 ] } },
{ "type": "Feature", "properties": { "title": "Parc du Musée Lombard", "type": "BSB", "observation": "", "picture": null }, "geometry": { "type": "Point", "coordinates": [ 2.3434327, 50.1547057 ] } },
{ "type": "Feature", "properties": { "title": "Place de la Mairie", "type": "BSB", "observation": "Boîte à livres offerte par le Lions Club Calais Duc de Guise, inaugurée le 09 septembre 2018", "picture": null }, "geometry": { "type": "Point", "coordinates": [ 2.0244828, 50.8752621 ] } },
{ "type": "Feature", "properties": { "title": "Parc Hébert à côté du Centre des Ressources Culturelles", "type": "BSB", "observation": "Inaugurée le 8 Septembre 2018 par le Maire de Nogent Jean François DARDENNE, en présence de Céline ALFRED directrice de la Médiathèque, des Elus et le Club de Liancourt Nogent sur Oise", "picture": null }, "geometry": { "type": "Point", "coordinates": [ 2.4648302, 49.2731332 ] } },
{ "type": "Feature", "properties": { "title": "Parc de la maladrerie", "type": "BSB", "observation": "", "picture": null }, "geometry": { "type": "Point", "coordinates": [ 2.416228, 49.2530069 ] } },
{ "type": "Feature", "properties": { "title": "Val joly", "type": "BSB", "observation": "En face de la fontaine au val Joly.", "picture": null }, "geometry": { "type": "Point", "coordinates": [ 4.1362396, 50.1190025 ] } },
{ "type": "Feature", "properties": { "title": "Rue du Mal Foch", "type": "BSB", "observation": "", "picture": null }, "geometry": { "type": "Point", "coordinates": [ 2.9582733, 50.5946897 ] } },
{ "type": "Feature", "properties": { "title": "Place Blondeau , devant le Centre Lequime", "type": "BSB", "observation": "", "picture": null }, "geometry": { "type": "Point", "coordinates": [ 2.9844907, 50.6088503 ] } },
{ "type": "Feature", "properties": { "title": "Marché couvert", "type": "BSB", "observation": "Ancienne armoire située dans un escalier du marché couvert.", "picture": null }, "geometry": { "type": "Point", "coordinates": [ 3.2198624, 49.612529 ] } },
{ "type": "Feature", "properties": { "title": "Rue des Rouges Barres", "type": "BSB", "observation": "A l'angle de cette rue et de la rue Robert Schuman près la Maison de la Jeunesse du Buisson", "picture": null }, "geometry": { "type": "Point", "coordinates": [ 3.092982, 50.653205 ] } },
{ "type": "Feature", "properties": { "title": "Rue de Lille", "type": "BSB", "observation": "La boîte se trouve dans le parc du Hautmont près des jeux", "picture": null }, "geometry": { "type": "Point", "coordinates": [ 3.1316138, 50.6983136 ] } },
{ "type": "Feature", "properties": { "title": "Place du marché", "type": "BSB", "observation": "Une ancienne cabine de téléphone anglaise, sur la place du marché de Tilloy les Mofflaines", "picture": null }, "geometry": { "type": "Point", "coordinates": [ 2.780925, 50.292117 ] } },
{ "type": "Feature", "properties": { "title": "3 rue du docteur Bosquiel", "type": "BSB", "observation": "La boîte à livres se trouve sur la voie piétonne près de la bibliothèque.", "picture": null }, "geometry": { "type": "Point", "coordinates": [ 3.0927452, 50.7036051 ] } },
{ "type": "Feature", "properties": { "title": "Place de la Republique", "type": "BSB", "observation": "", "picture": null }, "geometry": { "type": "Point", "coordinates": [ 2.7271276, 50.5087099 ] } },
{ "type": "Feature", "properties": { "title": "Place Général Félix", "type": "BSB", "observation": "Boite à lire située sur la place de l église.", "picture": null }, "geometry": { "type": "Point", "coordinates": [ 3.5169931, 49.4105047 ] } },
{ "type": "Feature", "properties": { "title": "14 rue Victor Hugo", "type": "BSB", "observation": "Elle se situe sur le mur gauche du presbytère de Dechy.", "picture": null }, "geometry": { "type": "Point", "coordinates": [ 3.1256412, 50.3547636 ] } },
{ "type": "Feature", "properties": { "title": "228 rue arsene houssaye", "type": "BSB", "observation": "A cote du distributeur de fruits et légumes", "picture": null }, "geometry": { "type": "Point", "coordinates": [ 3.631312, 49.5454775 ] } },
{ "type": "Feature", "properties": { "title": "Parc de la haute borne", "type": "BSB", "observation": "Dans le parc à jeux pour enfants", "picture": null }, "geometry": { "type": "Point", "coordinates": [ 3.1577361, 50.6054121 ] } },
{ "type": "Feature", "properties": { "title": "rue pasteur ", "type": "BSB", "observation": "", "picture": null }, "geometry": { "type": "Point", "coordinates": [ 2.9635915, 50.5886617 ] } },
{ "type": "Feature", "properties": { "title": "Rue Raoul Follereau", "type": "BSB", "observation": "La boîte en forme de carottes se trouve au pied de la résidence.", "picture": null }, "geometry": { "type": "Point", "coordinates": [ 3.080474, 50.734341 ] } },
{ "type": "Feature", "properties": { "title": "Rue romanette", "type": "BSB", "observation": "Croisement rue jean monnet a l arret de bus", "picture": null }, "geometry": { "type": "Point", "coordinates": [ 3.611817, 49.550035 ] } },
{ "type": "Feature", "properties": { "title": "place du general leclerc", "type": "BSB", "observation": "", "picture": null }, "geometry": { "type": "Point", "coordinates": [ 2.544547, 50.4805063 ] } },
{ "type": "Feature", "properties": { "title": "RUE DE LA VIEILLE EGLISE", "type": "BSB", "observation": "", "picture": null }, "geometry": { "type": "Point", "coordinates": [ 3.1778861, 49.6323102 ] } },
{ "type": "Feature", "properties": { "title": "Rue de l'égalité", "type": "BSB", "observation": "Située dans la rue près de l'église", "picture": null }, "geometry": { "type": "Point", "coordinates": [ 2.5744578, 50.5633902 ] } },
{ "type": "Feature", "properties": { "title": "Place François Miterrand", "type": "BSB", "observation": "À côté de la Gare de Béthune.", "picture": null }, "geometry": { "type": "Point", "coordinates": [ 2.64072060585022, 50.52166731299652 ] } },
{ "type": "Feature", "properties": { "title": "Aire de jeux Fg de Pisseleux", "type": "BSB", "observation": "A proximité des écoles maternelles et primaires", "picture": null }, "geometry": { "type": "Point", "coordinates": [ 3.078107, 49.24197 ] } },
{ "type": "Feature", "properties": { "title": "Aire de jeux du Parc Salanson", "type": "BSB", "observation": "A proximité des écoles maternelle et primaire du centre ville", "picture": null }, "geometry": { "type": "Point", "coordinates": [ 3.0878354, 49.2545289 ] } },
{ "type": "Feature", "properties": { "title": "Aire de jeux Jean Zay", "type": "BSB", "observation": "A proximité de l école maternelle du quartier de la route de Vivières", "picture": null }, "geometry": { "type": "Point", "coordinates": [ 3.1005035, 49.2587755 ] } },
{ "type": "Feature", "properties": { "title": "3 Rue de l'École", "type": "BSB", "observation": "Sur la gauche de la Mairie, à côté du point Le Relai", "picture": null }, "geometry": { "type": "Point", "coordinates": [ 2.8157547, 49.7546302 ] } },
{ "type": "Feature", "properties": { "title": "marck", "type": "BSB", "observation": "près d une ecole sur un grillage", "picture": null }, "geometry": { "type": "Point", "coordinates": [ 1.8871508, 50.9449796 ] } },
{ "type": "Feature", "properties": { "title": "2 Rue Monsigny", "type": "BSB", "observation": "A l'angle de la rue Thiers et de la Rue Monsigny", "picture": null }, "geometry": { "type": "Point", "coordinates": [ 1.604985594749451, 50.724428227473958 ] } },
{ "type": "Feature", "properties": { "title": "Rue Paul Doucet", "type": "BSB", "observation": "", "picture": null }, "geometry": { "type": "Point", "coordinates": [ 3.4011844, 49.0415143 ] } },
{ "type": "Feature", "properties": { "title": "Ecole Juliot Curie", "type": "BSB", "observation": "", "picture": null }, "geometry": { "type": "Point", "coordinates": [ 2.8509137, 50.4136781 ] } },
{ "type": "Feature", "properties": { "title": "Centre culturel Fernand Léger", "type": "BSB", "observation": "", "picture": null }, "geometry": { "type": "Point", "coordinates": [ 2.834069, 50.4002598 ] } },
{ "type": "Feature", "properties": { "title": "Place duclos ", "type": "BSB", "observation": "", "picture": null }, "geometry": { "type": "Point", "coordinates": [ 2.8333141, 50.413364 ] } },
{ "type": "Feature", "properties": { "title": "Place Léon Blum", "type": "BSB", "observation": "Au phénix", "picture": null }, "geometry": { "type": "Point", "coordinates": [ 1.5937512, 50.7045398 ] } },
{ "type": "Feature", "properties": { "title": "rue Laennec", "type": "BSB", "observation": "", "picture": null }, "geometry": { "type": "Point", "coordinates": [ 2.3299461, 49.9042252 ] } },
{ "type": "Feature", "properties": { "title": "Place de la mairie", "type": "BSB", "observation": "", "picture": null }, "geometry": { "type": "Point", "coordinates": [ 2.3214462, 49.90082 ] } },
{ "type": "Feature", "properties": { "title": "Rue Porte Gayole", "type": "BSB", "observation": "Devant le Lycée Technique Branly", "picture": null }, "geometry": { "type": "Point", "coordinates": [ 1.6157322, 50.7216475 ] } },
{ "type": "Feature", "properties": { "title": "Boulevard Daunou", "type": "BSB", "observation": "Gare routière, près du Centre Commercial Liane", "picture": null }, "geometry": { "type": "Point", "coordinates": [ 1.6076263, 50.7197715 ] } },
{ "type": "Feature", "properties": { "title": "Promenade de la Liane, Rive Droite", "type": "BSB", "observation": "A proximité d'un parc de jeux", "picture": null }, "geometry": { "type": "Point", "coordinates": [ 1.605076789855957, 50.719245721823313 ] } },
{ "type": "Feature", "properties": { "title": "Remparts, Porte Neuve", "type": "BSB", "observation": "Dans la Vieille Ville, près de la Cathédrale", "picture": null }, "geometry": { "type": "Point", "coordinates": [ 1.616020202636719, 50.726377461989891 ] } },
{ "type": "Feature", "properties": { "title": "rue jean jaurès - parvis de la mairie", "type": "BSB", "observation": "Prenez  Lisez  puis  Rapportezquand  vous  voulezcomme  vous  voulezAccessible  sans  abonnementni   inscription7  jours   sur   724  h  sur  24et  c est  gratuit !", "picture": null }, "geometry": { "type": "Point", "coordinates": [ 3.482832, 50.307778 ] } },
{ "type": "Feature", "properties": { "title": "rue jean jaurès", "type": "BSB", "observation": "parvis de la mairie", "picture": null }, "geometry": { "type": "Point", "coordinates": [ 3.4816197, 50.3074903 ] } },
{ "type": "Feature", "properties": { "title": "Résidence Bayard", "type": "BSB", "observation": "", "picture": null }, "geometry": { "type": "Point", "coordinates": [ 2.392782, 50.6406976 ] } },
{ "type": "Feature", "properties": { "title": "Place Philippe d Alsace", "type": "BSB", "observation": "À côté de la gendarmerie", "picture": null }, "geometry": { "type": "Point", "coordinates": [ 2.405608, 50.632484 ] } },
{ "type": "Feature", "properties": { "title": "Ronie23@neuf.fr", "type": "BSB", "observation": "À moissac bellevue 83 en bas du village", "picture": null }, "geometry": { "type": "Point", "coordinates": [ 2.5405902, 50.5221454 ] } },
{ "type": "Feature", "properties": { "title": "Gare de bethune", "type": "BSB", "observation": "Plusieurs a bruay la buissiereGare de bethune", "picture": null }, "geometry": { "type": "Point", "coordinates": [ 2.5811131, 50.4944068 ] } },
{ "type": "Feature", "properties": { "title": "18, rue Jean-Jaurès", "type": "BSB", "observation": "Boîte à livres mise à disposition à l entrée du château de Charmes Aisne", "picture": null }, "geometry": { "type": "Point", "coordinates": [ 3.382692, 49.6496818 ] } },
{ "type": "Feature", "properties": { "title": "rue Leon Jouhaux", "type": "BSB", "observation": "Petit boite à lire devant la salle des fête et la bibliothèque.", "picture": null }, "geometry": { "type": "Point", "coordinates": [ 2.5342465, 49.30416 ] } },
{ "type": "Feature", "properties": { "title": "2 rue jules guesdes", "type": "BSB", "observation": "Les commerces de proximité VIVAL installent des boites à livres devant tous leurs commerces. Félicitations, très belle réalisation.", "picture": null }, "geometry": { "type": "Point", "coordinates": [ 2.8516008, 50.4943662 ] } },
{ "type": "Feature", "properties": { "title": "Rue de l église", "type": "BSB", "observation": "En face de la mairie", "picture": null }, "geometry": { "type": "Point", "coordinates": [ 2.3541402, 50.650384 ] } },
{ "type": "Feature", "properties": { "title": "Rue du brûle", "type": "BSB", "observation": "Sur la salle des fêtes", "picture": null }, "geometry": { "type": "Point", "coordinates": [ 2.298719, 50.671011 ] } },
{ "type": "Feature", "properties": { "title": "Rue de l église", "type": "BSB", "observation": "Se situe sur l école", "picture": null }, "geometry": { "type": "Point", "coordinates": [ 2.318633, 50.6789256 ] } },
{ "type": "Feature", "properties": { "title": "Impasse du Triest", "type": "BSB", "observation": "La boîte se trouve au sein de la ferme Dehaudt, elle est accessible en fonction des horaires d ouverture", "picture": null }, "geometry": { "type": "Point", "coordinates": [ 3.1216135, 50.673389 ] } },
{ "type": "Feature", "properties": { "title": "Place pasteur", "type": "BSB", "observation": "Boite bleue intégrée au mur de l école primaire Pasteur", "picture": null }, "geometry": { "type": "Point", "coordinates": [ 2.6383624, 50.5382911 ] } },
{ "type": "Feature", "properties": { "title": "Genvry", "type": "BSB", "observation": "Cabine téléphonique Anglaise", "picture": null }, "geometry": { "type": "Point", "coordinates": [ 2.9905879, 49.611882 ] } },
{ "type": "Feature", "properties": { "title": "Place du marché", "type": "BSB", "observation": "A proximité du cimetière, à côté de l?air de jeux", "picture": null }, "geometry": { "type": "Point", "coordinates": [ 3.183828, 50.6543546 ] } },
{ "type": "Feature", "properties": { "title": "Rue Racine", "type": "BSB", "observation": "A côté du centre social", "picture": null }, "geometry": { "type": "Point", "coordinates": [ 3.174101, 50.669519 ] } },
{ "type": "Feature", "properties": { "title": "62 rue de Caulmont", "type": "BSB", "observation": "", "picture": null }, "geometry": { "type": "Point", "coordinates": [ 2.7531891, 49.3749135 ] } },
{ "type": "Feature", "properties": { "title": "25 rue du docteur calmette", "type": "BSB", "observation": "", "picture": null }, "geometry": { "type": "Point", "coordinates": [ 3.572091, 50.3080787 ] } },
{ "type": "Feature", "properties": { "title": "Square Plichon", "type": "BSB", "observation": "Dans le square Plichon", "picture": null }, "geometry": { "type": "Point", "coordinates": [ 2.7327974, 50.7374657 ] } },
{ "type": "Feature", "properties": { "title": "Jardin âge", "type": "BSB", "observation": "Dans le parc Dufour, pour aller au Crefo", "picture": null }, "geometry": { "type": "Point", "coordinates": [ 2.7371836, 50.7305473 ] } },
{ "type": "Feature", "properties": { "title": "1442 Rue d Armentières", "type": "BSB", "observation": "Sur le mur du CCAS", "picture": null }, "geometry": { "type": "Point", "coordinates": [ 2.8564092, 50.6975784 ] } },
{ "type": "Feature", "properties": { "title": "rue de la mairie", "type": "BSB", "observation": "", "picture": null }, "geometry": { "type": "Point", "coordinates": [ 1.9601472, 50.8247583 ] } },
{ "type": "Feature", "properties": { "title": "9 Rue de Tourcoing", "type": "BSB", "observation": "Devant la Bibliothèque pour Tous", "picture": null }, "geometry": { "type": "Point", "coordinates": [ 3.1520837, 50.7511263 ] } },
{ "type": "Feature", "properties": { "title": "Gare de Clermont de l'oise", "type": "BSB", "observation": "Boîte à lire située devant l'entrée principale de la gare de Clermont sur l'oise.", "picture": null }, "geometry": { "type": "Point", "coordinates": [ 2.417399883270264, 49.385026846508481 ] } },
{ "type": "Feature", "properties": { "title": "Ferme du Bocquiau", "type": "BSB", "observation": "", "picture": null }, "geometry": { "type": "Point", "coordinates": [ 2.9896947, 50.6144529 ] } },
{ "type": "Feature", "properties": { "title": "Place Pierre Semard", "type": "BSB", "observation": "", "picture": null }, "geometry": { "type": "Point", "coordinates": [ 3.6295831, 49.5736967 ] } },
{ "type": "Feature", "properties": { "title": "205 bis rue du Faubourg de Roubaix", "type": "BSB", "observation": "Au niveau de la médiathèque de quartier !", "picture": null }, "geometry": { "type": "Point", "coordinates": [ 3.088177442550659, 50.642364668314471 ] } },
{ "type": "Feature", "properties": { "title": "56 rue Albert Bailly", "type": "BSB", "observation": "La boîte se trouve à l'entrée de le Médiathèque. Elle est accessible aux horaires d'ouverture de la médiathèque.", "picture": null }, "geometry": { "type": "Point", "coordinates": [ 3.093338012695313, 50.678376915975647 ] } },
{ "type": "Feature", "properties": { "title": "Rue Hubert Level", "type": "BSB", "observation": "", "picture": null }, "geometry": { "type": "Point", "coordinates": [ 1.775583, 50.892001 ] } },
{ "type": "Feature", "properties": { "title": "Place de la Mairie", "type": "BSB", "observation": "Elle est située dans l'abribus", "picture": null }, "geometry": { "type": "Point", "coordinates": [ 2.6399616, 49.2546883 ] } },
{ "type": "Feature", "properties": { "title": "Rue des écoles", "type": "BSB", "observation": "Installée en Mai 2018 par la ville, elle est située à proximité de l'arrêt de bus", "picture": null }, "geometry": { "type": "Point", "coordinates": [ 2.8633819, 49.468456 ] } },
{ "type": "Feature", "properties": { "title": "1 Rue de Revelles", "type": "BSB", "observation": "Boîte près du petit plan d eauFerme d antan", "picture": null }, "geometry": { "type": "Point", "coordinates": [ 2.1631653, 49.8392959 ] } },
{ "type": "Feature", "properties": { "title": "849 rue d Armentières", "type": "BSB", "observation": "La boîte se trouve sur la façade de la MLC", "picture": null }, "geometry": { "type": "Point", "coordinates": [ 2.849391, 50.7003691 ] } },
{ "type": "Feature", "properties": { "title": "Rue du Retuy", "type": "BSB", "observation": "", "picture": null }, "geometry": { "type": "Point", "coordinates": [ 2.7949751, 50.5407463 ] } },
{ "type": "Feature", "properties": { "title": "Rue du docteur Schweitzer", "type": "BSB", "observation": "La boîte à lire se trouve au bout de la rue, elle est installée dans le grillage du parc.", "picture": null }, "geometry": { "type": "Point", "coordinates": [ 3.0849376, 50.7366795 ] } },
{ "type": "Feature", "properties": { "title": "castel st Gérard", "type": "BSB", "observation": "", "picture": null }, "geometry": { "type": "Point", "coordinates": [ 3.039675, 50.6518982 ] } },
{ "type": "Feature", "properties": { "title": "6 rue Lavoisier", "type": "BSB", "observation": "Horaires d'accès aux boîtes à lire du lundi au vendredi de 9h à 12h et de 14h à 17h.", "picture": null }, "geometry": { "type": "Point", "coordinates": [ 2.8409012, 50.4383139 ] } },
{ "type": "Feature", "properties": { "title": "Gare", "type": "BSB", "observation": "La boite se trouve devant la gare.", "picture": null }, "geometry": { "type": "Point", "coordinates": [ 2.5398845, 50.7250215 ] } },
{ "type": "Feature", "properties": { "title": "rue Le Nôtre", "type": "BSB", "observation": "Devant les jeux d enfants/sable", "picture": null }, "geometry": { "type": "Point", "coordinates": [ 3.0379273, 50.6516329 ] } },
{ "type": "Feature", "properties": { "title": "gare de Laon", "type": "BSB", "observation": "La ville de Laon a installée huit boîtes à livres dans chaque quartier de la ville avec l aide du semeur de livres Jean-Michel Hennequin qui a aussi installé un meuble à livres à la gare de Laon", "picture": null }, "geometry": { "type": "Point", "coordinates": [ 3.6245097, 49.5706463 ] } },
{ "type": "Feature", "properties": { "title": "Place du Château", "type": "BSB", "observation": "à l école maternelle", "picture": null }, "geometry": { "type": "Point", "coordinates": [ 2.7255842, 50.6946656 ] } },
{ "type": "Feature", "properties": { "title": "Rue du Bois", "type": "BSB", "observation": "c'est un particulier qui l'a installé en face de chez  lui", "picture": null }, "geometry": { "type": "Point", "coordinates": [ 2.7184607, 50.6574755 ] } },
{ "type": "Feature", "properties": { "title": "Place de l'Hotel de Ville", "type": "BSB", "observation": "Face à la mairie", "picture": null }, "geometry": { "type": "Point", "coordinates": [ 2.7216262, 50.6445509 ] } },
{ "type": "Feature", "properties": { "title": "Place de la mairie", "type": "BSB", "observation": "Boite a livre mise en place par la mairie.", "picture": null }, "geometry": { "type": "Point", "coordinates": [ 2.20747, 49.1987949 ] } },
{ "type": "Feature", "properties": { "title": "1 Rue du Maréchal Joffre", "type": "BSB", "observation": "La Cabine aux Livres du Bizet, Centre Social des 4 Saisons", "picture": null }, "geometry": { "type": "Point", "coordinates": [ 2.8863266, 50.6976983 ] } },
{ "type": "Feature", "properties": { "title": "Rue Guynemer", "type": "BSB", "observation": "La boite se trouve dans l enceinte du parc Malraux", "picture": null }, "geometry": { "type": "Point", "coordinates": [ 3.0741885, 50.6552874 ] } },
{ "type": "Feature", "properties": { "title": "96 rue François Mériaux", "type": "BSB", "observation": "Ce n est pas une boîte à livre en règle, c est un espace d'échange de livres à l'intérieur du Musée des Arts et Traditions Populaires de la ville de Wattrelos. L'entrée est gratuite et la visite du musée est instructive, les reconstitutions historiques sont réalistes . Du Mardi au samedi de 9h à 12h et de 14h à 18h le dimanche de 15h à 18h", "picture": null }, "geometry": { "type": "Point", "coordinates": [ 3.2212895, 50.6990881 ] } },
{ "type": "Feature", "properties": { "title": "Grande Place Grand Place", "type": "BSB", "observation": "La boîte est bien visible, devant la mairie et à côté de l église, dans les tons bleus, similaire, d'ailleurs, à celle de la gare d'Hazebrouck à qui il manque hélas actuellement une porte...", "picture": null }, "geometry": { "type": "Point", "coordinates": [ 2.6047363, 50.7590331 ] } },
{ "type": "Feature", "properties": { "title": "32 rue du moulin Fagot", "type": "BSB", "observation": "La boîte se trouve au jardin botanique de Tourcoing. Attention aux horaires en fonction des horaires du service espaces verts et jardin.", "picture": null }, "geometry": { "type": "Point", "coordinates": [ 3.1680602, 50.7242267 ] } },
{ "type": "Feature", "properties": { "title": "4 rue d?Echinghen", "type": "BSB", "observation": "Situe juste devant le magasin Vival ?Contient de nombreux livres", "picture": null }, "geometry": { "type": "Point", "coordinates": [ 1.6731496, 50.7121895 ] } },
{ "type": "Feature", "properties": { "title": "place de la foulerie", "type": "BSB", "observation": "Place de l'ecole", "picture": null }, "geometry": { "type": "Point", "coordinates": [ 1.8849467, 49.2637331 ] } },
{ "type": "Feature", "properties": { "title": "794 Avenue de Dunkerque", "type": "BSB", "observation": "Boîte jaune et blanche en plastique ondulé située au sein de l Odyssée médiathèque, à deux pas de Maison des enfants. Premier hall près du distributeur de boissons, entre l'accueil et la salle informatique.", "picture": null }, "geometry": { "type": "Point", "coordinates": [ 2.9946468, 50.6463797 ] } },
{ "type": "Feature", "properties": { "title": "7 bis, rue de l Asie", "type": "BSB", "observation": "Armoire en bois située dans le hall de la Fabrique du Sud, à côté de la médiathèque.", "picture": null }, "geometry": { "type": "Point", "coordinates": [ 3.0546225, 50.6107489 ] } },
{ "type": "Feature", "properties": { "title": "rue Gambetta", "type": "BSB", "observation": "Devant l'école maternelle Victor Loridan à côté du parking", "picture": null }, "geometry": { "type": "Point", "coordinates": [ 2.9624918, 50.6136348 ] } },
{ "type": "Feature", "properties": { "title": "8 place du marechal foch", "type": "BSB", "observation": "Juste en face de la mairie.", "picture": null }, "geometry": { "type": "Point", "coordinates": [ 4.1181758, 50.0404597 ] } },
{ "type": "Feature", "properties": { "title": "Place Max Lejeune", "type": "BSB", "observation": "Sous le porche de la mairie d Abbeville. ", "picture": null }, "geometry": { "type": "Point", "coordinates": [ 1.833912134170532, 50.105954441321984 ] } },
{ "type": "Feature", "properties": { "title": "Parking métro 4 cantons", "type": "BSB", "observation": "Pratique de pouvoir prendre un livre avant de prendre le métro !", "picture": null }, "geometry": { "type": "Point", "coordinates": [ 3.1389991, 50.6053943 ] } },
{ "type": "Feature", "properties": { "title": "Gare SNCF", "type": "BSB", "observation": "La boîte se trouve dans le hall de la gare", "picture": null }, "geometry": { "type": "Point", "coordinates": [ 2.78139, 50.2869342 ] } },
{ "type": "Feature", "properties": { "title": "112 Rue henri Barbusse", "type": "BSB", "observation": "L association Cap horizon est fier d'avoir créé sa boite à lire afin de pérenniser le contact et l'échange intergénérationnel.", "picture": null }, "geometry": { "type": "Point", "coordinates": [ 1.5438734, 50.0852406 ] } },
{ "type": "Feature", "properties": { "title": "1 rue de la paix", "type": "BSB", "observation": "Boîte à lire entre l'eglise et Izmir Kabab", "picture": null }, "geometry": { "type": "Point", "coordinates": [ 1.6105963, 50.7290738 ] } },
{ "type": "Feature", "properties": { "title": "27 rue heureuse", "type": "BSB", "observation": "Elle se trouve dans la salle d attente du dentiste.", "picture": null }, "geometry": { "type": "Point", "coordinates": [ 4.0329343, 50.0465223 ] } },
{ "type": "Feature", "properties": { "title": "Rue de l'Eglise", "type": "BSB", "observation": "Située juste à la droite de la mairie, contre le mur avant la salle des fêtes Louis Vicart.", "picture": null }, "geometry": { "type": "Point", "coordinates": [ 2.392401695251465, 50.668857949537639 ] } },
{ "type": "Feature", "properties": { "title": "Avenue du général de Gaulle", "type": "BSB", "observation": "La boite à lire se trouve à proximité du groupe scolaire Les Obeaux et près du complexe sportif.", "picture": null }, "geometry": { "type": "Point", "coordinates": [ 3.09747, 50.7029457 ] } },
{ "type": "Feature", "properties": { "title": "5 Avenue Robert Deschamps", "type": "BSB", "observation": "La boite à lire se trouve à l'entrée du centre enfance/famille de la commune", "picture": null }, "geometry": { "type": "Point", "coordinates": [ 3.0821674, 50.7375893 ] } },
{ "type": "Feature", "properties": { "title": "Ruelle Maillet", "type": "BSB", "observation": "", "picture": null }, "geometry": { "type": "Point", "coordinates": [ 3.763156, 50.136823 ] } },
{ "type": "Feature", "properties": { "title": "Place du général Leclerc", "type": "BSB", "observation": "Boite à lire située juste en face du bar tabac Le Reinitas, sous le préau.", "picture": null }, "geometry": { "type": "Point", "coordinates": [ 2.3444346, 49.8878248 ] } },
{ "type": "Feature", "properties": { "title": "Avenue saint Sulpice", "type": "BSB", "observation": "Elle se trouve au croisement de l avenue saint Sulpice avec la rue d'offemont.", "picture": null }, "geometry": { "type": "Point", "coordinates": [ 2.8879358, 49.4617843 ] } },
{ "type": "Feature", "properties": { "title": "29 Route de Montreuil", "type": "BSB", "observation": "Petite boîte à lire de couleur rouge, à proximité du camping", "picture": null }, "geometry": { "type": "Point", "coordinates": [ 1.6941466, 50.3148459 ] } },
{ "type": "Feature", "properties": { "title": "Rue des Bois Blancs", "type": "BSB", "observation": "à coté de l église", "picture": null }, "geometry": { "type": "Point", "coordinates": [ 3.0257534, 50.6311456 ] } },
{ "type": "Feature", "properties": { "title": "gare", "type": "BSB", "observation": "Juste devant la gare", "picture": null }, "geometry": { "type": "Point", "coordinates": [ 1.6481823, 50.4157583 ] } },
{ "type": "Feature", "properties": { "title": "rue ROBELIN", "type": "BSB", "observation": "face a l église a 50 metre", "picture": null }, "geometry": { "type": "Point", "coordinates": [ 1.9679158, 50.9827181 ] } },
{ "type": "Feature", "properties": { "title": "Rue de Beauvais", "type": "BSB", "observation": "Boîte à lire à côté de la supérette du village", "picture": null }, "geometry": { "type": "Point", "coordinates": [ 2.217766, 49.563745 ] } },
{ "type": "Feature", "properties": { "title": "Place de la Grande Roize", "type": "BSB", "observation": "Belle boîte à lire se trouvant près de bancs afin de pouvoir lire sur place.", "picture": null }, "geometry": { "type": "Point", "coordinates": [ 3.8932325, 49.5726033 ] } },
{ "type": "Feature", "properties": { "title": "3280 rue de la Lys", "type": "BSB", "observation": "La boîte à lire se situe devant la grille d'entrée de l'école maternelle Jacques Prévert.", "picture": null }, "geometry": { "type": "Point", "coordinates": [ 2.7980195, 50.6614602 ] } },
{ "type": "Feature", "properties": { "title": "1071 Rue de la Lys", "type": "BSB", "observation": "La boîte à lire se situe à l'entrée de l'aire de jeux pour enfants au fond du parking de la mairie de Sailly sur la Lys.", "picture": null }, "geometry": { "type": "Point", "coordinates": [ 2.769562, 50.6580207 ] } },
{ "type": "Feature", "properties": { "title": "Gare de Hazebrouck", "type": "BSB", "observation": "La boîte se situe sur le parvis de la Gare.", "picture": null }, "geometry": { "type": "Point", "coordinates": [ 2.5414763, 50.7250474 ] } },
{ "type": "Feature", "properties": { "title": "Mairie", "type": "BSB", "observation": "disposer devant la mairie depuis le 14 novembre 2017", "picture": null }, "geometry": { "type": "Point", "coordinates": [ 2.8682628, 50.4382364 ] } },
{ "type": "Feature", "properties": { "title": "Centre commercial Auchan", "type": "BSB", "observation": "Elle se trouve dans la galerie commerciale entre les caisses et les boutiques,  au milieu de l'allée c'est une grande arche en bois", "picture": null }, "geometry": { "type": "Point", "coordinates": [ 2.7320165, 50.2999308 ] } },
{ "type": "Feature", "properties": { "title": "Place Paul Doumer", "type": "BSB", "observation": "Près du parking juste avant le pont, à côté du Quai Dupuis Delizy.", "picture": null }, "geometry": { "type": "Point", "coordinates": [ 3.404904, 49.0403809 ] } },
{ "type": "Feature", "properties": { "title": "", "type": "BSB", "observation": "Boite à lire dans l'abris bus de pisseloup.", "picture": null }, "geometry": { "type": "Point", "coordinates": [ 3.26379, 48.949185 ] } },
{ "type": "Feature", "properties": { "title": "1 Rue Aristide Briand", "type": "BSB", "observation": "À l eco velo", "picture": null }, "geometry": { "type": "Point", "coordinates": [ 3.9997501, 50.2561969 ] } },
{ "type": "Feature", "properties": { "title": "117 avenue octave butin", "type": "BSB", "observation": "Boîte à lire rustique, fabriquée en métal et bois vernis.", "picture": null }, "geometry": { "type": "Point", "coordinates": [ 2.8188062, 49.4237825 ] } },
{ "type": "Feature", "properties": { "title": "RUE VICTOR RENARD", "type": "BSB", "observation": "vous pouvez y déposer livres, magazine et BD", "picture": null }, "geometry": { "type": "Point", "coordinates": [ 3.364305, 50.413956 ] } },
{ "type": "Feature", "properties": { "title": "Auchan Arras", "type": "BSB", "observation": "Galerie Marchande Auchan Arras", "picture": null }, "geometry": { "type": "Point", "coordinates": [ 2.7311788, 50.2991069 ] } },
{ "type": "Feature", "properties": { "title": "43 rue Louis Pasteur", "type": "BSB", "observation": "Près du restaurant Le terrier en face de l église", "picture": null }, "geometry": { "type": "Point", "coordinates": [ 2.9606617, 50.6156789 ] } },
{ "type": "Feature", "properties": { "title": "14 avenue Winston Churchill", "type": "BSB", "observation": "C est une boîte à livre qui se trouve dans le parc Mallet Stevens à Croix, elle est tout simple et encore peu de livres... Vu qu'il n'y a pas d'indications", "picture": null }, "geometry": { "type": "Point", "coordinates": [ 3.1683082, 50.6677748 ] } },
{ "type": "Feature", "properties": { "title": "17bis rue Michaulane", "type": "BSB", "observation": "Initiative personnelle, pour susciter un projet local", "picture": null }, "geometry": { "type": "Point", "coordinates": [ 2.3712054, 49.2064437 ] } },
{ "type": "Feature", "properties": { "title": "rue du général lecler", "type": "BSB", "observation": "dans la cabine téléphonique en face de la mairie", "picture": null }, "geometry": { "type": "Point", "coordinates": [ 1.626816, 50.21566 ] } },
{ "type": "Feature", "properties": { "title": "16 rue de warneton", "type": "BSB", "observation": "La boite se situe à l'entrée du Parc du Château. Partager le plaisir de lire... ", "picture": null }, "geometry": { "type": "Point", "coordinates": [ 2.8393953, 50.7046884 ] } },
{ "type": "Feature", "properties": { "title": "34 rue de la Réublique", "type": "BSB", "observation": "Une boite à livres en forme de maisonnette pour abriter des mots et des images pour le bonheur de tous, enfants et plus grands. Elle se trouve dans l Abribus dans le centre du village. ", "picture": null }, "geometry": { "type": "Point", "coordinates": [ 1.875652, 49.9918502 ] } },
{ "type": "Feature", "properties": { "title": "9 Allées du Parc", "type": "BSB", "observation": "La boîte se situe à l intérieur du jardin public, à côté des jeux pour enfants.", "picture": null }, "geometry": { "type": "Point", "coordinates": [ 2.2467966, 50.7505213 ] } },
{ "type": "Feature", "properties": { "title": "34 Rue Michel Bléré", "type": "BSB", "observation": "Deux boites à lire dans le parc du château.", "picture": null }, "geometry": { "type": "Point", "coordinates": [ 2.4426469, 49.1520158 ] } },
{ "type": "Feature", "properties": { "title": "rue des falizes ", "type": "BSB", "observation": "dans une ruelle", "picture": null }, "geometry": { "type": "Point", "coordinates": [ 3.9247891, 50.2076521 ] } },
{ "type": "Feature", "properties": { "title": "Esplanade Ml Leclerc", "type": "BSB", "observation": "3 boites à lire sur l'Esplanade en bord de mer, une autre sur la place du marché à l'entrée d'une aire de jeux. Peut être d'autres.", "picture": null }, "geometry": { "type": "Point", "coordinates": [ 1.3862991, 50.0697743 ] } },
{ "type": "Feature", "properties": { "title": "rue marin la Meslée", "type": "BSB", "observation": "sur le mur de l'épicerie du Flobart, ce n'est pas une véritable boite à lire mais plutôt un boite créée par le proprio de l'épicerie.", "picture": null }, "geometry": { "type": "Point", "coordinates": [ 1.5922187, 50.8238743 ] } },
{ "type": "Feature", "properties": { "title": "3 rue Georges Romain", "type": "BSB", "observation": "Dans le cabinet de médecins \"La rivière\".", "picture": null }, "geometry": { "type": "Point", "coordinates": [ 1.612239, 50.7707207 ] } },
{ "type": "Feature", "properties": { "title": "Champs de Mars", "type": "BSB", "observation": "Dans le parc Mise en place par l'association ORIZON.", "picture": null }, "geometry": { "type": "Point", "coordinates": [ 2.6035117, 49.3059843 ] } },
{ "type": "Feature", "properties": { "title": "centre ccial Auchan ", "type": "BSB", "observation": "La boîte à lire se trouve dans le magasin OPTIQUE 10/10 situé sur le parking Boulanger. Système d échange de livres gratuit. Beaucoup de choix et livres en très bon état. Livres actuels et anciens, adultes / enfants ... Tous styles de livres. ", "picture": null }, "geometry": { "type": "Point", "coordinates": [ 3.086128, 50.585239 ] } },
{ "type": "Feature", "properties": { "title": "7 rue Nationale", "type": "BSB", "observation": "La boite à lire se trouve dans le restaurant Pomme de Pain. ", "picture": null }, "geometry": { "type": "Point", "coordinates": [ 3.0625248, 50.6369281 ] } },
{ "type": "Feature", "properties": { "title": "place Omer Vallon", "type": "BSB", "observation": "A proximité de la brasserie La place", "picture": null }, "geometry": { "type": "Point", "coordinates": [ 2.4656551, 49.1940211 ] } },
{ "type": "Feature", "properties": { "title": "mairie", "type": "BSB", "observation": "", "picture": null }, "geometry": { "type": "Point", "coordinates": [ 2.9299963, 50.6221309 ] } },
{ "type": "Feature", "properties": { "title": "36 Rue des forts ", "type": "BSB", "observation": "Devant le petit stendham. Attention, il faut mettre les livres parallèlement à l'ouverture sinon ils risquent de s'abimer.", "picture": null }, "geometry": { "type": "Point", "coordinates": [ 2.3762316, 51.0211373 ] } },
{ "type": "Feature", "properties": { "title": "rue de la place de la mairie", "type": "BSB", "observation": "Ancienne cabine téléphonique transformée en cabine à livres en face de la place du marché sur un trottoir.", "picture": null }, "geometry": { "type": "Point", "coordinates": [ 1.7137225, 50.9171628 ] } },
{ "type": "Feature", "properties": { "title": "1057 Route d'Escalles", "type": "BSB", "observation": "Ancienne cabine téléphonique transformée en boite à lire près de la mairie.", "picture": null }, "geometry": { "type": "Point", "coordinates": [ 1.7688993, 50.9151022 ] } },
{ "type": "Feature", "properties": { "title": "14 rue de la Sellerie ", "type": "BSB", "observation": "A l'intérieur de l'Espace Saint-Jacques, à coté de l'accueil.", "picture": null }, "geometry": { "type": "Point", "coordinates": [ 3.2885898, 49.8458679 ] } },
{ "type": "Feature", "properties": { "title": "boulevard de la liberté", "type": "BSB", "observation": "espace ou déposer ou prendre des livres. Se situe dans le snack la pomme de pain.", "picture": null }, "geometry": { "type": "Point", "coordinates": [ 3.0607213, 50.6322667 ] } },
{ "type": "Feature", "properties": { "title": "187 rue Jean Jaurès", "type": "BSB", "observation": "Dans le parc de la marie, près du kiosque à musique.", "picture": null }, "geometry": { "type": "Point", "coordinates": [ 3.1557306, 50.680511 ] } },
{ "type": "Feature", "properties": { "title": "Rue corberue", "type": "BSB", "observation": "Au niveau de l église, en hauteur hauteur sur le jardin juste å côté.", "picture": null }, "geometry": { "type": "Point", "coordinates": [ 2.121941, 49.201438 ] } },
{ "type": "Feature", "properties": { "title": "Rue de puisieux", "type": "BSB", "observation": "La boite se situe sur la gauche, face a la boulangerie.", "picture": null }, "geometry": { "type": "Point", "coordinates": [ 3.3436554, 49.803955 ] } },
{ "type": "Feature", "properties": { "title": "Rue de l'Église", "type": "BSB", "observation": "Dans la petite impasse Face au groupe scolaire, a côté du centre de loisirs.", "picture": null }, "geometry": { "type": "Point", "coordinates": [ 3.3452351, 49.8072034 ] } },
{ "type": "Feature", "properties": { "title": "rue saint jean", "type": "BSB", "observation": "Boite à lire construite par l'association Sève.", "picture": null }, "geometry": { "type": "Point", "coordinates": [ 3.6180922, 49.56452 ] } },
{ "type": "Feature", "properties": { "title": "rue châtelaine", "type": "BSB", "observation": "Boite à lire construite par l'association Sève !", "picture": null }, "geometry": { "type": "Point", "coordinates": [ 3.621731, 49.5642712 ] } },
{ "type": "Feature", "properties": { "title": "avenue Marie-Amelie", "type": "BSB", "observation": "Bois st denis", "picture": null }, "geometry": { "type": "Point", "coordinates": [ 2.4578274, 49.1768139 ] } },
{ "type": "Feature", "properties": { "title": "33 boulevard de cambrai", "type": "BSB", "observation": "bien sympathique", "picture": null }, "geometry": { "type": "Point", "coordinates": [ 3.1648206, 50.6830231 ] } },
{ "type": "Feature", "properties": { "title": "Gare de Chantilly", "type": "BSB", "observation": "Sur le parking a la sortie de la gare", "picture": null }, "geometry": { "type": "Point", "coordinates": [ 2.4599846, 49.1867205 ] } },
{ "type": "Feature", "properties": { "title": "", "type": "BSB", "observation": "La boite se situe dans la cabine téléphonique pas très loin de l'école.", "picture": null }, "geometry": { "type": "Point", "coordinates": [ 2.269171, 49.2009649 ] } },
{ "type": "Feature", "properties": { "title": "Grande rue", "type": "BSB", "observation": "Mise en place début 2017, en lien avec l atelier bricolage du village, 250 habitants", "picture": null }, "geometry": { "type": "Point", "coordinates": [ 3.8953272, 49.64578 ] } },
{ "type": "Feature", "properties": { "title": "place Alphonse Fiquet", "type": "BSB", "observation": "Sur le parvis de la gare, face à la Tour Perret.", "picture": null }, "geometry": { "type": "Point", "coordinates": [ 2.3067847, 49.8910679 ] } },
{ "type": "Feature", "properties": { "title": "Avenue Jean Lefesvre", "type": "BSB", "observation": "Bien pleine cette boîte à lire !", "picture": null }, "geometry": { "type": "Point", "coordinates": [ 3.3953779, 49.0434747 ] } },
{ "type": "Feature", "properties": { "title": "Rue du Romelaere", "type": "BSB", "observation": "Sur le bord du parking en face de l'Eglise.", "picture": null }, "geometry": { "type": "Point", "coordinates": [ 2.2984438, 50.7747091 ] } },
{ "type": "Feature", "properties": { "title": "32 Rue Frédéric Petite", "type": "BSB", "observation": "Une ancienne cabine téléphonique donnée la commune voisine de Dargies a été mise ne place au sein du Centre Social Rural du Canton de Grandvilliers.", "picture": null }, "geometry": { "type": "Point", "coordinates": [ 1.9379041, 49.6661795 ] } },
{ "type": "Feature", "properties": { "title": "rue du 8 mai 45", "type": "BSB", "observation": "La boîte se trouve sur le pilier à l'entrée de la Maison Pour Tous", "picture": null }, "geometry": { "type": "Point", "coordinates": [ 2.3311906, 50.3769557 ] } },
{ "type": "Feature", "properties": { "title": "Place de l'Hôtel de ville", "type": "BSB", "observation": "La boîte se trouve sur le mur de la Mairie.", "picture": null }, "geometry": { "type": "Point", "coordinates": [ 2.3364299, 50.3811933 ] } },
{ "type": "Feature", "properties": { "title": "", "type": "BSB", "observation": "Fabriquée par G. LEROY, Compagnon et offerte gracieusement à la commune.", "picture": null }, "geometry": { "type": "Point", "coordinates": [ 2.64132, 49.62695 ] } },
{ "type": "Feature", "properties": { "title": "Place Carnot", "type": "BSB", "observation": "Ancienne cabine téléphonique aménagée et peinte en multicolore, face au laboratoire.", "picture": null }, "geometry": { "type": "Point", "coordinates": [ 3.0865894, 50.3714487 ] } },
{ "type": "Feature", "properties": { "title": "300 rue Émile d'Herbometz", "type": "BSB", "observation": "Juste devant la mairie.", "picture": null }, "geometry": { "type": "Point", "coordinates": [ 3.3191521, 50.4268798 ] } },
{ "type": "Feature", "properties": { "title": "Rue des Verts Cerisiers", "type": "BSB", "observation": "Boîte à lire installée par un habitant du village devant son habitation", "picture": null }, "geometry": { "type": "Point", "coordinates": [ 2.3177964, 49.817405 ] } },
{ "type": "Feature", "properties": { "title": "Rue Jean Catelas", "type": "BSB", "observation": "Site Multiactivité", "picture": null }, "geometry": { "type": "Point", "coordinates": [ 2.3396362, 49.8607459 ] } },
{ "type": "Feature", "properties": { "title": "45, Chaussée Jules Ferry ", "type": "BSB", "observation": "ancienne cabine téléphonique anglaise réhabilitée en Boîte à lire ", "picture": null }, "geometry": { "type": "Point", "coordinates": [ 2.3237698, 49.8842368 ] } },
{ "type": "Feature", "properties": { "title": "35 rue Léo LAGRANGE", "type": "BSB", "observation": "Devant l'entrée de la piscine le nautilus", "picture": null }, "geometry": { "type": "Point", "coordinates": [ 2.3119545, 49.9109012 ] } },
{ "type": "Feature", "properties": { "title": "place de la mairie", "type": "BSB", "observation": "Sous une halle ouverte à toute heure sur la place face à la mairie", "picture": null }, "geometry": { "type": "Point", "coordinates": [ 3.482238, 49.513419 ] } },
{ "type": "Feature", "properties": { "title": "33 rue des Victimes de Comportet", "type": "BSB", "observation": "Accessible à tous du Mardi au vendredi de 10h à 12h30 et de 14h à 17h30 ainsi que le samedi matin de 9h30 à 12h30. On vous attend, venez !", "picture": null }, "geometry": { "type": "Point", "coordinates": [ 3.5048163, 49.5207498 ] } },
{ "type": "Feature", "properties": { "title": "3 Rue du Four ", "type": "BSB", "observation": "Boite à lire et boite à don.", "picture": null }, "geometry": { "type": "Point", "coordinates": [ 3.274621, 50.2453399 ] } },
{ "type": "Feature", "properties": { "title": "Parc du Fort Louis", "type": "BSB", "observation": "Située près du parking à vélo à l'entrée principale.", "picture": null }, "geometry": { "type": "Point", "coordinates": [ 2.3864414, 51.0075788 ] } },
{ "type": "Feature", "properties": { "title": "20 rue Sébastopol", "type": "BSB", "observation": "A l'intérieur de la Coopérative Baraka, tous les livres sont voyageurs, à emporter selon les envies, sans restriction.", "picture": null }, "geometry": { "type": "Point", "coordinates": [ 3.1706553, 50.6893292 ] } },
{ "type": "Feature", "properties": { "title": "280 Rue du Centre", "type": "BSB", "observation": "La boite est située juste à côté de la mairie. On peut trouver des livres, magazines.", "picture": null }, "geometry": { "type": "Point", "coordinates": [ 1.7331147, 50.7443302 ] } },
{ "type": "Feature", "properties": { "title": "6 place charles de gaulle", "type": "BSB", "observation": "AU SIEGE DE LA MAISON INTERCOMMUNALE", "picture": null }, "geometry": { "type": "Point", "coordinates": [ 3.4466151, 49.4890282 ] } },
{ "type": "Feature", "properties": { "title": "75 rue du Général de Gaulle", "type": "BSB", "observation": "Livres à croquer à l'initiative du Conseil Municipal des Jeunes.", "picture": null }, "geometry": { "type": "Point", "coordinates": [ 3.3003783, 50.4741972 ] } },
{ "type": "Feature", "properties": { "title": "235 Boulevard Paul Painlevé ", "type": "BSB", "observation": "Une toute nouvelle boîte à lire vient d ouvrir ses portes dans l enceinte de l'Auberge de Jeunesse HI Lille ! Venez échanger des livres avec des voyageurs du monde entier !", "picture": null }, "geometry": { "type": "Point", "coordinates": [ 3.0811551, 50.6243194 ] } },
{ "type": "Feature", "properties": { "title": "Rue de Bleue Maison", "type": "BSB", "observation": "La boite se situe face au Carrefour Market", "picture": null }, "geometry": { "type": "Point", "coordinates": [ 2.1924519, 50.8214912 ] } },
{ "type": "Feature", "properties": { "title": "32 rue Paul vaillant couturier", "type": "BSB", "observation": "Découvrez une ancienne cabinet téléphonique où vous trouvez livres, jouets, etc. ", "picture": null }, "geometry": { "type": "Point", "coordinates": [ 3.112634, 50.6140985 ] } },
{ "type": "Feature", "properties": { "title": "Eglise Saint-Michel", "type": "BSB", "observation": "La boite à lire se situe à l'entrée de l'église Saint Michel. ", "picture": null }, "geometry": { "type": "Point", "coordinates": [ 3.1919679, 50.67886 ] } },
{ "type": "Feature", "properties": { "title": "83 Rue de la Mairie", "type": "BSB", "observation": "Située sous porche de Douai mairie du beffroi.", "picture": null }, "geometry": { "type": "Point", "coordinates": [ 3.0803782, 50.3674776 ] } },
{ "type": "Feature", "properties": { "title": "Place de la gare", "type": "BSB", "observation": "Kiosque belle époque.", "picture": null }, "geometry": { "type": "Point", "coordinates": [ 3.175672, 50.528638 ] } },
{ "type": "Feature", "properties": { "title": "99, rue du Jardin des Plantes", "type": "BSB", "observation": "2 étagères régulièrement pleines de lvires vous attendent dans nos locaux de 09h00 à 17h00 du lundi au vendredi", "picture": null }, "geometry": { "type": "Point", "coordinates": [ 3.073225, 50.6134077 ] } },
{ "type": "Feature", "properties": { "title": "14 rue jean jaures", "type": "BSB", "observation": "Cette boite à lire est dans une salle de la mairie de Fouilloy . Ouverte le mardi matin de 10h30 à 12h et le vendredi après-midi de 14h à 15h30.", "picture": null }, "geometry": { "type": "Point", "coordinates": [ 2.4999757, 49.9074981 ] } },
{ "type": "Feature", "properties": { "title": "1 place de la Mairie", "type": "BSB", "observation": "place de la mairie", "picture": null }, "geometry": { "type": "Point", "coordinates": [ 2.3414961, 50.6710626 ] } },
{ "type": "Feature", "properties": { "title": "8 Rue de la République", "type": "BSB", "observation": "Boîte à lire dans une ancienne cabine téléphonique près de la mairie et de la bibliothèque du village de Saint Martin Longueau dans l'Oise.", "picture": null }, "geometry": { "type": "Point", "coordinates": [ 2.6045568, 49.3426206 ] } },
{ "type": "Feature", "properties": { "title": "Chemin de Templemars", "type": "BSB", "observation": "La boite à lire se trouve devant le Auchan à côté du magasin Swarovski", "picture": null }, "geometry": { "type": "Point", "coordinates": [ 3.0793905, 50.5826718 ] } },
{ "type": "Feature", "properties": { "title": "rue du Vivier", "type": "BSB", "observation": "Pour déposer  pour consulter ou lire  les horaires d ouvertures du jardin ont été revus  élargis  et se répartissent comme suit Mercredi de 10 à 12 h et de 14 à 16 h - Vendredi de 10 à 14 h - Samedi de 10 à 12 et de 14 à 16 h.", "picture": null }, "geometry": { "type": "Point", "coordinates": [ 3.1604226, 50.6912726 ] } },
{ "type": "Feature", "properties": { "title": "Parc Jean Rostand", "type": "BSB", "observation": "La boite a lire est au milieu du parc Jean Rostand  près de l aire de jeux.", "picture": null }, "geometry": { "type": "Point", "coordinates": [ 2.306193, 49.8838658 ] } },
{ "type": "Feature", "properties": { "title": "Place Jean Jaurès ", "type": "BSB", "observation": "Elle se situe derrière la mairie  face à la place.", "picture": null }, "geometry": { "type": "Point", "coordinates": [ 2.229335, 50.709432 ] } },
{ "type": "Feature", "properties": { "title": "Rue de la Cavée", "type": "BSB", "observation": "Boîte à lire tout public.", "picture": null }, "geometry": { "type": "Point", "coordinates": [ 3.8563431, 50.2126027 ] } },
{ "type": "Feature", "properties": { "title": "19 rue Fernand Pelloutier", "type": "BSB", "observation": "A côté de l'école Marcelle et Paul François.", "picture": null }, "geometry": { "type": "Point", "coordinates": [ 3.4032348, 50.4142519 ] } },
{ "type": "Feature", "properties": { "title": "96 Rue Jules Lebleu", "type": "BSB", "observation": "Entrée de l IFSI à droite des batiments.", "picture": null }, "geometry": { "type": "Point", "coordinates": [ 2.8718696, 50.6887676 ] } },
{ "type": "Feature", "properties": { "title": "rue Jules Lebleu", "type": "BSB", "observation": "A droite du sas de la maternité.", "picture": null }, "geometry": { "type": "Point", "coordinates": [ 2.8702665, 50.68683 ] } },
{ "type": "Feature", "properties": { "title": "112 rue Sadi Carnot", "type": "BSB", "observation": "A côté de l'entrée principale du Centre Hospitalier à droite côté parking.", "picture": null }, "geometry": { "type": "Point", "coordinates": [ 2.8689141, 50.6836562 ] } },
{ "type": "Feature", "properties": { "title": "Rue de l'Église", "type": "BSB", "observation": "Ancienne cabine téléphonique réhabilitée.", "picture": null }, "geometry": { "type": "Point", "coordinates": [ 2.440513, 49.9404726 ] } },
{ "type": "Feature", "properties": { "title": "44 rue du Lieutenant Boucly", "type": "BSB", "observation": "", "picture": null }, "geometry": { "type": "Point", "coordinates": [ 4.0163092, 50.2399671 ] } },
{ "type": "Feature", "properties": { "title": "Place Charles De Gaulle ", "type": "BSB", "observation": "Dans une ancienne cabine téléphonique ! !", "picture": null }, "geometry": { "type": "Point", "coordinates": [ 3.7944506, 50.2988066 ] } },
{ "type": "Feature", "properties": { "title": "Place Gambetta ", "type": "BSB", "observation": "Boite à lire mise en place par Amiens Métropole Place Gambetta à côté du magasin de chaussure Jeff", "picture": null }, "geometry": { "type": "Point", "coordinates": [ 2.297608, 49.893243 ] } },
{ "type": "Feature", "properties": { "title": "Avenue du 8 Mai 1945", "type": "BSB", "observation": "Square Jean Moulin", "picture": null }, "geometry": { "type": "Point", "coordinates": [ 2.3232401, 49.3189025 ] } },
{ "type": "Feature", "properties": { "title": "Rue de Heilles", "type": "BSB", "observation": "Place de Coincourt", "picture": null }, "geometry": { "type": "Point", "coordinates": [ 2.3060075, 49.3228345 ] } },
{ "type": "Feature", "properties": { "title": "Rue Roland Bouchinet", "type": "BSB", "observation": "Place des Platanes", "picture": null }, "geometry": { "type": "Point", "coordinates": [ 2.317643, 49.312662 ] } },
{ "type": "Feature", "properties": { "title": "89 rue Saint Gilles", "type": "BSB", "observation": "A côté de la bibliothèque", "picture": null }, "geometry": { "type": "Point", "coordinates": [ 2.0521434, 50.8062278 ] } },
{ "type": "Feature", "properties": { "title": "616 rue Principale", "type": "BSB", "observation": "Parking de la Mairie", "picture": null }, "geometry": { "type": "Point", "coordinates": [ 2.334237, 50.718397 ] } },
{ "type": "Feature", "properties": { "title": "rue du Maréchal Leclerc", "type": "BSB", "observation": "Coin de rue", "picture": null }, "geometry": { "type": "Point", "coordinates": [ 2.2933005, 50.72263 ] } },
{ "type": "Feature", "properties": { "title": "Place de la Gare", "type": "BSB", "observation": "", "picture": null }, "geometry": { "type": "Point", "coordinates": [ 2.32343, 49.320486 ] } },
{ "type": "Feature", "properties": { "title": "Place Louis Ducatel", "type": "BSB", "observation": "Une boite qui ressemble à un nichoir à oiseaux remplie de livres", "picture": null }, "geometry": { "type": "Point", "coordinates": [ 2.292931, 50.278457 ] } },
{ "type": "Feature", "properties": { "title": "avenue de la plage", "type": "BSB", "observation": "Installée par la médiathèque  elle permet à tous de lire à la plage et ailleurs", "picture": null }, "geometry": { "type": "Point", "coordinates": [ 1.5893998, 50.3185543 ] } },
{ "type": "Feature", "properties": { "title": "Place du Maréchal Joffre", "type": "BSB", "observation": "Boîte à lire rouge  installée dans le petit parc de la place du Maréchal Joffre", "picture": null }, "geometry": { "type": "Point", "coordinates": [ 2.30347, 49.8879383 ] } },