{
"type": "FeatureCollection",
"crs": { "type": "name", "properties": { "name": "urn:ogc:def:crs:OGC:1.3:CRS84" } },
"features": [
{ "type": "Feature", "properties": { "name": "Rue de l'Hôtel de ville", "codetype": "BSB", "type": "delivrez bookcase", "desc": "_", "color": "#00842b", "background": "square", "website": "https://delivrez.fr/public/posts/img.62f7535286844.png", "amenity_subtype": "public_bookcase", "icon": "public_bookcase" }, "geometry": { "type": "Point", "coordinates": [ 3.8408058, 50.1994154 ] } },
{ "type": "Feature", "properties": { "name": "Rue Léon Blum", "codetype": "BSB", "type": "delivrez bookcase", "desc": "_", "color": "#00842b", "background": "square", "website": null, "amenity_subtype": "public_bookcase", "icon": "public_bookcase" }, "geometry": { "type": "Point", "coordinates": [ 3.0559938, 50.4772681 ] } },
{ "type": "Feature", "properties": { "name": "Rue Saint-Pierre", "codetype": "BSB", "type": "delivrez bookcase", "desc": "elle est vide et toute cassée  :(", "color": "#00842b", "background": "square", "website": "https://delivrez.fr/public/posts/img.6330186d2614a.png", "amenity_subtype": "public_bookcase", "icon": "public_bookcase" }, "geometry": { "type": "Point", "coordinates": [ 1.6425182, 50.1844331 ] } },
{ "type": "Feature", "properties": { "name": "Rue du Général Leclerc", "codetype": "BSB", "type": "delivrez bookcase", "desc": "Dans les halles", "color": "#00842b", "background": "square", "website": null, "amenity_subtype": "public_bookcase", "icon": "public_bookcase" }, "geometry": { "type": "Point", "coordinates": [ 2.2947657, 49.8955175 ] } },
{ "type": "Feature", "properties": { "name": "Rue de Paris", "codetype": "BSB", "type": "delivrez bookcase", "desc": "_", "color": "#00842b", "background": "square", "website": null, "amenity_subtype": "public_bookcase", "icon": "public_bookcase" }, "geometry": { "type": "Point", "coordinates": [ 3.5156044, 49.049752 ] } },
{ "type": "Feature", "properties": { "name": "Route d'Amiens", "codetype": "BSB", "type": "delivrez bookcase", "desc": "_", "color": "#00842b", "background": "square", "website": null, "amenity_subtype": "public_bookcase", "icon": "public_bookcase" }, "geometry": { "type": "Point", "coordinates": [ 2.4807982, 49.8216234 ] } },
{ "type": "Feature", "properties": { "name": "Rue des Charmes", "codetype": "BSB", "type": "delivrez bookcase", "desc": "_", "color": "#00842b", "background": "square", "website": "https://delivrez.fr/public/posts/img.630e21a352c5b.png", "amenity_subtype": "public_bookcase", "icon": "public_bookcase" }, "geometry": { "type": "Point", "coordinates": [ 3.452125, 50.4393539 ] } },
{ "type": "Feature", "properties": { "name": "Rue Floris Durez", "codetype": "BSB", "type": "delivrez bookcase", "desc": "_", "color": "#00842b", "background": "square", "website": "https://delivrez.fr/public/posts/img.6316279c024f2.png", "amenity_subtype": "public_bookcase", "icon": "public_bookcase" }, "geometry": { "type": "Point", "coordinates": [ 3.2418976, 50.4685745 ] } },
{ "type": "Feature", "properties": { "name": "rue des rotisseurs", "codetype": "BSB", "type": "delivrez bookcase", "desc": "boite plastique du fleuriste", "color": "#00842b", "background": "square", "website": null, "amenity_subtype": "public_bookcase", "icon": "public_bookcase" }, "geometry": { "type": "Point", "coordinates": [ 3.2415065, 50.1904244 ] } },
{ "type": "Feature", "properties": { "name": "Route de Merlimont", "codetype": "BSB", "type": "delivrez bookcase", "desc": "boite colle à l office du tourisme", "color": "#00842b", "background": "square", "website": "https://delivrez.fr/public/posts/img.615727d74e958.png", "amenity_subtype": "public_bookcase", "icon": "public_bookcase" }, "geometry": { "type": "Point", "coordinates": [ 1.6385532, 50.4178081 ] } },
{ "type": "Feature", "properties": { "name": "Rue de l'Aronde", "codetype": "BSB", "type": "delivrez bookcase", "desc": "Dans le parc", "color": "#00842b", "background": "square", "website": "https://delivrez.fr/public/posts/img.62c1f5e82b151.png", "amenity_subtype": "public_bookcase", "icon": "public_bookcase" }, "geometry": { "type": "Point", "coordinates": [ 2.8457211, 49.4414715 ] } },
{ "type": "Feature", "properties": { "name": "Rue de l'Impératrice", "codetype": "BSB", "type": "delivrez bookcase", "desc": "square Claude duffit", "color": "#00842b", "background": "square", "website": "https://delivrez.fr/public/posts/img.62ef6bf7b6847.png", "amenity_subtype": "public_bookcase", "icon": "public_bookcase" }, "geometry": { "type": "Point", "coordinates": [ 1.5644388, 50.4047662 ] } },
{ "type": "Feature", "properties": { "name": "Rue Attilio Bernasconi", "codetype": "BSB", "type": "delivrez bookcase", "desc": "_", "color": "#00842b", "background": "square", "website": null, "amenity_subtype": "public_bookcase", "icon": "public_bookcase" }, "geometry": { "type": "Point", "coordinates": [ 3.2547895, 50.4650554 ] } },
{ "type": "Feature", "properties": { "name": "Rue Talon", "codetype": "BSB", "type": "delivrez bookcase", "desc": "_", "color": "#00842b", "background": "square", "website": null, "amenity_subtype": "public_bookcase", "icon": "public_bookcase" }, "geometry": { "type": "Point", "coordinates": [ 2.0467651, 49.208024 ] } },
{ "type": "Feature", "properties": { "name": "Rue de la malterie", "codetype": "BSB", "type": "delivrez bookcase", "desc": "Ancienne cabine téléphonique", "color": "#00842b", "background": "square", "website": null, "amenity_subtype": "public_bookcase", "icon": "public_bookcase" }, "geometry": { "type": "Point", "coordinates": [ 2.7600402, 50.3061783 ] } },
{ "type": "Feature", "properties": { "name": "Face à  la mairie / poste", "codetype": "BSB", "type": "delivrez bookcase", "desc": "_", "color": "#00842b", "background": "square", "website": "https://delivrez.fr/public/posts/img.62d18a3208dc3.png", "amenity_subtype": "public_bookcase", "icon": "public_bookcase" }, "geometry": { "type": "Point", "coordinates": [ 1.6430628, 50.6194393 ] } },
{ "type": "Feature", "properties": { "name": "maison des jeunes", "codetype": "BSB", "type": "delivrez bookcase", "desc": "Espace jeunes Pacific", "color": "#00842b", "background": "square", "website": "https://delivrez.fr/public/posts/img.62cc44d572d3b.png", "amenity_subtype": "public_bookcase", "icon": "public_bookcase" }, "geometry": { "type": "Point", "coordinates": [ 1.6490936, 50.522279 ] } },
{ "type": "Feature", "properties": { "name": "Piscine", "codetype": "BSB", "type": "delivrez bookcase", "desc": "Devant l'entrée de la piscine", "color": "#00842b", "background": "square", "website": "https://delivrez.fr/public/posts/img.62cc4036a4fbe.png", "amenity_subtype": "public_bookcase", "icon": "public_bookcase" }, "geometry": { "type": "Point", "coordinates": [ 1.6462107, 50.518389 ] } },
{ "type": "Feature", "properties": { "name": "Parc du clos St Victor", "codetype": "BSB", "type": "delivrez bookcase", "desc": "A côté des jeux pour enfants", "color": "#00842b", "background": "square", "website": "https://delivrez.fr/public/posts/img.62cc3671cbb84.png", "amenity_subtype": "public_bookcase", "icon": "public_bookcase" }, "geometry": { "type": "Point", "coordinates": [ 1.6298472, 50.5194675 ] } },
{ "type": "Feature", "properties": { "name": "Square de la Liberté", "codetype": "BSB", "type": "delivrez bookcase", "desc": "à l'extrémité de l'avenue des pelouses.", "color": "#00842b", "background": "square", "website": "https://delivrez.fr/public/posts/img.62c98a4f22429.png", "amenity_subtype": "public_bookcase", "icon": "public_bookcase" }, "geometry": { "type": "Point", "coordinates": [ 1.6028906, 50.4826297 ] } },
{ "type": "Feature", "properties": { "name": "Poste de Trépied", "codetype": "BSB", "type": "delivrez bookcase", "desc": "à gauche de l'entrée", "color": "#00842b", "background": "square", "website": "https://delivrez.fr/public/posts/img.62c98e5d0c709.png", "amenity_subtype": "public_bookcase", "icon": "public_bookcase" }, "geometry": { "type": "Point", "coordinates": [ 1.6232467, 50.4873162 ] } },
{ "type": "Feature", "properties": { "name": "École de Trépied", "codetype": "BSB", "type": "delivrez bookcase", "desc": "face à l'école, devant l'église", "color": "#00842b", "background": "square", "website": "https://delivrez.fr/public/posts/img.62c9a6fa76d60.png", "amenity_subtype": "public_bookcase", "icon": "public_bookcase" }, "geometry": { "type": "Point", "coordinates": [ 1.6270907, 50.5003606 ] } },
{ "type": "Feature", "properties": { "name": "École de Cucq", "codetype": "BSB", "type": "delivrez bookcase", "desc": "près du parking", "color": "#00842b", "background": "square", "website": "https://delivrez.fr/public/posts/img.62c9ab7224fc4.png", "amenity_subtype": "public_bookcase", "icon": "public_bookcase" }, "geometry": { "type": "Point", "coordinates": [ 1.6243659, 50.4817161 ] } },
{ "type": "Feature", "properties": { "name": "Mairie de Sorrus", "codetype": "BSB", "type": "delivrez bookcase", "desc": "Dans le square juste en face de la mairie.", "color": "#00842b", "background": "square", "website": "https://delivrez.fr/public/posts/img.62c8498a19542.png", "amenity_subtype": "public_bookcase", "icon": "public_bookcase" }, "geometry": { "type": "Point", "coordinates": [ 1.7177841, 50.4592628 ] } },
{ "type": "Feature", "properties": { "name": "Salle Édith Piaf", "codetype": "BSB", "type": "delivrez bookcase", "desc": "_", "color": "#00842b", "background": "square", "website": "https://delivrez.fr/public/posts/img.62c5a26a40d19.png", "amenity_subtype": "public_bookcase", "icon": "public_bookcase" }, "geometry": { "type": "Point", "coordinates": [ 1.6370828, 50.418328 ] } },
{ "type": "Feature", "properties": { "name": "Office de tourisme", "codetype": "BSB", "type": "delivrez bookcase", "desc": "_", "color": "#00842b", "background": "square", "website": "https://delivrez.fr/public/posts/img.62c594b1a9618.png", "amenity_subtype": "public_bookcase", "icon": "public_bookcase" }, "geometry": { "type": "Point", "coordinates": [ 1.5780037, 50.4615029 ] } },
{ "type": "Feature", "properties": { "name": "devant l'office de tourisme", "codetype": "BSB", "type": "delivrez bookcase", "desc": "_", "color": "#00842b", "background": "square", "website": "https://delivrez.fr/public/posts/img.62c45575d75f5.png", "amenity_subtype": "public_bookcase", "icon": "public_bookcase" }, "geometry": { "type": "Point", "coordinates": [ 1.638225, 50.4182956 ] } },
{ "type": "Feature", "properties": { "name": "Place Sapin", "codetype": "BSB", "type": "delivrez bookcase", "desc": "_", "color": "#00842b", "background": "square", "website": "https://delivrez.fr/public/posts/img.62c30ced1ae94.png", "amenity_subtype": "public_bookcase", "icon": "public_bookcase" }, "geometry": { "type": "Point", "coordinates": [ 1.5888167, 50.4810015 ] } },
{ "type": "Feature", "properties": { "name": "Boulevard de la Mer", "codetype": "BSB", "type": "delivrez bookcase", "desc": "ouvert l'été en journée", "color": "#00842b", "background": "square", "website": "https://delivrez.fr/public/posts/img.62c31a9b6e20d.png", "amenity_subtype": "public_bookcase", "icon": "public_bookcase" }, "geometry": { "type": "Point", "coordinates": [ 1.5755392, 50.4782505 ] } },
{ "type": "Feature", "properties": { "name": "Ecole du fort vert", "codetype": "BSB", "type": "delivrez bookcase", "desc": "_", "color": "#00842b", "background": "square", "website": null, "amenity_subtype": "public_bookcase", "icon": "public_bookcase" }, "geometry": { "type": "Point", "coordinates": [ 1.9376414, 50.9679641 ] } },
{ "type": "Feature", "properties": { "name": "Ecole Victor Hugo Marck", "codetype": "BSB", "type": "delivrez bookcase", "desc": "devant l'entrée", "color": "#00842b", "background": "square", "website": "https://delivrez.fr/public/posts/img.62bc4014e0770.png", "amenity_subtype": "public_bookcase", "icon": "public_bookcase" }, "geometry": { "type": "Point", "coordinates": [ 1.9544569, 50.9480877 ] } },
{ "type": "Feature", "properties": { "name": "Place Mal de Lattre de Tassigny", "codetype": "BSB", "type": "delivrez bookcase", "desc": "a coté de la salle des fêtes", "color": "#00842b", "background": "square", "website": "https://delivrez.fr/public/posts/img.62a4b0066d121.png", "amenity_subtype": "public_bookcase", "icon": "public_bookcase" }, "geometry": { "type": "Point", "coordinates": [ 2.8169686, 49.5258275 ] } },
{ "type": "Feature", "properties": { "name": "Rue de Stalingrad", "codetype": "BSB", "type": "delivrez bookcase", "desc": "dans le parc", "color": "#00842b", "background": "square", "website": "https://delivrez.fr/public/posts/img.62a31949c6f7e.png", "amenity_subtype": "public_bookcase", "icon": "public_bookcase" }, "geometry": { "type": "Point", "coordinates": [ 2.8027672, 49.3992676 ] } },
{ "type": "Feature", "properties": { "name": "Rue de la Baguette", "codetype": "BSB", "type": "delivrez bookcase", "desc": "a la deuxième entrée du parc", "color": "#00842b", "background": "square", "website": "https://delivrez.fr/public/posts/img.62a0b1e4a0586.png", "amenity_subtype": "public_bookcase", "icon": "public_bookcase" }, "geometry": { "type": "Point", "coordinates": [ 2.8211838, 49.4171524 ] } },
{ "type": "Feature", "properties": { "name": "Rue des Frères Gréban", "codetype": "BSB", "type": "delivrez bookcase", "desc": "boite à livre devant une maison proche de l'église", "color": "#00842b", "background": "square", "website": "https://delivrez.fr/public/posts/img.62a0af9a58f09.png", "amenity_subtype": "public_bookcase", "icon": "public_bookcase" }, "geometry": { "type": "Point", "coordinates": [ 2.8147523, 49.4136223 ] } },
{ "type": "Feature", "properties": { "name": "Rue Magenta", "codetype": "BSB", "type": "delivrez bookcase", "desc": "derrière l'arrêt de bus", "color": "#00842b", "background": "square", "website": "https://delivrez.fr/public/posts/img.628b29aff31f2.png", "amenity_subtype": "public_bookcase", "icon": "public_bookcase" }, "geometry": { "type": "Point", "coordinates": [ 2.8270424, 49.4162783 ] } },
{ "type": "Feature", "properties": { "name": "Rue du Pavé Gay", "codetype": "BSB", "type": "delivrez bookcase", "desc": "dans un ancien four", "color": "#00842b", "background": "square", "website": "https://delivrez.fr/public/posts/img.629257d9a6cdd.png", "amenity_subtype": "public_bookcase", "icon": "public_bookcase" }, "geometry": { "type": "Point", "coordinates": [ 2.8841399, 49.5654966 ] } },
{ "type": "Feature", "properties": { "name": "Rue d'Abbeville", "codetype": "BSB", "type": "delivrez bookcase", "desc": "dans l ancienne cabine téléphonique", "color": "#00842b", "background": "square", "website": "https://delivrez.fr/public/posts/img.629393df0aa53.png", "amenity_subtype": "public_bookcase", "icon": "public_bookcase" }, "geometry": { "type": "Point", "coordinates": [ 2.0424098, 50.3653787 ] } },
{ "type": "Feature", "properties": { "name": "Rue de la Rivierette", "codetype": "BSB", "type": "delivrez bookcase", "desc": "dans ancienne cabine de telephone", "color": "#00842b", "background": "square", "website": null, "amenity_subtype": "public_bookcase", "icon": "public_bookcase" }, "geometry": { "type": "Point", "coordinates": [ 2.1576795, 50.3532495 ] } },
{ "type": "Feature", "properties": { "name": "Boulevard Sainte-Beuve", "codetype": "BSB", "type": "delivrez bookcase", "desc": "_", "color": "#00842b", "background": "square", "website": null, "amenity_subtype": "public_bookcase", "icon": "public_bookcase" }, "geometry": { "type": "Point", "coordinates": [ 1.5968677, 50.7298401 ] } },
{ "type": "Feature", "properties": { "name": "Rue de la Poste", "codetype": "BSB", "type": "delivrez bookcase", "desc": "sur le devant du proxi", "color": "#00842b", "background": "square", "website": "https://delivrez.fr/public/posts/img.627d28dd0983e.png", "amenity_subtype": "public_bookcase", "icon": "public_bookcase" }, "geometry": { "type": "Point", "coordinates": [ 2.8104377, 49.4617161 ] } },
{ "type": "Feature", "properties": { "name": "Rue de la Gare", "codetype": "BSB", "type": "delivrez bookcase", "desc": "au bord de l'ancienne gare", "color": "#00842b", "background": "square", "website": "https://delivrez.fr/public/posts/img.627d26f446412.png", "amenity_subtype": "public_bookcase", "icon": "public_bookcase" }, "geometry": { "type": "Point", "coordinates": [ 2.8084879, 49.4610609 ] } },
{ "type": "Feature", "properties": { "name": "Rue du Port À Bateaux", "codetype": "BSB", "type": "delivrez bookcase", "desc": "à côté de l'université utc", "color": "#00842b", "background": "square", "website": "https://delivrez.fr/public/posts/img.6278c1f01acf0.png", "amenity_subtype": "public_bookcase", "icon": "public_bookcase" }, "geometry": { "type": "Point", "coordinates": [ 2.8192012, 49.4157554 ] } },
{ "type": "Feature", "properties": { "name": "Place de la Croix Blanche", "codetype": "BSB", "type": "delivrez bookcase", "desc": "Sur la place de la croix blanche", "color": "#00842b", "background": "square", "website": "https://delivrez.fr/public/posts/img.6278c2bd453e3.png", "amenity_subtype": "public_bookcase", "icon": "public_bookcase" }, "geometry": { "type": "Point", "coordinates": [ 2.8212925, 49.4134047 ] } },
{ "type": "Feature", "properties": { "name": "Rue de Clamart", "codetype": "BSB", "type": "delivrez bookcase", "desc": "juste en face du gymnase", "color": "#00842b", "background": "square", "website": "https://delivrez.fr/public/posts/img.6278c3fbc5875.png", "amenity_subtype": "public_bookcase", "icon": "public_bookcase" }, "geometry": { "type": "Point", "coordinates": [ 2.8275532, 49.4127201 ] } },
{ "type": "Feature", "properties": { "name": "Rue Napoléon", "codetype": "BSB", "type": "delivrez bookcase", "desc": "derrière la mairie", "color": "#00842b", "background": "square", "website": "https://delivrez.fr/public/posts/img.62764455daf60.png", "amenity_subtype": "public_bookcase", "icon": "public_bookcase" }, "geometry": { "type": "Point", "coordinates": [ 2.9780187, 49.3469803 ] } },
{ "type": "Feature", "properties": { "name": "Place de la Grande Cour", "codetype": "BSB", "type": "delivrez bookcase", "desc": "en face de la mairie", "color": "#00842b", "background": "square", "website": "https://delivrez.fr/public/posts/img.627429357e15e.png", "amenity_subtype": "public_bookcase", "icon": "public_bookcase" }, "geometry": { "type": "Point", "coordinates": [ 2.9051891, 49.3475337 ] } },
{ "type": "Feature", "properties": { "name": "Place Carnot", "codetype": "BSB", "type": "delivrez bookcase", "desc": "sur la place Carnot", "color": "#00842b", "background": "square", "website": "https://delivrez.fr/public/posts/img.62696d170be7c.png", "amenity_subtype": "public_bookcase", "icon": "public_bookcase" }, "geometry": { "type": "Point", "coordinates": [ 2.8298283, 49.4090573 ] } },
{ "type": "Feature", "properties": { "name": "Quai Jeanne d'Arc", "codetype": "BSB", "type": "delivrez bookcase", "desc": "boite jaune et grise dans le parc", "color": "#00842b", "background": "square", "website": "https://delivrez.fr/public/posts/img.62614159d0043.png", "amenity_subtype": "public_bookcase", "icon": "public_bookcase" }, "geometry": { "type": "Point", "coordinates": [ 1.627209, 50.1900733 ] } },
{ "type": "Feature", "properties": { "name": "Rue du Bras d'Or", "codetype": "BSB", "type": "delivrez bookcase", "desc": "boite a livre en bois", "color": "#00842b", "background": "square", "website": "https://delivrez.fr/public/posts/img.6239fd5c068e4.png", "amenity_subtype": "public_bookcase", "icon": "public_bookcase" }, "geometry": { "type": "Point", "coordinates": [ 1.7602623, 50.4555701 ] } },
{ "type": "Feature", "properties": { "name": "Rue de la Tossée", "codetype": "BSB", "type": "delivrez bookcase", "desc": "_", "color": "#00842b", "background": "square", "website": null, "amenity_subtype": "public_bookcase", "icon": "public_bookcase" }, "geometry": { "type": "Point", "coordinates": [ 3.1655809, 50.7107737 ] } },
{ "type": "Feature", "properties": { "name": "La Place", "codetype": "BSB", "type": "delivrez bookcase", "desc": "_", "color": "#00842b", "background": "square", "website": "https://delivrez.fr/public/posts/img.6200f98640932.png", "amenity_subtype": "public_bookcase", "icon": "public_bookcase" }, "geometry": { "type": "Point", "coordinates": [ 2.3429789, 50.7099623 ] } },
{ "type": "Feature", "properties": { "name": "Rue de la Croix", "codetype": "BSB", "type": "delivrez bookcase", "desc": "près de la aire de jeux", "color": "#00842b", "background": "square", "website": "https://delivrez.fr/public/posts/img.61fbd29f26316.png", "amenity_subtype": "public_bookcase", "icon": "public_bookcase" }, "geometry": { "type": "Point", "coordinates": [ 2.2039505, 50.7779876 ] } },
{ "type": "Feature", "properties": { "name": "Rue François Mitterand", "codetype": "BSB", "type": "delivrez bookcase", "desc": "A côté de la mairie", "color": "#00842b", "background": "square", "website": "https://delivrez.fr/public/posts/img.61fbcb5b25451.png", "amenity_subtype": "public_bookcase", "icon": "public_bookcase" }, "geometry": { "type": "Point", "coordinates": [ 2.1251962, 50.8061395 ] } },
{ "type": "Feature", "properties": { "name": "Rue de la Mairie", "codetype": "BSB", "type": "delivrez bookcase", "desc": "A côté de la bibliothèque", "color": "#00842b", "background": "square", "website": "https://delivrez.fr/public/posts/img.61fbc541d43f4.png", "amenity_subtype": "public_bookcase", "icon": "public_bookcase" }, "geometry": { "type": "Point", "coordinates": [ 2.1537956, 50.8051498 ] } },
{ "type": "Feature", "properties": { "name": "Rue des Arts", "codetype": "BSB", "type": "delivrez bookcase", "desc": "près de la mairie et de la poste", "color": "#00842b", "background": "square", "website": "https://delivrez.fr/public/posts/img.61fbbf80167d0.png", "amenity_subtype": "public_bookcase", "icon": "public_bookcase" }, "geometry": { "type": "Point", "coordinates": [ 2.1767191, 50.7894209 ] } },
{ "type": "Feature", "properties": { "name": "Chemin d'Eperlecques", "codetype": "BSB", "type": "delivrez bookcase", "desc": "Près de la mairie et poste", "color": "#00842b", "background": "square", "website": "https://delivrez.fr/public/posts/img.61fbbade1d797.png", "amenity_subtype": "public_bookcase", "icon": "public_bookcase" }, "geometry": { "type": "Point", "coordinates": [ 2.2014486, 50.7931173 ] } },
{ "type": "Feature", "properties": { "name": "Boulevard Vauban", "codetype": "BSB", "type": "delivrez bookcase", "desc": "Dans le parc, près du kiosque", "color": "#00842b", "background": "square", "website": "https://delivrez.fr/public/posts/img.61fa76f0c1f0c.png", "amenity_subtype": "public_bookcase", "icon": "public_bookcase" }, "geometry": { "type": "Point", "coordinates": [ 2.2483259, 50.7489006 ] } },
{ "type": "Feature", "properties": { "name": "Rue Antoine de Saint-Exupéry", "codetype": "BSB", "type": "delivrez bookcase", "desc": "_", "color": "#00842b", "background": "square", "website": "https://delivrez.fr/public/posts/img.61fa74c86bdeb.png", "amenity_subtype": "public_bookcase", "icon": "public_bookcase" }, "geometry": { "type": "Point", "coordinates": [ 2.258238, 50.7420901 ] } },
{ "type": "Feature", "properties": { "name": "Chemin des Berceaux", "codetype": "BSB", "type": "delivrez bookcase", "desc": "_", "color": "#00842b", "background": "square", "website": "https://delivrez.fr/public/posts/img.61fa6d963eab5.png", "amenity_subtype": "public_bookcase", "icon": "public_bookcase" }, "geometry": { "type": "Point", "coordinates": [ 2.2387998, 50.7344165 ] } },
{ "type": "Feature", "properties": { "name": "Place du 8 Mai 1945", "codetype": "BSB", "type": "delivrez bookcase", "desc": "près de la accès extérieur voie 1", "color": "#00842b", "background": "square", "website": "https://delivrez.fr/public/posts/img.61f927df01687.png", "amenity_subtype": "public_bookcase", "icon": "public_bookcase" }, "geometry": { "type": "Point", "coordinates": [ 2.2664474, 50.7537284 ] } },
{ "type": "Feature", "properties": { "name": "Place de la Ghière", "codetype": "BSB", "type": "delivrez bookcase", "desc": "Près de la arrêt de bus", "color": "#00842b", "background": "square", "website": "https://delivrez.fr/public/posts/img.61f91b70a3a0a.png", "amenity_subtype": "public_bookcase", "icon": "public_bookcase" }, "geometry": { "type": "Point", "coordinates": [ 2.2615415, 50.7575697 ] } },
{ "type": "Feature", "properties": { "name": "Rue Saint-Sépulcre", "codetype": "BSB", "type": "delivrez bookcase", "desc": "Cour intérieure Hôtel de Ville", "color": "#00842b", "background": "square", "website": "https://delivrez.fr/public/posts/img.61f916c99755c.png", "amenity_subtype": "public_bookcase", "icon": "public_bookcase" }, "geometry": { "type": "Point", "coordinates": [ 2.2535444, 50.7519469 ] } },
{ "type": "Feature", "properties": { "name": "Rue des Tribunaux", "codetype": "BSB", "type": "delivrez bookcase", "desc": "A côté de l' entrée intérieure de la Office du Tourisme de la ville de Saint Omer", "color": "#00842b", "background": "square", "website": "https://delivrez.fr/public/posts/img.61f900b6afbc6.png", "amenity_subtype": "public_bookcase", "icon": "public_bookcase" }, "geometry": { "type": "Point", "coordinates": [ 2.2527302, 50.7481708 ] } },
{ "type": "Feature", "properties": { "name": "Avenue Arthur Rimbaud", "codetype": "BSB", "type": "delivrez bookcase", "desc": "A côté du cabinet paramédical", "color": "#00842b", "background": "square", "website": "https://delivrez.fr/public/posts/img.61f809b4a9934.png", "amenity_subtype": "public_bookcase", "icon": "public_bookcase" }, "geometry": { "type": "Point", "coordinates": [ 2.2656628, 50.7392864 ] } },
{ "type": "Feature", "properties": { "name": "Square Marcel Pagnol", "codetype": "BSB", "type": "delivrez bookcase", "desc": "_", "color": "#00842b", "background": "square", "website": "https://delivrez.fr/public/posts/img.61f802d00f854.png", "amenity_subtype": "public_bookcase", "icon": "public_bookcase" }, "geometry": { "type": "Point", "coordinates": [ 2.2767509, 50.7393565 ] } },
{ "type": "Feature", "properties": { "name": "Lieu dit Bloc les Pigeons rue Brughel", "codetype": "BSB", "type": "delivrez bookcase", "desc": "_", "color": "#00842b", "background": "square", "website": null, "amenity_subtype": "public_bookcase", "icon": "public_bookcase" }, "geometry": { "type": "Point", "coordinates": [ 2.2667617, 50.7426843 ] } },
{ "type": "Feature", "properties": { "name": "Rue de Sète", "codetype": "BSB", "type": "delivrez bookcase", "desc": "Entrée halte garderie", "color": "#00842b", "background": "square", "website": "https://delivrez.fr/public/posts/img.61f7edad4d30d.png", "amenity_subtype": "public_bookcase", "icon": "public_bookcase" }, "geometry": { "type": "Point", "coordinates": [ 2.2941249, 50.7246549 ] } },
{ "type": "Feature", "properties": { "name": "38 a Rue Jules Ferry", "codetype": "BSB", "type": "delivrez bookcase", "desc": "A côté de l' entrée de l' École maternelle Pauline Kergomard", "color": "#00842b", "background": "square", "website": "https://delivrez.fr/public/posts/img.61f7dd6ec8ed9.png", "amenity_subtype": "public_bookcase", "icon": "public_bookcase" }, "geometry": { "type": "Point", "coordinates": [ 2.3111494, 50.7425006 ] } },
{ "type": "Feature", "properties": { "name": "Résidence d'Albret", "codetype": "BSB", "type": "delivrez bookcase", "desc": "_", "color": "#00842b", "background": "square", "website": "https://delivrez.fr/public/posts/img.61f53d51c551d.png", "amenity_subtype": "public_bookcase", "icon": "public_bookcase" }, "geometry": { "type": "Point", "coordinates": [ 2.2608991, 50.7522559 ] } },
{ "type": "Feature", "properties": { "name": "Rue Principale", "codetype": "BSB", "type": "delivrez bookcase", "desc": "boite rouge sur la place", "color": "#00842b", "background": "square", "website": "https://delivrez.fr/public/posts/img.61cb1159d571a.png", "amenity_subtype": "public_bookcase", "icon": "public_bookcase" }, "geometry": { "type": "Point", "coordinates": [ 1.8298123, 50.5182049 ] } },
{ "type": "Feature", "properties": { "name": "Boîte à livres", "codetype": "BSB", "type": "delivrez bookcase", "desc": "Devant l'entrée de l'école dans une cabine téléphonique", "color": "#00842b", "background": "square", "website": null, "amenity_subtype": "public_bookcase", "icon": "public_bookcase" }, "geometry": { "type": "Point", "coordinates": [ 3.9732103, 49.8591519 ] } },
{ "type": "Feature", "properties": { "name": "Boîte à livres", "codetype": "BSB", "type": "delivrez bookcase", "desc": "a côté de l'église.", "color": "#00842b", "background": "square", "website": null, "amenity_subtype": "public_bookcase", "icon": "public_bookcase" }, "geometry": { "type": "Point", "coordinates": [ 4.0327909, 49.9303519 ] } },
{ "type": "Feature", "properties": { "name": "Le Village", "codetype": "BSB", "type": "delivrez bookcase", "desc": "dans ancienne cabine", "color": "#00842b", "background": "square", "website": null, "amenity_subtype": "public_bookcase", "icon": "public_bookcase" }, "geometry": { "type": "Point", "coordinates": [ 1.7744002, 50.8894953 ] } },
{ "type": "Feature", "properties": { "name": "Rue de boulogne", "codetype": "BSB", "type": "delivrez bookcase", "desc": "grise", "color": "#00842b", "background": "square", "website": "https://delivrez.fr/public/posts/img.6180126d1f238.png", "amenity_subtype": "public_bookcase", "icon": "public_bookcase" }, "geometry": { "type": "Point", "coordinates": [ 2.6777825, 50.4708555 ] } },
{ "type": "Feature", "properties": { "name": "Rue Moussy", "codetype": "BSB", "type": "delivrez bookcase", "desc": "grise en face terrain. pétanque", "color": "#00842b", "background": "square", "website": "https://delivrez.fr/public/posts/img.61800a16ce35b.png", "amenity_subtype": "public_bookcase", "icon": "public_bookcase" }, "geometry": { "type": "Point", "coordinates": [ 2.6777825, 50.4708555 ] } },
{ "type": "Feature", "properties": { "name": "Rue Principale", "codetype": "BSB", "type": "delivrez bookcase", "desc": "rouge près de la mairie", "color": "#00842b", "background": "square", "website": "https://delivrez.fr/public/posts/img.617fb2f525b32.png", "amenity_subtype": "public_bookcase", "icon": "public_bookcase" }, "geometry": { "type": "Point", "coordinates": [ 1.9697654, 50.5234724 ] } },
{ "type": "Feature", "properties": { "name": "Rue de Montreuil", "codetype": "BSB", "type": "delivrez bookcase", "desc": "A côté de la boucherie Morel", "color": "#00842b", "background": "square", "website": "https://delivrez.fr/public/posts/img.616a75c6e664b.png", "amenity_subtype": "public_bookcase", "icon": "public_bookcase" }, "geometry": { "type": "Point", "coordinates": [ 1.7750245, 50.4734682 ] } },
{ "type": "Feature", "properties": { "name": "Rue de Frévent", "codetype": "BSB", "type": "delivrez bookcase", "desc": "dans ancienne cabine téléphonique", "color": "#00842b", "background": "square", "website": null, "amenity_subtype": "public_bookcase", "icon": "public_bookcase" }, "geometry": { "type": "Point", "coordinates": [ 2.0426143, 50.3634438 ] } },
{ "type": "Feature", "properties": { "name": "Route nationale", "codetype": "BSB", "type": "delivrez bookcase", "desc": "dans l espace vert face au restaurant à l auberge des contrebandiers", "color": "#00842b", "background": "square", "website": "https://delivrez.fr/public/posts/img.61670c6a0b3e7.png", "amenity_subtype": "public_bookcase", "icon": "public_bookcase" }, "geometry": { "type": "Point", "coordinates": [ 1.7451207, 50.3487559 ] } },
{ "type": "Feature", "properties": { "name": "Place Victor Hugo", "codetype": "BSB", "type": "delivrez bookcase", "desc": "Devant le restaurant chinois.", "color": "#00842b", "background": "square", "website": "https://delivrez.fr/public/posts/img.615da9d67d5b2.png", "amenity_subtype": "public_bookcase", "icon": "public_bookcase" }, "geometry": { "type": "Point", "coordinates": [ 4.0813519, 49.9243116 ] } },
{ "type": "Feature", "properties": { "name": "Rue Antoine Sue", "codetype": "BSB", "type": "delivrez bookcase", "desc": "Sur la place de la gare.", "color": "#00842b", "background": "square", "website": "https://delivrez.fr/public/posts/img.615da7991b582.png", "amenity_subtype": "public_bookcase", "icon": "public_bookcase" }, "geometry": { "type": "Point", "coordinates": [ 4.0841181, 49.9181131 ] } },
{ "type": "Feature", "properties": { "name": "Rue du Petit Versailles", "codetype": "BSB", "type": "delivrez bookcase", "desc": "Sur la place de l'église.", "color": "#00842b", "background": "square", "website": "https://delivrez.fr/public/posts/img.615b580a9e118.png", "amenity_subtype": "public_bookcase", "icon": "public_bookcase" }, "geometry": { "type": "Point", "coordinates": [ 3.9898135, 49.9824883 ] } },
{ "type": "Feature", "properties": { "name": "Allée Charles Péguy", "codetype": "BSB", "type": "delivrez bookcase", "desc": "en bas des immeubles", "color": "#00842b", "background": "square", "website": "https://delivrez.fr/public/posts/img.6159a661deca5.png", "amenity_subtype": "public_bookcase", "icon": "public_bookcase" }, "geometry": { "type": "Point", "coordinates": [ 1.6500998, 50.5186716 ] } },
{ "type": "Feature", "properties": { "name": "Route d'Andrés", "codetype": "BSB", "type": "delivrez bookcase", "desc": "a la poste à côté de l école", "color": "#00842b", "background": "square", "website": "https://delivrez.fr/public/posts/img.6155c9246a9d2.png", "amenity_subtype": "public_bookcase", "icon": "public_bookcase" }, "geometry": { "type": "Point", "coordinates": [ 1.9317066, 50.9048821 ] } },
{ "type": "Feature", "properties": { "name": "avenue de l Europe", "codetype": "BSB", "type": "delivrez bookcase", "desc": "face au magasin Armande thierry", "color": "#00842b", "background": "square", "website": "https://delivrez.fr/public/posts/img.614c4cc2e50ee.png", "amenity_subtype": "public_bookcase", "icon": "public_bookcase" }, "geometry": { "type": "Point", "coordinates": [ 2.3095502, 49.9230791 ] } },
{ "type": "Feature", "properties": { "name": "Rue de l'Europe", "codetype": "BSB", "type": "delivrez bookcase", "desc": "_", "color": "#00842b", "background": "square", "website": null, "amenity_subtype": "public_bookcase", "icon": "public_bookcase" }, "geometry": { "type": "Point", "coordinates": [ 3.609621, 49.0765685 ] } },
{ "type": "Feature", "properties": { "name": "Rue du Général de Gaulle", "codetype": "BSB", "type": "delivrez bookcase", "desc": "_", "color": "#00842b", "background": "square", "website": "https://delivrez.fr/public/posts/img.6144b18c1eae0.png", "amenity_subtype": "public_bookcase", "icon": "public_bookcase" }, "geometry": { "type": "Point", "coordinates": [ 3.1712552, 50.5087481 ] } },
{ "type": "Feature", "properties": { "name": "Grande Rue", "codetype": "BSB", "type": "delivrez bookcase", "desc": "devant la mairie", "color": "#00842b", "background": "square", "website": null, "amenity_subtype": "public_bookcase", "icon": "public_bookcase" }, "geometry": { "type": "Point", "coordinates": [ 1.717788, 50.4592422 ] } },
{ "type": "Feature", "properties": { "name": "Rue de Verdun", "codetype": "BSB", "type": "delivrez bookcase", "desc": "À l'entrée du village", "color": "#00842b", "background": "square", "website": null, "amenity_subtype": "public_bookcase", "icon": "public_bookcase" }, "geometry": { "type": "Point", "coordinates": [ 3.9656735, 49.9265785 ] } },
{ "type": "Feature", "properties": { "name": "Place de l'Église", "codetype": "BSB", "type": "delivrez bookcase", "desc": "Arrêt de bus", "color": "#00842b", "background": "square", "website": null, "amenity_subtype": "public_bookcase", "icon": "public_bookcase" }, "geometry": { "type": "Point", "coordinates": [ 3.962832, 49.9248732 ] } },
{ "type": "Feature", "properties": { "name": "boîtes à livres", "codetype": "BSB", "type": "delivrez bookcase", "desc": "Terrain de tennis", "color": "#00842b", "background": "square", "website": null, "amenity_subtype": "public_bookcase", "icon": "public_bookcase" }, "geometry": { "type": "Point", "coordinates": [ 3.9637996, 49.9243757 ] } },
{ "type": "Feature", "properties": { "name": "Boîtes à livres", "codetype": "BSB", "type": "delivrez bookcase", "desc": "Près de la rivière", "color": "#00842b", "background": "square", "website": null, "amenity_subtype": "public_bookcase", "icon": "public_bookcase" }, "geometry": { "type": "Point", "coordinates": [ 3.9632136, 49.9218859 ] } },
{ "type": "Feature", "properties": { "name": "Boîte à livres", "codetype": "BSB", "type": "delivrez bookcase", "desc": "Cabine téléphonique à côté de la mairie.", "color": "#00842b", "background": "square", "website": null, "amenity_subtype": "public_bookcase", "icon": "public_bookcase" }, "geometry": { "type": "Point", "coordinates": [ 3.98482, 49.9231606 ] } },
{ "type": "Feature", "properties": { "name": "Boîte à livres.", "codetype": "BSB", "type": "delivrez bookcase", "desc": "Dans la cours de la mairie.", "color": "#00842b", "background": "square", "website": null, "amenity_subtype": "public_bookcase", "icon": "public_bookcase" }, "geometry": { "type": "Point", "coordinates": [ 3.9998698, 50.1206093 ] } },
{ "type": "Feature", "properties": { "name": "Rue de l'Église", "codetype": "BSB", "type": "delivrez bookcase", "desc": "derrière le stade de foot @@__adossée à l air de jeux pour enfants", "color": "#00842b", "background": "square", "website": null, "amenity_subtype": "public_bookcase", "icon": "public_bookcase" }, "geometry": { "type": "Point", "coordinates": [ 1.7621398, 50.4454237 ] } },
{ "type": "Feature", "properties": { "name": "Avenue d'Etaples", "codetype": "BSB", "type": "delivrez bookcase", "desc": "parking lidl", "color": "#00842b", "background": "square", "website": null, "amenity_subtype": "public_bookcase", "icon": "public_bookcase" }, "geometry": { "type": "Point", "coordinates": [ 1.627373, 50.507327 ] } },
{ "type": "Feature", "properties": { "name": "Rue Auguste Biblocq", "codetype": "BSB", "type": "delivrez bookcase", "desc": "face à l école simone veille adossée au mur à côté du square", "color": "#00842b", "background": "square", "website": null, "amenity_subtype": "public_bookcase", "icon": "public_bookcase" }, "geometry": { "type": "Point", "coordinates": [ 1.6145437, 50.4547015 ] } },
{ "type": "Feature", "properties": { "name": "Avenue du Général Leclerc", "codetype": "BSB", "type": "delivrez bookcase", "desc": "située face au Canal à  côté du restaurant le port de plaisance le long de la voix du chemin de fer @@__", "color": "#00842b", "background": "square", "website": null, "amenity_subtype": "public_bookcase", "icon": "public_bookcase" }, "geometry": { "type": "Point", "coordinates": [ 1.6447697, 50.1799342 ] } },
{ "type": "Feature", "properties": { "name": "Quai du Romerel", "codetype": "BSB", "type": "delivrez bookcase", "desc": "le long de la jetée à côté des petites cabines blanche en bois", "color": "#00842b", "background": "square", "website": null, "amenity_subtype": "public_bookcase", "icon": "public_bookcase" }, "geometry": { "type": "Point", "coordinates": [ 1.6336049, 50.18844 ] } },
{ "type": "Feature", "properties": { "name": "Rue de l'Abbaye", "codetype": "BSB", "type": "delivrez bookcase", "desc": "dans le petit square à côté des toilettes publics", "color": "#00842b", "background": "square", "website": null, "amenity_subtype": "public_bookcase", "icon": "public_bookcase" }, "geometry": { "type": "Point", "coordinates": [ 1.6211021, 50.1880231 ] } },
{ "type": "Feature", "properties": { "name": "Rue de l'Abbaye", "codetype": "BSB", "type": "delivrez bookcase", "desc": "dans petit square à côté des toilettes", "color": "#00842b", "background": "square", "website": null, "amenity_subtype": "public_bookcase", "icon": "public_bookcase" }, "geometry": { "type": "Point", "coordinates": [ 1.6211831, 50.1880558 ] } },
{ "type": "Feature", "properties": { "name": "Avenue Paul Bert", "codetype": "BSB", "type": "delivrez bookcase", "desc": "parc jean ferrat", "color": "#00842b", "background": "square", "website": null, "amenity_subtype": "public_bookcase", "icon": "public_bookcase" }, "geometry": { "type": "Point", "coordinates": [ 3.2102852, 50.6738393 ] } },
{ "type": "Feature", "properties": { "name": "Avenue de la Plage", "codetype": "BSB", "type": "delivrez bookcase", "desc": "Heliport côté sanitaires", "color": "#00842b", "background": "square", "website": null, "amenity_subtype": "public_bookcase", "icon": "public_bookcase" }, "geometry": { "type": "Point", "coordinates": [ 1.5501561, 50.3387548 ] } },
{ "type": "Feature", "properties": { "name": "Rue Henri Sellier", "codetype": "BSB", "type": "delivrez bookcase", "desc": "Face au groupe scolaire Pruvot", "color": "#00842b", "background": "square", "website": null, "amenity_subtype": "public_bookcase", "icon": "public_bookcase" }, "geometry": { "type": "Point", "coordinates": [ 1.8238903, 50.1187635 ] } },
{ "type": "Feature", "properties": { "name": "Rue du Moulin", "codetype": "BSB", "type": "delivrez bookcase", "desc": "_", "color": "#00842b", "background": "square", "website": null, "amenity_subtype": "public_bookcase", "icon": "public_bookcase" }, "geometry": { "type": "Point", "coordinates": [ 3.4552807, 50.0364449 ] } },
{ "type": "Feature", "properties": { "name": "205, Rue de l'Offrande", "codetype": "BSB", "type": "delivrez bookcase", "desc": "_", "color": "#00842b", "background": "square", "website": null, "amenity_subtype": "public_bookcase", "icon": "public_bookcase" }, "geometry": { "type": "Point", "coordinates": [ 3.0818094, 50.4897781 ] } },
{ "type": "Feature", "properties": { "name": "halles de wazemmes", "codetype": "BSB", "type": "delivrez bookcase", "desc": "_", "color": "#00842b", "background": "square", "website": null, "amenity_subtype": "public_bookcase", "icon": "public_bookcase" }, "geometry": { "type": "Point", "coordinates": [ 3.0493262, 50.626834 ] } },
{ "type": "Feature", "properties": { "name": "Ruelle Clemenceau", "codetype": "BSB", "type": "delivrez bookcase", "desc": "Ancien téléphone rénové en cabane à livres", "color": "#00842b", "background": "square", "website": null, "amenity_subtype": "public_bookcase", "icon": "public_bookcase" }, "geometry": { "type": "Point", "coordinates": [ 3.4135344, 50.1832893 ] } },
{ "type": "Feature", "properties": { "name": "parc aux tortues", "codetype": "BSB", "type": "delivrez bookcase", "desc": "_", "color": "#00842b", "background": "square", "website": null, "amenity_subtype": "public_bookcase", "icon": "public_bookcase" }, "geometry": { "type": "Point", "coordinates": [ 3.2122588, 50.6697226 ] } },
{ "type": "Feature", "properties": { "name": "Rue du Général de Gaulle", "codetype": "BSB", "type": "delivrez bookcase", "desc": "Près du canal.", "color": "#00842b", "background": "square", "website": null, "amenity_subtype": "public_bookcase", "icon": "public_bookcase" }, "geometry": { "type": "Point", "coordinates": [ 3.6912752, 50.1237799 ] } },
{ "type": "Feature", "properties": { "name": "Rue de Revelles", "codetype": "BSB", "type": "delivrez bookcase", "desc": "_", "color": "#00842b", "background": "square", "website": null, "amenity_subtype": "public_bookcase", "icon": "public_bookcase" }, "geometry": { "type": "Point", "coordinates": [ 2.1631311, 49.8391064 ] } },
{ "type": "Feature", "properties": { "name": "Rue du Port Salut", "codetype": "BSB", "type": "delivrez bookcase", "desc": "_", "color": "#00842b", "background": "square", "website": null, "amenity_subtype": "public_bookcase", "icon": "public_bookcase" }, "geometry": { "type": "Point", "coordinates": [ 2.7237638, 49.3127919 ] } },
{ "type": "Feature", "properties": { "name": "Place Paul Vimereu", "codetype": "BSB", "type": "delivrez bookcase", "desc": "_", "color": "#00842b", "background": "square", "website": null, "amenity_subtype": "public_bookcase", "icon": "public_bookcase" }, "geometry": { "type": "Point", "coordinates": [ 1.5509897, 50.1567044 ] } },
{ "type": "Feature", "properties": { "name": "Route de la Plage Cise", "codetype": "BSB", "type": "delivrez bookcase", "desc": "_", "color": "#00842b", "background": "square", "website": null, "amenity_subtype": "public_bookcase", "icon": "public_bookcase" }, "geometry": { "type": "Point", "coordinates": [ 1.4235872, 50.0892618 ] } },
{ "type": "Feature", "properties": { "name": "Rue de la République", "codetype": "BSB", "type": "delivrez bookcase", "desc": "_", "color": "#00842b", "background": "square", "website": null, "amenity_subtype": "public_bookcase", "icon": "public_bookcase" }, "geometry": { "type": "Point", "coordinates": [ 1.4894739, 50.0304775 ] } },
{ "type": "Feature", "properties": { "name": "Rue de la Forêt", "codetype": "BSB", "type": "delivrez bookcase", "desc": "Face aux grands près", "color": "#00842b", "background": "square", "website": null, "amenity_subtype": "public_bookcase", "icon": "public_bookcase" }, "geometry": { "type": "Point", "coordinates": [ 1.4934441, 50.0265612 ] } },
{ "type": "Feature", "properties": { "name": "Rue Diderot", "codetype": "BSB", "type": "delivrez bookcase", "desc": "_", "color": "#00842b", "background": "square", "website": null, "amenity_subtype": "public_bookcase", "icon": "public_bookcase" }, "geometry": { "type": "Point", "coordinates": [ 1.8653759, 50.9544426 ] } },
{ "type": "Feature", "properties": { "name": "VIVAL FROISSY", "codetype": "BSB", "type": "delivrez bookcase", "desc": "Little Free Library", "color": "#00842b", "background": "square", "website": null, "amenity_subtype": "public_bookcase", "icon": "public_bookcase" }, "geometry": { "type": "Point", "coordinates": [ 2.22025, 49.56562 ] } },
{ "type": "Feature", "properties": { "name": "VIVAL WINGLES", "codetype": "BSB", "type": "delivrez bookcase", "desc": "Little Free Library", "color": "#00842b", "background": "square", "website": null, "amenity_subtype": "public_bookcase", "icon": "public_bookcase" }, "geometry": { "type": "Point", "coordinates": [ 2.8925, 50.49646 ] } },
{ "type": "Feature", "properties": { "name": "VIVAL CARTIGNIES", "codetype": "BSB", "type": "delivrez bookcase", "desc": "Little Free Library", "color": "#00842b", "background": "square", "website": null, "amenity_subtype": "public_bookcase", "icon": "public_bookcase" }, "geometry": { "type": "Point", "coordinates": [ 3.84478, 50.08082 ] } },
{ "type": "Feature", "properties": { "name": "VIVAL BAINCTHUN", "codetype": "BSB", "type": "delivrez bookcase", "desc": "Little Free Library", "color": "#00842b", "background": "square", "website": null, "amenity_subtype": "public_bookcase", "icon": "public_bookcase" }, "geometry": { "type": "Point", "coordinates": [ 1.67108, 50.71235 ] } },
{ "type": "Feature", "properties": { "name": "VIVAL CREVECOEUR LE GRAND", "codetype": "BSB", "type": "delivrez bookcase", "desc": "Little Free Library", "color": "#00842b", "background": "square", "website": null, "amenity_subtype": "public_bookcase", "icon": "public_bookcase" }, "geometry": { "type": "Point", "coordinates": [ 2.07655, 49.60832 ] } },
{ "type": "Feature", "properties": { "name": "VIVAL MOLLIENS DREUIL", "codetype": "BSB", "type": "delivrez bookcase", "desc": "Little Free Library", "color": "#00842b", "background": "square", "website": null, "amenity_subtype": "public_bookcase", "icon": "public_bookcase" }, "geometry": { "type": "Point", "coordinates": [ 2.00421, 49.88122 ] } },
{ "type": "Feature", "properties": { "name": "VIVAL ROOST WARENDIN", "codetype": "BSB", "type": "delivrez bookcase", "desc": "Little Free Library", "color": "#00842b", "background": "square", "website": null, "amenity_subtype": "public_bookcase", "icon": "public_bookcase" }, "geometry": { "type": "Point", "coordinates": [ 3.09822, 50.40462 ] } },
{ "type": "Feature", "properties": { "name": "Rue de la Seigneurie", "codetype": "BSB", "type": "delivrez bookcase", "desc": "Dans l'entrée d'intermarché", "color": "#00842b", "background": "square", "website": null, "amenity_subtype": "public_bookcase", "icon": "public_bookcase" }, "geometry": { "type": "Point", "coordinates": [ 2.4250697, 49.1499197 ] } },
{ "type": "Feature", "properties": { "name": "Rue de la Seigneurie", "codetype": "BSB", "type": "delivrez bookcase", "desc": "Dans l'entrée d'intermarché", "color": "#00842b", "background": "square", "website": null, "amenity_subtype": "public_bookcase", "icon": "public_bookcase" }, "geometry": { "type": "Point", "coordinates": [ 2.4250697, 49.1499197 ] } },
{ "type": "Feature", "properties": { "name": "S.A.J", "codetype": "BSB", "type": "delivrez bookcase", "desc": "boite à livres dans l'enceinte de la cours . en prise iibre", "color": "#00842b", "background": "square", "website": null, "amenity_subtype": "public_bookcase", "icon": "public_bookcase" }, "geometry": { "type": "Point", "coordinates": [ 2.939329, 50.4486012 ] } },
{ "type": "Feature", "properties": { "name": "Rue de Montevideo", "codetype": "BSB", "type": "delivrez bookcase", "desc": "_", "color": "#00842b", "background": "square", "website": null, "amenity_subtype": "public_bookcase", "icon": "public_bookcase" }, "geometry": { "type": "Point", "coordinates": [ 3.3791141, 49.5957159 ] } },
{ "type": "Feature", "properties": { "name": "Rue briffoteaux", "codetype": "BSB", "type": "delivrez bookcase", "desc": "Elle est située entre la mairie et l école. Fabriquée et installée par la municipalité en 2018.", "color": "#00842b", "background": "square", "website": null, "amenity_subtype": "public_bookcase", "icon": "public_bookcase" }, "geometry": { "type": "Point", "coordinates": [ 3.143191, 49.5721289 ] } },
{ "type": "Feature", "properties": { "name": "Place Jacques Prévert", "codetype": "BSB", "type": "delivrez bookcase", "desc": "", "color": "#00842b", "background": "square", "website": null, "amenity_subtype": "public_bookcase", "icon": "public_bookcase" }, "geometry": { "type": "Point", "coordinates": [ 3.6222295, 49.5533502 ] } },
{ "type": "Feature", "properties": { "name": "Place de l église", "codetype": "BSB", "type": "delivrez bookcase", "desc": "", "color": "#00842b", "background": "square", "website": null, "amenity_subtype": "public_bookcase", "icon": "public_bookcase" }, "geometry": { "type": "Point", "coordinates": [ 2.5759259, 49.1510286 ] } },
{ "type": "Feature", "properties": { "name": "24 rue Cagnard", "codetype": "BSB", "type": "delivrez bookcase", "desc": "Au croisement entre rue Cagnard et rue de Vignacourt", "color": "#00842b", "background": "square", "website": null, "amenity_subtype": "public_bookcase", "icon": "public_bookcase" }, "geometry": { "type": "Point", "coordinates": [ 2.2883277, 49.904028 ] } },
{ "type": "Feature", "properties": { "name": "grande rue", "codetype": "BSB", "type": "delivrez bookcase", "desc": "", "color": "#00842b", "background": "square", "website": null, "amenity_subtype": "public_bookcase", "icon": "public_bookcase" }, "geometry": { "type": "Point", "coordinates": [ 1.523795127868653, 50.105331692970601 ] } },
{ "type": "Feature", "properties": { "name": "Rue de Compiègne", "codetype": "BSB", "type": "delivrez bookcase", "desc": "Cabine téléphonique rose en face de la pharmacie. Inaugurée il y a quelques semaines", "color": "#00842b", "background": "square", "website": null, "amenity_subtype": "public_bookcase", "icon": "public_bookcase" }, "geometry": { "type": "Point", "coordinates": [ 2.8050823, 49.4158433 ] } },
{ "type": "Feature", "properties": { "name": "163 Rue du Maréchal Foch", "codetype": "BSB", "type": "delivrez bookcase", "desc": "Dans l ancienne cabine téléphonique, sur le trottoir de l'école Notre Dame. Dédiée principalement aux livres pour enfants.", "color": "#00842b", "background": "square", "website": null, "amenity_subtype": "public_bookcase", "icon": "public_bookcase" }, "geometry": { "type": "Point", "coordinates": [ 2.9565356, 50.5956702 ] } },
{ "type": "Feature", "properties": { "name": "Mairie", "codetype": "BSB", "type": "delivrez bookcase", "desc": "Sous l'abribus à coté de la mairie", "color": "#00842b", "background": "square", "website": null, "amenity_subtype": "public_bookcase", "icon": "public_bookcase" }, "geometry": { "type": "Point", "coordinates": [ 1.9749022, 49.2066419 ] } },
{ "type": "Feature", "properties": { "name": "Rue de l'église", "codetype": "BSB", "type": "delivrez bookcase", "desc": "C'est une cabine téléphonique", "color": "#00842b", "background": "square", "website": null, "amenity_subtype": "public_bookcase", "icon": "public_bookcase" }, "geometry": { "type": "Point", "coordinates": [ 2.36371, 49.4217304 ] } },
{ "type": "Feature", "properties": { "name": "", "codetype": "BSB", "type": "delivrez bookcase", "desc": "", "color": "#00842b", "background": "square", "website": null, "amenity_subtype": "public_bookcase", "icon": "public_bookcase" }, "geometry": { "type": "Point", "coordinates": [ 2.90019, 49.48252 ] } },
{ "type": "Feature", "properties": { "name": "ROUTE DE LA BASSEE", "codetype": "BSB", "type": "delivrez bookcase", "desc": "Accessible aux horaires d ouverture", "color": "#00842b", "background": "square", "website": null, "amenity_subtype": "public_bookcase", "icon": "public_bookcase" }, "geometry": { "type": "Point", "coordinates": [ 2.813078, 50.4683205 ] } },
{ "type": "Feature", "properties": { "name": "rue camélinat", "codetype": "BSB", "type": "delivrez bookcase", "desc": "Elle est composée de 3 boites, 1 grande pour les adultes et 2 petites pour les enfants.Elle est située derrière la mairie, entre le restaurant scolaire et l'école maternelle D. Casanova", "color": "#00842b", "background": "square", "website": null, "amenity_subtype": "public_bookcase", "icon": "public_bookcase" }, "geometry": { "type": "Point", "coordinates": [ 3.3791537, 50.1975936 ] } },
{ "type": "Feature", "properties": { "name": "Rue de Prezelle", "codetype": "BSB", "type": "delivrez bookcase", "desc": "", "color": "#00842b", "background": "square", "website": null, "amenity_subtype": "public_bookcase", "icon": "public_bookcase" }, "geometry": { "type": "Point", "coordinates": [ 3.3124791, 49.9293989 ] } },
{ "type": "Feature", "properties": { "name": "Rue du général de Gaulle", "codetype": "BSB", "type": "delivrez bookcase", "desc": "", "color": "#00842b", "background": "square", "website": null, "amenity_subtype": "public_bookcase", "icon": "public_bookcase" }, "geometry": { "type": "Point", "coordinates": [ 2.86794662475586, 50.519184313496837 ] } },
{ "type": "Feature", "properties": { "name": "centre commercial E.Leclerc", "codetype": "BSB", "type": "delivrez bookcase", "desc": "", "color": "#00842b", "background": "square", "website": null, "amenity_subtype": "public_bookcase", "icon": "public_bookcase" }, "geometry": { "type": "Point", "coordinates": [ 2.5807785, 49.6476112 ] } },
{ "type": "Feature", "properties": { "name": "Ru du Capitaine Fay", "codetype": "BSB", "type": "delivrez bookcase", "desc": "La boite se trouve sur l aire de jeux pour enfants juste derrière la salle des fêtes qui se trouve elle place de la république.", "color": "#00842b", "background": "square", "website": null, "amenity_subtype": "public_bookcase", "icon": "public_bookcase" }, "geometry": { "type": "Point", "coordinates": [ 1.9784846, 49.7757245 ] } },
{ "type": "Feature", "properties": { "name": "Parc Municipal de Loos lez Lille", "codetype": "BSB", "type": "delivrez bookcase", "desc": "Une belle boîte jaune !", "color": "#00842b", "background": "square", "website": null, "amenity_subtype": "public_bookcase", "icon": "public_bookcase" }, "geometry": { "type": "Point", "coordinates": [ 3.0175362, 50.6008387 ] } },
{ "type": "Feature", "properties": { "name": "Rue d Hérivaux", "codetype": "BSB", "type": "delivrez bookcase", "desc": "Devant le centre culturel, en face du marché.", "color": "#00842b", "background": "square", "website": null, "amenity_subtype": "public_bookcase", "icon": "public_bookcase" }, "geometry": { "type": "Point", "coordinates": [ 2.4693043, 49.1395338 ] } },
{ "type": "Feature", "properties": { "name": "Place de la mairie", "codetype": "BSB", "type": "delivrez bookcase", "desc": "L ancienne cabine téléphonique en bois a été recyclée en boîte à lire.", "color": "#00842b", "background": "square", "website": null, "amenity_subtype": "public_bookcase", "icon": "public_bookcase" }, "geometry": { "type": "Point", "coordinates": [ 2.4681095, 49.1439032 ] } },
{ "type": "Feature", "properties": { "name": "place de rouen", "codetype": "BSB", "type": "delivrez bookcase", "desc": "au pied d un immeuble", "color": "#00842b", "background": "square", "website": null, "amenity_subtype": "public_bookcase", "icon": "public_bookcase" }, "geometry": { "type": "Point", "coordinates": [ 2.7681783, 50.2711508 ] } },
{ "type": "Feature", "properties": { "name": "residence des soir paisible", "codetype": "BSB", "type": "delivrez bookcase", "desc": "", "color": "#00842b", "background": "square", "website": null, "amenity_subtype": "public_bookcase", "icon": "public_bookcase" }, "geometry": { "type": "Point", "coordinates": [ 2.770711, 50.2710182 ] } },
{ "type": "Feature", "properties": { "name": "75-155 Rue Béranger", "codetype": "BSB", "type": "delivrez bookcase", "desc": "La boite se trouve à l'entrée du parc, à l'opposé du kiosque à musique.", "color": "#00842b", "background": "square", "website": null, "amenity_subtype": "public_bookcase", "icon": "public_bookcase" }, "geometry": { "type": "Point", "coordinates": [ 2.632083892822266, 50.52936105325702 ] } },
{ "type": "Feature", "properties": { "name": "Rue Jean Macé", "codetype": "BSB", "type": "delivrez bookcase", "desc": "Située dans le petit square juste à coté de l office de tourisme.", "color": "#00842b", "background": "square", "website": null, "amenity_subtype": "public_bookcase", "icon": "public_bookcase" }, "geometry": { "type": "Point", "coordinates": [ 3.127718567848206, 50.670404912938885 ] } },
{ "type": "Feature", "properties": { "name": "Rue des Houppeux", "codetype": "BSB", "type": "delivrez bookcase", "desc": "", "color": "#00842b", "background": "square", "website": null, "amenity_subtype": "public_bookcase", "icon": "public_bookcase" }, "geometry": { "type": "Point", "coordinates": [ 3.4307505, 49.5927886 ] } },
{ "type": "Feature", "properties": { "name": "Rue de la plaine", "codetype": "BSB", "type": "delivrez bookcase", "desc": "", "color": "#00842b", "background": "square", "website": null, "amenity_subtype": "public_bookcase", "icon": "public_bookcase" }, "geometry": { "type": "Point", "coordinates": [ 3.538989, 49.5614782 ] } },
{ "type": "Feature", "properties": { "name": "6 Rue Jeanne d Arc à Lille", "codetype": "BSB", "type": "delivrez bookcase", "desc": "Devant l Atelier des Petites Créations", "color": "#00842b", "background": "square", "website": null, "amenity_subtype": "public_bookcase", "icon": "public_bookcase" }, "geometry": { "type": "Point", "coordinates": [ 3.0647071, 50.629674 ] } },
{ "type": "Feature", "properties": { "name": "7 rue Villa-la-Croix", "codetype": "BSB", "type": "delivrez bookcase", "desc": "Boite à lire gérée par la mairie.", "color": "#00842b", "background": "square", "website": null, "amenity_subtype": "public_bookcase", "icon": "public_bookcase" }, "geometry": { "type": "Point", "coordinates": [ 3.2770717, 49.3771173 ] } },
{ "type": "Feature", "properties": { "name": "Rue de pressy", "codetype": "BSB", "type": "delivrez bookcase", "desc": "Ancienne cabine téléphonique la boîte à livre est rouge", "color": "#00842b", "background": "square", "website": null, "amenity_subtype": "public_bookcase", "icon": "public_bookcase" }, "geometry": { "type": "Point", "coordinates": [ 2.4068386, 50.4823656 ] } },
{ "type": "Feature", "properties": { "name": "10, rue Condorcet", "codetype": "BSB", "type": "delivrez bookcase", "desc": "La ville d Amiens a installé une nouvelle boite à lire devant l'association ACIP. Des bénévoles de cette association veille sur cette dernière.", "color": "#00842b", "background": "square", "website": null, "amenity_subtype": "public_bookcase", "icon": "public_bookcase" }, "geometry": { "type": "Point", "coordinates": [ 2.3251327, 49.8763048 ] } },
{ "type": "Feature", "properties": { "name": "Campus Inovia. 1435 boulevard Cambronne", "codetype": "BSB", "type": "delivrez bookcase", "desc": "Elle se trouve au niveau des boites aux lettres, à l'entrée du Campus", "color": "#00842b", "background": "square", "website": null, "amenity_subtype": "public_bookcase", "icon": "public_bookcase" }, "geometry": { "type": "Point", "coordinates": [ 3.0081583, 49.5979187 ] } },
{ "type": "Feature", "properties": { "name": "77 rue Roland", "codetype": "BSB", "type": "delivrez bookcase", "desc": "Situé dans la cour du centre socio  culturel Simone Veil du quartier Vauban Esquermes", "color": "#00842b", "background": "square", "website": null, "amenity_subtype": "public_bookcase", "icon": "public_bookcase" }, "geometry": { "type": "Point", "coordinates": [ 3.038688, 50.6300958 ] } },
{ "type": "Feature", "properties": { "name": "Salle des fêtes", "codetype": "BSB", "type": "delivrez bookcase", "desc": "A côté de la salle des fêtes au fond du parking", "color": "#00842b", "background": "square", "website": null, "amenity_subtype": "public_bookcase", "icon": "public_bookcase" }, "geometry": { "type": "Point", "coordinates": [ 2.1149845, 49.3546757 ] } },
{ "type": "Feature", "properties": { "name": "Centre Commercial Auchan D121", "codetype": "BSB", "type": "delivrez bookcase", "desc": "", "color": "#00842b", "background": "square", "website": null, "amenity_subtype": "public_bookcase", "icon": "public_bookcase" }, "geometry": { "type": "Point", "coordinates": [ 3.9375076, 50.2564404 ] } },
{ "type": "Feature", "properties": { "name": "Centre Commercial Auchan Les Géants, 352 Route nationale, lot 85", "codetype": "BSB", "type": "delivrez bookcase", "desc": "", "color": "#00842b", "background": "square", "website": null, "amenity_subtype": "public_bookcase", "icon": "public_bookcase" }, "geometry": { "type": "Point", "coordinates": [ 2.9688254, 50.6321722 ] } },
{ "type": "Feature", "properties": { "name": "rue de champien", "codetype": "BSB", "type": "delivrez bookcase", "desc": "rue de champienPetite boite à lire  fait maison\"", "color": "#00842b", "background": "square", "website": null, "amenity_subtype": "public_bookcase", "icon": "public_bookcase" }, "geometry": { "type": "Point", "coordinates": [ 2.8289594, 49.6848044 ] } },
{ "type": "Feature", "properties": { "name": "7 Rue Léon Gambetta", "codetype": "BSB", "type": "delivrez bookcase", "desc": "Zone de dépôt à même le sol, au pied d une peinture à la bombe.À droite de La Baraque aux arts.", "color": "#00842b", "background": "square", "website": null, "amenity_subtype": "public_bookcase", "icon": "public_bookcase" }, "geometry": { "type": "Point", "coordinates": [ 3.079853, 50.3682282 ] } },
{ "type": "Feature", "properties": { "name": "Rue de Sain-Venant", "codetype": "BSB", "type": "delivrez bookcase", "desc": "À côté de l arrêt de bus Liberté", "color": "#00842b", "background": "square", "website": null, "amenity_subtype": "public_bookcase", "icon": "public_bookcase" }, "geometry": { "type": "Point", "coordinates": [ 2.6274053, 50.5396042 ] } },
{ "type": "Feature", "properties": { "name": "Rue traversière", "codetype": "BSB", "type": "delivrez bookcase", "desc": "La boîte à livres est située dans le hall du cinéma Le méliès.", "color": "#00842b", "background": "square", "website": null, "amenity_subtype": "public_bookcase", "icon": "public_bookcase" }, "geometry": { "type": "Point", "coordinates": [ 3.1427805, 50.6173045 ] } },
{ "type": "Feature", "properties": { "name": "2 rue des Bois", "codetype": "BSB", "type": "delivrez bookcase", "desc": "ancienne cabine téléphonique recyclée en boite à livresur la D81", "color": "#00842b", "background": "square", "website": null, "amenity_subtype": "public_bookcase", "icon": "public_bookcase" }, "geometry": { "type": "Point", "coordinates": [ 2.9371417, 49.4199508 ] } },
{ "type": "Feature", "properties": { "name": "21 rue marcel sembat", "codetype": "BSB", "type": "delivrez bookcase", "desc": "Accessible aux heures d ouverture 9h-12h / 14h-17h", "color": "#00842b", "background": "square", "website": null, "amenity_subtype": "public_bookcase", "icon": "public_bookcase" }, "geometry": { "type": "Point", "coordinates": [ 2.8397082, 50.4342557 ] } },
{ "type": "Feature", "properties": { "name": "25 rue victor picard", "codetype": "BSB", "type": "delivrez bookcase", "desc": "", "color": "#00842b", "background": "square", "website": null, "amenity_subtype": "public_bookcase", "icon": "public_bookcase" }, "geometry": { "type": "Point", "coordinates": [ 2.8316374, 50.4307564 ] } },
{ "type": "Feature", "properties": { "name": "Rue d?ailly", "codetype": "BSB", "type": "delivrez bookcase", "desc": "Elle se situe près du banc dans la rue", "color": "#00842b", "background": "square", "website": null, "amenity_subtype": "public_bookcase", "icon": "public_bookcase" }, "geometry": { "type": "Point", "coordinates": [ 2.2142203, 49.9035794 ] } },
{ "type": "Feature", "properties": { "name": "Parc des faitelles", "codetype": "BSB", "type": "delivrez bookcase", "desc": "À côté de la buvette.", "color": "#00842b", "background": "square", "website": null, "amenity_subtype": "public_bookcase", "icon": "public_bookcase" }, "geometry": { "type": "Point", "coordinates": [ 2.8500697, 50.4626377 ] } },
{ "type": "Feature", "properties": { "name": "devant le presbytère de Vaux à Laon", "codetype": "BSB", "type": "delivrez bookcase", "desc": "devant le presbytère de Vaux à Laon à la demande du père Marçin GRZYB .", "color": "#00842b", "background": "square", "website": null, "amenity_subtype": "public_bookcase", "icon": "public_bookcase" }, "geometry": { "type": "Point", "coordinates": [ 3.6244754, 49.5641017 ] } },
{ "type": "Feature", "properties": { "name": "22 rue Pasteur", "codetype": "BSB", "type": "delivrez bookcase", "desc": "La boite se trouve dans le Square Poggibosi.", "color": "#00842b", "background": "square", "website": null, "amenity_subtype": "public_bookcase", "icon": "public_bookcase" }, "geometry": { "type": "Point", "coordinates": [ 3.0807925, 50.6600939 ] } },
{ "type": "Feature", "properties": { "name": "63 boulevard Clémenceau", "codetype": "BSB", "type": "delivrez bookcase", "desc": "La boite à lire se trouve à proximité du Parc du petit prince.", "color": "#00842b", "background": "square", "website": null, "amenity_subtype": "public_bookcase", "icon": "public_bookcase" }, "geometry": { "type": "Point", "coordinates": [ 3.0834263, 50.6651217 ] } },
{ "type": "Feature", "properties": { "name": "Rue de la justice", "codetype": "BSB", "type": "delivrez bookcase", "desc": "Sous un kiosque près de l école primaire", "color": "#00842b", "background": "square", "website": null, "amenity_subtype": "public_bookcase", "icon": "public_bookcase" }, "geometry": { "type": "Point", "coordinates": [ 2.847159, 50.45198 ] } },
{ "type": "Feature", "properties": { "name": "85 rue georges devouges", "codetype": "BSB", "type": "delivrez bookcase", "desc": "Parking ecole maternelle", "color": "#00842b", "background": "square", "website": null, "amenity_subtype": "public_bookcase", "icon": "public_bookcase" }, "geometry": { "type": "Point", "coordinates": [ 2.8486636, 50.4455389 ] } },
{ "type": "Feature", "properties": { "name": "Place de la mairie", "codetype": "BSB", "type": "delivrez bookcase", "desc": "", "color": "#00842b", "background": "square", "website": null, "amenity_subtype": "public_bookcase", "icon": "public_bookcase" }, "geometry": { "type": "Point", "coordinates": [ 1.9424051, 49.2790712 ] } },
{ "type": "Feature", "properties": { "name": "41 rue des grenadiers", "codetype": "BSB", "type": "delivrez bookcase", "desc": "une boîte à livres créée par les élèves du collège du Septentrion . Elle est placée sur le mur de la  Maison pour tous, derrière la mairie.", "color": "#00842b", "background": "square", "website": null, "amenity_subtype": "public_bookcase", "icon": "public_bookcase" }, "geometry": { "type": "Point", "coordinates": [ 2.5243916, 51.0698034 ] } },
{ "type": "Feature", "properties": { "name": "Rue de l Église", "codetype": "BSB", "type": "delivrez bookcase", "desc": "", "color": "#00842b", "background": "square", "website": null, "amenity_subtype": "public_bookcase", "icon": "public_bookcase" }, "geometry": { "type": "Point", "coordinates": [ 2.3157318, 49.8341197 ] } },
{ "type": "Feature", "properties": { "name": "169 avenue du Général Foy", "codetype": "BSB", "type": "delivrez bookcase", "desc": "", "color": "#00842b", "background": "square", "website": null, "amenity_subtype": "public_bookcase", "icon": "public_bookcase" }, "geometry": { "type": "Point", "coordinates": [ 2.2815147, 49.8891762 ] } },
{ "type": "Feature", "properties": { "name": "Place du 8 Mai 1945", "codetype": "BSB", "type": "delivrez bookcase", "desc": "", "color": "#00842b", "background": "square", "website": null, "amenity_subtype": "public_bookcase", "icon": "public_bookcase" }, "geometry": { "type": "Point", "coordinates": [ 2.318428, 49.9996 ] } },
{ "type": "Feature", "properties": { "name": "13 Grand Rue", "codetype": "BSB", "type": "delivrez bookcase", "desc": "", "color": "#00842b", "background": "square", "website": null, "amenity_subtype": "public_bookcase", "icon": "public_bookcase" }, "geometry": { "type": "Point", "coordinates": [ 2.362462, 49.940928 ] } },
{ "type": "Feature", "properties": { "name": "Rue du Quai", "codetype": "BSB", "type": "delivrez bookcase", "desc": "", "color": "#00842b", "background": "square", "website": null, "amenity_subtype": "public_bookcase", "icon": "public_bookcase" }, "geometry": { "type": "Point", "coordinates": [ 2.279531, 49.807696 ] } },
{ "type": "Feature", "properties": { "name": "28 rue de Paris", "codetype": "BSB", "type": "delivrez bookcase", "desc": "", "color": "#00842b", "background": "square", "website": null, "amenity_subtype": "public_bookcase", "icon": "public_bookcase" }, "geometry": { "type": "Point", "coordinates": [ 2.2607818, 49.8142353 ] } },
{ "type": "Feature", "properties": { "name": "Rue de Seux", "codetype": "BSB", "type": "delivrez bookcase", "desc": "", "color": "#00842b", "background": "square", "website": null, "amenity_subtype": "public_bookcase", "icon": "public_bookcase" }, "geometry": { "type": "Point", "coordinates": [ 2.2543986, 49.7872944 ] } },
{ "type": "Feature", "properties": { "name": "15, boulevard Dunant", "codetype": "BSB", "type": "delivrez bookcase", "desc": "Derrière la Mia, où se trouve la crèche", "color": "#00842b", "background": "square", "website": null, "amenity_subtype": "public_bookcase", "icon": "public_bookcase" }, "geometry": { "type": "Point", "coordinates": [ 4.1058025, 50.2909528 ] } },
{ "type": "Feature", "properties": { "name": "Centre commercial Auchan-Fâches", "codetype": "BSB", "type": "delivrez bookcase", "desc": "Se situe en face du magasin Edisac dans la galerie d Auchan", "color": "#00842b", "background": "square", "website": null, "amenity_subtype": "public_bookcase", "icon": "public_bookcase" }, "geometry": { "type": "Point", "coordinates": [ 3.0807768, 50.5819273 ] } },
{ "type": "Feature", "properties": { "name": "Place des republique", "codetype": "BSB", "type": "delivrez bookcase", "desc": "Devant office du tourisme", "color": "#00842b", "background": "square", "website": null, "amenity_subtype": "public_bookcase", "icon": "public_bookcase" }, "geometry": { "type": "Point", "coordinates": [ 1.9050171, 50.5683826 ] } },
{ "type": "Feature", "properties": { "name": "Jardin Public, rue du cheval", "codetype": "BSB", "type": "delivrez bookcase", "desc": "Réalisée par les enfants du Conseil Municipal des Jeunes de la commune, avec l appui technique du CPIE Val d'Authie et des matériaux de récupération durant l'année 2018, elle sera implantée et inaugurée le 12 Janvier 2019. D'autres sont déjà en construction !", "color": "#00842b", "background": "square", "website": null, "amenity_subtype": "public_bookcase", "icon": "public_bookcase" }, "geometry": { "type": "Point", "coordinates": [ 2.1060887, 50.2340566 ] } },
{ "type": "Feature", "properties": { "name": "2 rue Victor Hugo", "codetype": "BSB", "type": "delivrez bookcase", "desc": "Elle se trouve dans la cour de la maison de santé.", "color": "#00842b", "background": "square", "website": null, "amenity_subtype": "public_bookcase", "icon": "public_bookcase" }, "geometry": { "type": "Point", "coordinates": [ 4.1044937, 50.0586162 ] } },
{ "type": "Feature", "properties": { "name": "2 rue des dunes le Töôk Tøõk", "codetype": "BSB", "type": "delivrez bookcase", "desc": "Aux heures d?ouverture du restaurant", "color": "#00842b", "background": "square", "website": null, "amenity_subtype": "public_bookcase", "icon": "public_bookcase" }, "geometry": { "type": "Point", "coordinates": [ 1.5845339, 50.52735 ] } },
{ "type": "Feature", "properties": { "name": "rue du Village", "codetype": "BSB", "type": "delivrez bookcase", "desc": "Accolée au mur de l école communale", "color": "#00842b", "background": "square", "website": null, "amenity_subtype": "public_bookcase", "icon": "public_bookcase" }, "geometry": { "type": "Point", "coordinates": [ 1.667315, 50.27248 ] } },
{ "type": "Feature", "properties": { "name": "rue norbert Ségard", "codetype": "BSB", "type": "delivrez bookcase", "desc": "...Face à la maison de retraite !", "color": "#00842b", "background": "square", "website": null, "amenity_subtype": "public_bookcase", "icon": "public_bookcase" }, "geometry": { "type": "Point", "coordinates": [ 3.0995403, 50.7068629 ] } },
{ "type": "Feature", "properties": { "name": "Parc du Musée Lombard", "codetype": "BSB", "type": "delivrez bookcase", "desc": "", "color": "#00842b", "background": "square", "website": null, "amenity_subtype": "public_bookcase", "icon": "public_bookcase" }, "geometry": { "type": "Point", "coordinates": [ 2.3434327, 50.1547057 ] } },
{ "type": "Feature", "properties": { "name": "Place de la Mairie", "codetype": "BSB", "type": "delivrez bookcase", "desc": "Boîte à livres offerte par le Lions Club Calais Duc de Guise, inaugurée le 09 septembre 2018", "color": "#00842b", "background": "square", "website": null, "amenity_subtype": "public_bookcase", "icon": "public_bookcase" }, "geometry": { "type": "Point", "coordinates": [ 2.0244828, 50.8752621 ] } },
{ "type": "Feature", "properties": { "name": "Parc Hébert à côté du Centre des Ressources Culturelles", "codetype": "BSB", "type": "delivrez bookcase", "desc": "Inaugurée le 8 Septembre 2018 par le Maire de Nogent Jean François DARDENNE, en présence de Céline ALFRED directrice de la Médiathèque, des Elus et le Club de Liancourt Nogent sur Oise", "color": "#00842b", "background": "square", "website": null, "amenity_subtype": "public_bookcase", "icon": "public_bookcase" }, "geometry": { "type": "Point", "coordinates": [ 2.4648302, 49.2731332 ] } },
{ "type": "Feature", "properties": { "name": "Parc de la maladrerie", "codetype": "BSB", "type": "delivrez bookcase", "desc": "", "color": "#00842b", "background": "square", "website": null, "amenity_subtype": "public_bookcase", "icon": "public_bookcase" }, "geometry": { "type": "Point", "coordinates": [ 2.416228, 49.2530069 ] } },
{ "type": "Feature", "properties": { "name": "Val joly", "codetype": "BSB", "type": "delivrez bookcase", "desc": "En face de la fontaine au val Joly.", "color": "#00842b", "background": "square", "website": null, "amenity_subtype": "public_bookcase", "icon": "public_bookcase" }, "geometry": { "type": "Point", "coordinates": [ 4.1362396, 50.1190025 ] } },
{ "type": "Feature", "properties": { "name": "Rue du Mal Foch", "codetype": "BSB", "type": "delivrez bookcase", "desc": "", "color": "#00842b", "background": "square", "website": null, "amenity_subtype": "public_bookcase", "icon": "public_bookcase" }, "geometry": { "type": "Point", "coordinates": [ 2.9582733, 50.5946897 ] } },
{ "type": "Feature", "properties": { "name": "Place Blondeau , devant le Centre Lequime", "codetype": "BSB", "type": "delivrez bookcase", "desc": "", "color": "#00842b", "background": "square", "website": null, "amenity_subtype": "public_bookcase", "icon": "public_bookcase" }, "geometry": { "type": "Point", "coordinates": [ 2.9844907, 50.6088503 ] } },
{ "type": "Feature", "properties": { "name": "Marché couvert", "codetype": "BSB", "type": "delivrez bookcase", "desc": "Ancienne armoire située dans un escalier du marché couvert.", "color": "#00842b", "background": "square", "website": null, "amenity_subtype": "public_bookcase", "icon": "public_bookcase" }, "geometry": { "type": "Point", "coordinates": [ 3.2198624, 49.612529 ] } },
{ "type": "Feature", "properties": { "name": "Rue des Rouges Barres", "codetype": "BSB", "type": "delivrez bookcase", "desc": "A l'angle de cette rue et de la rue Robert Schuman près la Maison de la Jeunesse du Buisson", "color": "#00842b", "background": "square", "website": null, "amenity_subtype": "public_bookcase", "icon": "public_bookcase" }, "geometry": { "type": "Point", "coordinates": [ 3.092982, 50.653205 ] } },
{ "type": "Feature", "properties": { "name": "Rue de Lille", "codetype": "BSB", "type": "delivrez bookcase", "desc": "La boîte se trouve dans le parc du Hautmont près des jeux", "color": "#00842b", "background": "square", "website": null, "amenity_subtype": "public_bookcase", "icon": "public_bookcase" }, "geometry": { "type": "Point", "coordinates": [ 3.1316138, 50.6983136 ] } },
{ "type": "Feature", "properties": { "name": "Place du marché", "codetype": "BSB", "type": "delivrez bookcase", "desc": "Une ancienne cabine de téléphone anglaise, sur la place du marché de Tilloy les Mofflaines", "color": "#00842b", "background": "square", "website": null, "amenity_subtype": "public_bookcase", "icon": "public_bookcase" }, "geometry": { "type": "Point", "coordinates": [ 2.780925, 50.292117 ] } },
{ "type": "Feature", "properties": { "name": "3 rue du docteur Bosquiel", "codetype": "BSB", "type": "delivrez bookcase", "desc": "La boîte à livres se trouve sur la voie piétonne près de la bibliothèque.", "color": "#00842b", "background": "square", "website": null, "amenity_subtype": "public_bookcase", "icon": "public_bookcase" }, "geometry": { "type": "Point", "coordinates": [ 3.0927452, 50.7036051 ] } },
{ "type": "Feature", "properties": { "name": "Place de la Republique", "codetype": "BSB", "type": "delivrez bookcase", "desc": "", "color": "#00842b", "background": "square", "website": null, "amenity_subtype": "public_bookcase", "icon": "public_bookcase" }, "geometry": { "type": "Point", "coordinates": [ 2.7271276, 50.5087099 ] } },
{ "type": "Feature", "properties": { "name": "Place Général Félix", "codetype": "BSB", "type": "delivrez bookcase", "desc": "Boite à lire située sur la place de l église.", "color": "#00842b", "background": "square", "website": null, "amenity_subtype": "public_bookcase", "icon": "public_bookcase" }, "geometry": { "type": "Point", "coordinates": [ 3.5169931, 49.4105047 ] } },
{ "type": "Feature", "properties": { "name": "14 rue Victor Hugo", "codetype": "BSB", "type": "delivrez bookcase", "desc": "Elle se situe sur le mur gauche du presbytère de Dechy.", "color": "#00842b", "background": "square", "website": null, "amenity_subtype": "public_bookcase", "icon": "public_bookcase" }, "geometry": { "type": "Point", "coordinates": [ 3.1256412, 50.3547636 ] } },
{ "type": "Feature", "properties": { "name": "228 rue arsene houssaye", "codetype": "BSB", "type": "delivrez bookcase", "desc": "A cote du distributeur de fruits et légumes", "color": "#00842b", "background": "square", "website": null, "amenity_subtype": "public_bookcase", "icon": "public_bookcase" }, "geometry": { "type": "Point", "coordinates": [ 3.631312, 49.5454775 ] } },
{ "type": "Feature", "properties": { "name": "Parc de la haute borne", "codetype": "BSB", "type": "delivrez bookcase", "desc": "Dans le parc à jeux pour enfants", "color": "#00842b", "background": "square", "website": null, "amenity_subtype": "public_bookcase", "icon": "public_bookcase" }, "geometry": { "type": "Point", "coordinates": [ 3.1577361, 50.6054121 ] } },
{ "type": "Feature", "properties": { "name": "rue pasteur ", "codetype": "BSB", "type": "delivrez bookcase", "desc": "", "color": "#00842b", "background": "square", "website": null, "amenity_subtype": "public_bookcase", "icon": "public_bookcase" }, "geometry": { "type": "Point", "coordinates": [ 2.9635915, 50.5886617 ] } },
{ "type": "Feature", "properties": { "name": "Rue Raoul Follereau", "codetype": "BSB", "type": "delivrez bookcase", "desc": "La boîte en forme de carottes se trouve au pied de la résidence.", "color": "#00842b", "background": "square", "website": null, "amenity_subtype": "public_bookcase", "icon": "public_bookcase" }, "geometry": { "type": "Point", "coordinates": [ 3.080474, 50.734341 ] } },
{ "type": "Feature", "properties": { "name": "Rue romanette", "codetype": "BSB", "type": "delivrez bookcase", "desc": "Croisement rue jean monnet a l arret de bus", "color": "#00842b", "background": "square", "website": null, "amenity_subtype": "public_bookcase", "icon": "public_bookcase" }, "geometry": { "type": "Point", "coordinates": [ 3.611817, 49.550035 ] } },
{ "type": "Feature", "properties": { "name": "place du general leclerc", "codetype": "BSB", "type": "delivrez bookcase", "desc": "", "color": "#00842b", "background": "square", "website": null, "amenity_subtype": "public_bookcase", "icon": "public_bookcase" }, "geometry": { "type": "Point", "coordinates": [ 2.544547, 50.4805063 ] } },
{ "type": "Feature", "properties": { "name": "RUE DE LA VIEILLE EGLISE", "codetype": "BSB", "type": "delivrez bookcase", "desc": "", "color": "#00842b", "background": "square", "website": null, "amenity_subtype": "public_bookcase", "icon": "public_bookcase" }, "geometry": { "type": "Point", "coordinates": [ 3.1778861, 49.6323102 ] } },
{ "type": "Feature", "properties": { "name": "Rue de l'égalité", "codetype": "BSB", "type": "delivrez bookcase", "desc": "Située dans la rue près de l'église", "color": "#00842b", "background": "square", "website": null, "amenity_subtype": "public_bookcase", "icon": "public_bookcase" }, "geometry": { "type": "Point", "coordinates": [ 2.5744578, 50.5633902 ] } },
{ "type": "Feature", "properties": { "name": "Place François Miterrand", "codetype": "BSB", "type": "delivrez bookcase", "desc": "À côté de la Gare de Béthune.", "color": "#00842b", "background": "square", "website": null, "amenity_subtype": "public_bookcase", "icon": "public_bookcase" }, "geometry": { "type": "Point", "coordinates": [ 2.64072060585022, 50.52166731299652 ] } },
{ "type": "Feature", "properties": { "name": "Aire de jeux Fg de Pisseleux", "codetype": "BSB", "type": "delivrez bookcase", "desc": "A proximité des écoles maternelles et primaires", "color": "#00842b", "background": "square", "website": null, "amenity_subtype": "public_bookcase", "icon": "public_bookcase" }, "geometry": { "type": "Point", "coordinates": [ 3.078107, 49.24197 ] } },
{ "type": "Feature", "properties": { "name": "Aire de jeux du Parc Salanson", "codetype": "BSB", "type": "delivrez bookcase", "desc": "A proximité des écoles maternelle et primaire du centre ville", "color": "#00842b", "background": "square", "website": null, "amenity_subtype": "public_bookcase", "icon": "public_bookcase" }, "geometry": { "type": "Point", "coordinates": [ 3.0878354, 49.2545289 ] } },
{ "type": "Feature", "properties": { "name": "Aire de jeux Jean Zay", "codetype": "BSB", "type": "delivrez bookcase", "desc": "A proximité de l école maternelle du quartier de la route de Vivières", "color": "#00842b", "background": "square", "website": null, "amenity_subtype": "public_bookcase", "icon": "public_bookcase" }, "geometry": { "type": "Point", "coordinates": [ 3.1005035, 49.2587755 ] } },
{ "type": "Feature", "properties": { "name": "3 Rue de l'École", "codetype": "BSB", "type": "delivrez bookcase", "desc": "Sur la gauche de la Mairie, à côté du point Le Relai", "color": "#00842b", "background": "square", "website": null, "amenity_subtype": "public_bookcase", "icon": "public_bookcase" }, "geometry": { "type": "Point", "coordinates": [ 2.8157547, 49.7546302 ] } },
{ "type": "Feature", "properties": { "name": "marck", "codetype": "BSB", "type": "delivrez bookcase", "desc": "près d une ecole sur un grillage", "color": "#00842b", "background": "square", "website": null, "amenity_subtype": "public_bookcase", "icon": "public_bookcase" }, "geometry": { "type": "Point", "coordinates": [ 1.8871508, 50.9449796 ] } },
{ "type": "Feature", "properties": { "name": "2 Rue Monsigny", "codetype": "BSB", "type": "delivrez bookcase", "desc": "A l'angle de la rue Thiers et de la Rue Monsigny", "color": "#00842b", "background": "square", "website": null, "amenity_subtype": "public_bookcase", "icon": "public_bookcase" }, "geometry": { "type": "Point", "coordinates": [ 1.604985594749451, 50.724428227473958 ] } },
{ "type": "Feature", "properties": { "name": "Rue Paul Doucet", "codetype": "BSB", "type": "delivrez bookcase", "desc": "", "color": "#00842b", "background": "square", "website": null, "amenity_subtype": "public_bookcase", "icon": "public_bookcase" }, "geometry": { "type": "Point", "coordinates": [ 3.4011844, 49.0415143 ] } },
{ "type": "Feature", "properties": { "name": "Ecole Juliot Curie", "codetype": "BSB", "type": "delivrez bookcase", "desc": "", "color": "#00842b", "background": "square", "website": null, "amenity_subtype": "public_bookcase", "icon": "public_bookcase" }, "geometry": { "type": "Point", "coordinates": [ 2.8509137, 50.4136781 ] } },
{ "type": "Feature", "properties": { "name": "Centre culturel Fernand Léger", "codetype": "BSB", "type": "delivrez bookcase", "desc": "", "color": "#00842b", "background": "square", "website": null, "amenity_subtype": "public_bookcase", "icon": "public_bookcase" }, "geometry": { "type": "Point", "coordinates": [ 2.834069, 50.4002598 ] } },
{ "type": "Feature", "properties": { "name": "Place duclos ", "codetype": "BSB", "type": "delivrez bookcase", "desc": "", "color": "#00842b", "background": "square", "website": null, "amenity_subtype": "public_bookcase", "icon": "public_bookcase" }, "geometry": { "type": "Point", "coordinates": [ 2.8333141, 50.413364 ] } },
{ "type": "Feature", "properties": { "name": "Place Léon Blum", "codetype": "BSB", "type": "delivrez bookcase", "desc": "Au phénix", "color": "#00842b", "background": "square", "website": null, "amenity_subtype": "public_bookcase", "icon": "public_bookcase" }, "geometry": { "type": "Point", "coordinates": [ 1.5937512, 50.7045398 ] } },
{ "type": "Feature", "properties": { "name": "rue Laennec", "codetype": "BSB", "type": "delivrez bookcase", "desc": "", "color": "#00842b", "background": "square", "website": null, "amenity_subtype": "public_bookcase", "icon": "public_bookcase" }, "geometry": { "type": "Point", "coordinates": [ 2.3299461, 49.9042252 ] } },
{ "type": "Feature", "properties": { "name": "Place de la mairie", "codetype": "BSB", "type": "delivrez bookcase", "desc": "", "color": "#00842b", "background": "square", "website": null, "amenity_subtype": "public_bookcase", "icon": "public_bookcase" }, "geometry": { "type": "Point", "coordinates": [ 2.3214462, 49.90082 ] } },
{ "type": "Feature", "properties": { "name": "Rue Porte Gayole", "codetype": "BSB", "type": "delivrez bookcase", "desc": "Devant le Lycée Technique Branly", "color": "#00842b", "background": "square", "website": null, "amenity_subtype": "public_bookcase", "icon": "public_bookcase" }, "geometry": { "type": "Point", "coordinates": [ 1.6157322, 50.7216475 ] } },
{ "type": "Feature", "properties": { "name": "Boulevard Daunou", "codetype": "BSB", "type": "delivrez bookcase", "desc": "Gare routière, près du Centre Commercial Liane", "color": "#00842b", "background": "square", "website": null, "amenity_subtype": "public_bookcase", "icon": "public_bookcase" }, "geometry": { "type": "Point", "coordinates": [ 1.6076263, 50.7197715 ] } },
{ "type": "Feature", "properties": { "name": "Promenade de la Liane, Rive Droite", "codetype": "BSB", "type": "delivrez bookcase", "desc": "A proximité d'un parc de jeux", "color": "#00842b", "background": "square", "website": null, "amenity_subtype": "public_bookcase", "icon": "public_bookcase" }, "geometry": { "type": "Point", "coordinates": [ 1.605076789855957, 50.719245721823313 ] } },
{ "type": "Feature", "properties": { "name": "Remparts, Porte Neuve", "codetype": "BSB", "type": "delivrez bookcase", "desc": "Dans la Vieille Ville, près de la Cathédrale", "color": "#00842b", "background": "square", "website": null, "amenity_subtype": "public_bookcase", "icon": "public_bookcase" }, "geometry": { "type": "Point", "coordinates": [ 1.616020202636719, 50.726377461989891 ] } },
{ "type": "Feature", "properties": { "name": "rue jean jaurès - parvis de la mairie", "codetype": "BSB", "type": "delivrez bookcase", "desc": "Prenez  Lisez  puis  Rapportezquand  vous  voulezcomme  vous  voulezAccessible  sans  abonnementni   inscription7  jours   sur   724  h  sur  24et  c est  gratuit !", "color": "#00842b", "background": "square", "website": null, "amenity_subtype": "public_bookcase", "icon": "public_bookcase" }, "geometry": { "type": "Point", "coordinates": [ 3.482832, 50.307778 ] } },
{ "type": "Feature", "properties": { "name": "rue jean jaurès", "codetype": "BSB", "type": "delivrez bookcase", "desc": "parvis de la mairie", "color": "#00842b", "background": "square", "website": null, "amenity_subtype": "public_bookcase", "icon": "public_bookcase" }, "geometry": { "type": "Point", "coordinates": [ 3.4816197, 50.3074903 ] } },
{ "type": "Feature", "properties": { "name": "Résidence Bayard", "codetype": "BSB", "type": "delivrez bookcase", "desc": "", "color": "#00842b", "background": "square", "website": null, "amenity_subtype": "public_bookcase", "icon": "public_bookcase" }, "geometry": { "type": "Point", "coordinates": [ 2.392782, 50.6406976 ] } },
{ "type": "Feature", "properties": { "name": "Place Philippe d Alsace", "codetype": "BSB", "type": "delivrez bookcase", "desc": "À côté de la gendarmerie", "color": "#00842b", "background": "square", "website": null, "amenity_subtype": "public_bookcase", "icon": "public_bookcase" }, "geometry": { "type": "Point", "coordinates": [ 2.405608, 50.632484 ] } },
{ "type": "Feature", "properties": { "name": "Ronie23@neuf.fr", "codetype": "BSB", "type": "delivrez bookcase", "desc": "À moissac bellevue 83 en bas du village", "color": "#00842b", "background": "square", "website": null, "amenity_subtype": "public_bookcase", "icon": "public_bookcase" }, "geometry": { "type": "Point", "coordinates": [ 2.5405902, 50.5221454 ] } },
{ "type": "Feature", "properties": { "name": "Gare de bethune", "codetype": "BSB", "type": "delivrez bookcase", "desc": "Plusieurs a bruay la buissiereGare de bethune", "color": "#00842b", "background": "square", "website": null, "amenity_subtype": "public_bookcase", "icon": "public_bookcase" }, "geometry": { "type": "Point", "coordinates": [ 2.5811131, 50.4944068 ] } },
{ "type": "Feature", "properties": { "name": "18, rue Jean-Jaurès", "codetype": "BSB", "type": "delivrez bookcase", "desc": "Boîte à livres mise à disposition à l entrée du château de Charmes Aisne", "color": "#00842b", "background": "square", "website": null, "amenity_subtype": "public_bookcase", "icon": "public_bookcase" }, "geometry": { "type": "Point", "coordinates": [ 3.382692, 49.6496818 ] } },
{ "type": "Feature", "properties": { "name": "rue Leon Jouhaux", "codetype": "BSB", "type": "delivrez bookcase", "desc": "Petit boite à lire devant la salle des fête et la bibliothèque.", "color": "#00842b", "background": "square", "website": null, "amenity_subtype": "public_bookcase", "icon": "public_bookcase" }, "geometry": { "type": "Point", "coordinates": [ 2.5342465, 49.30416 ] } },
{ "type": "Feature", "properties": { "name": "2 rue jules guesdes", "codetype": "BSB", "type": "delivrez bookcase", "desc": "Les commerces de proximité VIVAL installent des boites à livres devant tous leurs commerces. Félicitations, très belle réalisation.", "color": "#00842b", "background": "square", "website": null, "amenity_subtype": "public_bookcase", "icon": "public_bookcase" }, "geometry": { "type": "Point", "coordinates": [ 2.8516008, 50.4943662 ] } },
{ "type": "Feature", "properties": { "name": "Rue de l église", "codetype": "BSB", "type": "delivrez bookcase", "desc": "En face de la mairie", "color": "#00842b", "background": "square", "website": null, "amenity_subtype": "public_bookcase", "icon": "public_bookcase" }, "geometry": { "type": "Point", "coordinates": [ 2.3541402, 50.650384 ] } },
{ "type": "Feature", "properties": { "name": "Rue du brûle", "codetype": "BSB", "type": "delivrez bookcase", "desc": "Sur la salle des fêtes", "color": "#00842b", "background": "square", "website": null, "amenity_subtype": "public_bookcase", "icon": "public_bookcase" }, "geometry": { "type": "Point", "coordinates": [ 2.298719, 50.671011 ] } },
{ "type": "Feature", "properties": { "name": "Rue de l église", "codetype": "BSB", "type": "delivrez bookcase", "desc": "Se situe sur l école", "color": "#00842b", "background": "square", "website": null, "amenity_subtype": "public_bookcase", "icon": "public_bookcase" }, "geometry": { "type": "Point", "coordinates": [ 2.318633, 50.6789256 ] } },
{ "type": "Feature", "properties": { "name": "Impasse du Triest", "codetype": "BSB", "type": "delivrez bookcase", "desc": "La boîte se trouve au sein de la ferme Dehaudt, elle est accessible en fonction des horaires d ouverture", "color": "#00842b", "background": "square", "website": null, "amenity_subtype": "public_bookcase", "icon": "public_bookcase" }, "geometry": { "type": "Point", "coordinates": [ 3.1216135, 50.673389 ] } },
{ "type": "Feature", "properties": { "name": "Place pasteur", "codetype": "BSB", "type": "delivrez bookcase", "desc": "Boite bleue intégrée au mur de l école primaire Pasteur", "color": "#00842b", "background": "square", "website": null, "amenity_subtype": "public_bookcase", "icon": "public_bookcase" }, "geometry": { "type": "Point", "coordinates": [ 2.6383624, 50.5382911 ] } },
{ "type": "Feature", "properties": { "name": "Genvry", "codetype": "BSB", "type": "delivrez bookcase", "desc": "Cabine téléphonique Anglaise", "color": "#00842b", "background": "square", "website": null, "amenity_subtype": "public_bookcase", "icon": "public_bookcase" }, "geometry": { "type": "Point", "coordinates": [ 2.9905879, 49.611882 ] } },
{ "type": "Feature", "properties": { "name": "Place du marché", "codetype": "BSB", "type": "delivrez bookcase", "desc": "A proximité du cimetière, à côté de l?air de jeux", "color": "#00842b", "background": "square", "website": null, "amenity_subtype": "public_bookcase", "icon": "public_bookcase" }, "geometry": { "type": "Point", "coordinates": [ 3.183828, 50.6543546 ] } },
{ "type": "Feature", "properties": { "name": "Rue Racine", "codetype": "BSB", "type": "delivrez bookcase", "desc": "A côté du centre social", "color": "#00842b", "background": "square", "website": null, "amenity_subtype": "public_bookcase", "icon": "public_bookcase" }, "geometry": { "type": "Point", "coordinates": [ 3.174101, 50.669519 ] } },
{ "type": "Feature", "properties": { "name": "62 rue de Caulmont", "codetype": "BSB", "type": "delivrez bookcase", "desc": "", "color": "#00842b", "background": "square", "website": null, "amenity_subtype": "public_bookcase", "icon": "public_bookcase" }, "geometry": { "type": "Point", "coordinates": [ 2.7531891, 49.3749135 ] } },
{ "type": "Feature", "properties": { "name": "25 rue du docteur calmette", "codetype": "BSB", "type": "delivrez bookcase", "desc": "", "color": "#00842b", "background": "square", "website": null, "amenity_subtype": "public_bookcase", "icon": "public_bookcase" }, "geometry": { "type": "Point", "coordinates": [ 3.572091, 50.3080787 ] } },
{ "type": "Feature", "properties": { "name": "Square Plichon", "codetype": "BSB", "type": "delivrez bookcase", "desc": "Dans le square Plichon", "color": "#00842b", "background": "square", "website": null, "amenity_subtype": "public_bookcase", "icon": "public_bookcase" }, "geometry": { "type": "Point", "coordinates": [ 2.7327974, 50.7374657 ] } },
{ "type": "Feature", "properties": { "name": "Jardin âge", "codetype": "BSB", "type": "delivrez bookcase", "desc": "Dans le parc Dufour, pour aller au Crefo", "color": "#00842b", "background": "square", "website": null, "amenity_subtype": "public_bookcase", "icon": "public_bookcase" }, "geometry": { "type": "Point", "coordinates": [ 2.7371836, 50.7305473 ] } },
{ "type": "Feature", "properties": { "name": "1442 Rue d Armentières", "codetype": "BSB", "type": "delivrez bookcase", "desc": "Sur le mur du CCAS", "color": "#00842b", "background": "square", "website": null, "amenity_subtype": "public_bookcase", "icon": "public_bookcase" }, "geometry": { "type": "Point", "coordinates": [ 2.8564092, 50.6975784 ] } },
{ "type": "Feature", "properties": { "name": "rue de la mairie", "codetype": "BSB", "type": "delivrez bookcase", "desc": "", "color": "#00842b", "background": "square", "website": null, "amenity_subtype": "public_bookcase", "icon": "public_bookcase" }, "geometry": { "type": "Point", "coordinates": [ 1.9601472, 50.8247583 ] } },
{ "type": "Feature", "properties": { "name": "9 Rue de Tourcoing", "codetype": "BSB", "type": "delivrez bookcase", "desc": "Devant la Bibliothèque pour Tous", "color": "#00842b", "background": "square", "website": null, "amenity_subtype": "public_bookcase", "icon": "public_bookcase" }, "geometry": { "type": "Point", "coordinates": [ 3.1520837, 50.7511263 ] } },
{ "type": "Feature", "properties": { "name": "Gare de Clermont de l'oise", "codetype": "BSB", "type": "delivrez bookcase", "desc": "Boîte à lire située devant l'entrée principale de la gare de Clermont sur l'oise.", "color": "#00842b", "background": "square", "website": null, "amenity_subtype": "public_bookcase", "icon": "public_bookcase" }, "geometry": { "type": "Point", "coordinates": [ 2.417399883270264, 49.385026846508481 ] } },
{ "type": "Feature", "properties": { "name": "Ferme du Bocquiau", "codetype": "BSB", "type": "delivrez bookcase", "desc": "", "color": "#00842b", "background": "square", "website": null, "amenity_subtype": "public_bookcase", "icon": "public_bookcase" }, "geometry": { "type": "Point", "coordinates": [ 2.9896947, 50.6144529 ] } },
{ "type": "Feature", "properties": { "name": "Place Pierre Semard", "codetype": "BSB", "type": "delivrez bookcase", "desc": "", "color": "#00842b", "background": "square", "website": null, "amenity_subtype": "public_bookcase", "icon": "public_bookcase" }, "geometry": { "type": "Point", "coordinates": [ 3.6295831, 49.5736967 ] } },
{ "type": "Feature", "properties": { "name": "205 bis rue du Faubourg de Roubaix", "codetype": "BSB", "type": "delivrez bookcase", "desc": "Au niveau de la médiathèque de quartier !", "color": "#00842b", "background": "square", "website": null, "amenity_subtype": "public_bookcase", "icon": "public_bookcase" }, "geometry": { "type": "Point", "coordinates": [ 3.088177442550659, 50.642364668314471 ] } },
{ "type": "Feature", "properties": { "name": "56 rue Albert Bailly", "codetype": "BSB", "type": "delivrez bookcase", "desc": "La boîte se trouve à l'entrée de le Médiathèque. Elle est accessible aux horaires d'ouverture de la médiathèque.", "color": "#00842b", "background": "square", "website": null, "amenity_subtype": "public_bookcase", "icon": "public_bookcase" }, "geometry": { "type": "Point", "coordinates": [ 3.093338012695313, 50.678376915975647 ] } },