<?xml version="1.0"?>
<gpx version="1.1" creator="GDAL 3.4.3" xmlns:xsi="http://www.w3.org/2001/XMLSchema-instance" xmlns:osmand="https://osmand.net" xmlns="http://www.topografix.com/GPX/1/1" xsi:schemaLocation="http://www.topografix.com/GPX/1/1 http://www.topografix.com/GPX/1/1/gpx.xsd">
<metadata><bounds minlat="43.026169400000001" minlon="4.626031900000000" maxlat="45.032642299999999" maxlon="7.512260200000000"/></metadata>                    
<wpt lat="43.1863202" lon="5.621158">
  <name>Boulevard Beau Rivage</name>
  <desc>Dans une vieille cabine téléphonique</desc>
  <type>delivrez bookcase</type>
  <extensions>
    <osmand:codetype>BSB</osmand:codetype>
    <osmand:color>#00842b</osmand:color>
    <osmand:background>square</osmand:background>
    <osmand:amenity_subtype>public_bookcase</osmand:amenity_subtype>
    <osmand:icon>public_bookcase</osmand:icon>
  </extensions>
</wpt>
<wpt lat="43.5804925" lon="5.4709997">
  <name>Avenue des Logissons</name>
  <desc>Il y a deux boîtes à livres, l'une en face de l'autre, au niveau de l'arrêt de bus des Logissons</desc>
  <type>delivrez bookcase</type>
  <extensions>
    <osmand:codetype>BSB</osmand:codetype>
    <osmand:color>#00842b</osmand:color>
    <osmand:background>square</osmand:background>
    <osmand:amenity_subtype>public_bookcase</osmand:amenity_subtype>
    <osmand:icon>public_bookcase</osmand:icon>
  </extensions>
</wpt>
<wpt lat="43.60738" lon="5.7586067">
  <name>Boîte à livres pour enfants</name>
  <desc>_</desc>
  <type>delivrez bookcase</type>
  <extensions>
    <osmand:codetype>BSB</osmand:codetype>
    <osmand:color>#00842b</osmand:color>
    <osmand:background>square</osmand:background>
    <osmand:website>https://delivrez.fr/public/posts/img.63b9803d61605.png</osmand:website>
    <osmand:amenity_subtype>public_bookcase</osmand:amenity_subtype>
    <osmand:icon>public_bookcase</osmand:icon>
  </extensions>
</wpt>
<wpt lat="43.60512" lon="5.7565003">
  <name>Chemin de la Garde</name>
  <desc>A côté du portail du service animation jeunesse</desc>
  <type>delivrez bookcase</type>
  <extensions>
    <osmand:codetype>BSB</osmand:codetype>
    <osmand:color>#00842b</osmand:color>
    <osmand:background>square</osmand:background>
    <osmand:amenity_subtype>public_bookcase</osmand:amenity_subtype>
    <osmand:icon>public_bookcase</osmand:icon>
  </extensions>
</wpt>
<wpt lat="43.6061908" lon="5.7553975">
  <name>Rue Centrale</name>
  <desc>A côté du bénitier de notre Dame</desc>
  <type>delivrez bookcase</type>
  <extensions>
    <osmand:codetype>BSB</osmand:codetype>
    <osmand:color>#00842b</osmand:color>
    <osmand:background>square</osmand:background>
    <osmand:amenity_subtype>public_bookcase</osmand:amenity_subtype>
    <osmand:icon>public_bookcase</osmand:icon>
  </extensions>
</wpt>
<wpt lat="43.6067627" lon="5.7559923">
  <name>Place Saint-Laurent</name>
  <desc>Au milieu de la place Saint Laurent</desc>
  <type>delivrez bookcase</type>
  <extensions>
    <osmand:codetype>BSB</osmand:codetype>
    <osmand:color>#00842b</osmand:color>
    <osmand:background>square</osmand:background>
    <osmand:amenity_subtype>public_bookcase</osmand:amenity_subtype>
    <osmand:icon>public_bookcase</osmand:icon>
  </extensions>
</wpt>
<wpt lat="43.5523915" lon="5.19437">
  <name>mariemfr86@gmail.com</name>
  <desc>_</desc>
  <type>delivrez bookcase</type>
  <extensions>
    <osmand:codetype>BSB</osmand:codetype>
    <osmand:color>#00842b</osmand:color>
    <osmand:background>square</osmand:background>
    <osmand:website>https://delivrez.fr/public/posts/img.63b046b553ee4.png</osmand:website>
    <osmand:amenity_subtype>public_bookcase</osmand:amenity_subtype>
    <osmand:icon>public_bookcase</osmand:icon>
  </extensions>
</wpt>
<wpt lat="43.5283378" lon="5.2586233">
  <name>mariemfr86@gmail.com</name>
  <desc>_</desc>
  <type>delivrez bookcase</type>
  <extensions>
    <osmand:codetype>BSB</osmand:codetype>
    <osmand:color>#00842b</osmand:color>
    <osmand:background>square</osmand:background>
    <osmand:amenity_subtype>public_bookcase</osmand:amenity_subtype>
    <osmand:icon>public_bookcase</osmand:icon>
  </extensions>
</wpt>
<wpt lat="43.5521478" lon="5.1946906">
  <name>mariemfr86@gmail.com</name>
  <desc>_</desc>
  <type>delivrez bookcase</type>
  <extensions>
    <osmand:codetype>BSB</osmand:codetype>
    <osmand:color>#00842b</osmand:color>
    <osmand:background>square</osmand:background>
    <osmand:amenity_subtype>public_bookcase</osmand:amenity_subtype>
    <osmand:icon>public_bookcase</osmand:icon>
  </extensions>
</wpt>
<wpt lat="43.4648117" lon="4.9397028">
  <name>Avenue Louise Michel</name>
  <desc>Devant l'Intermarché</desc>
  <type>delivrez bookcase</type>
  <extensions>
    <osmand:codetype>BSB</osmand:codetype>
    <osmand:color>#00842b</osmand:color>
    <osmand:background>square</osmand:background>
    <osmand:amenity_subtype>public_bookcase</osmand:amenity_subtype>
    <osmand:icon>public_bookcase</osmand:icon>
  </extensions>
</wpt>
<wpt lat="43.4297131" lon="4.9442168">
  <name>Avenue du Sablé d'Or</name>
  <desc>_</desc>
  <type>delivrez bookcase</type>
  <extensions>
    <osmand:codetype>BSB</osmand:codetype>
    <osmand:color>#00842b</osmand:color>
    <osmand:background>square</osmand:background>
    <osmand:amenity_subtype>public_bookcase</osmand:amenity_subtype>
    <osmand:icon>public_bookcase</osmand:icon>
  </extensions>
</wpt>
<wpt lat="43.6363214" lon="5.0883024">
  <name>mariemfr86@gmail.com</name>
  <desc>skate parc</desc>
  <type>delivrez bookcase</type>
  <extensions>
    <osmand:codetype>BSB</osmand:codetype>
    <osmand:color>#00842b</osmand:color>
    <osmand:background>square</osmand:background>
    <osmand:amenity_subtype>public_bookcase</osmand:amenity_subtype>
    <osmand:icon>public_bookcase</osmand:icon>
  </extensions>
</wpt>
<wpt lat="44.0829329" lon="6.201867">
  <name>roosegregory@gmail.com</name>
  <desc>_</desc>
  <type>delivrez bookcase</type>
  <extensions>
    <osmand:codetype>BSB</osmand:codetype>
    <osmand:color>#00842b</osmand:color>
    <osmand:background>square</osmand:background>
    <osmand:website>https://delivrez.fr/public/posts/img.6343f99eeb2d4.png</osmand:website>
    <osmand:amenity_subtype>public_bookcase</osmand:amenity_subtype>
    <osmand:icon>public_bookcase</osmand:icon>
  </extensions>
</wpt>
<wpt lat="43.7009418" lon="7.2954914">
  <name>Boulevard du Mont-Boron</name>
  <desc>_</desc>
  <type>delivrez bookcase</type>
  <extensions>
    <osmand:codetype>BSB</osmand:codetype>
    <osmand:color>#00842b</osmand:color>
    <osmand:background>square</osmand:background>
    <osmand:amenity_subtype>public_bookcase</osmand:amenity_subtype>
    <osmand:icon>public_bookcase</osmand:icon>
  </extensions>
</wpt>
<wpt lat="44.555418" lon="6.0779175">
  <name>Boulevard Georges Pompidou</name>
  <desc>_</desc>
  <type>delivrez bookcase</type>
  <extensions>
    <osmand:codetype>BSB</osmand:codetype>
    <osmand:color>#00842b</osmand:color>
    <osmand:background>square</osmand:background>
    <osmand:amenity_subtype>public_bookcase</osmand:amenity_subtype>
    <osmand:icon>public_bookcase</osmand:icon>
  </extensions>
</wpt>
<wpt lat="43.5803377" lon="5.4710303">
  <name>Avenue des Logissons</name>
  <desc>_</desc>
  <type>delivrez bookcase</type>
  <extensions>
    <osmand:codetype>BSB</osmand:codetype>
    <osmand:color>#00842b</osmand:color>
    <osmand:background>square</osmand:background>
    <osmand:amenity_subtype>public_bookcase</osmand:amenity_subtype>
    <osmand:icon>public_bookcase</osmand:icon>
  </extensions>
</wpt>
<wpt lat="44.4019966" lon="6.5110394">
  <name>Quartier des Auches</name>
  <desc>_</desc>
  <type>delivrez bookcase</type>
  <extensions>
    <osmand:codetype>BSB</osmand:codetype>
    <osmand:color>#00842b</osmand:color>
    <osmand:background>square</osmand:background>
    <osmand:amenity_subtype>public_bookcase</osmand:amenity_subtype>
    <osmand:icon>public_bookcase</osmand:icon>
  </extensions>
</wpt>
<wpt lat="43.6616164" lon="4.6525579">
  <name>boîte à livre</name>
  <desc>_</desc>
  <type>delivrez bookcase</type>
  <extensions>
    <osmand:codetype>BSB</osmand:codetype>
    <osmand:color>#00842b</osmand:color>
    <osmand:background>square</osmand:background>
    <osmand:website>https://delivrez.fr/public/posts/img.632593ad25a5c.png</osmand:website>
    <osmand:amenity_subtype>public_bookcase</osmand:amenity_subtype>
    <osmand:icon>public_bookcase</osmand:icon>
  </extensions>
</wpt>
<wpt lat="43.1274614" lon="5.9427477">
  <name>Avenue Louis Bozzo</name>
  <desc>_</desc>
  <type>delivrez bookcase</type>
  <extensions>
    <osmand:codetype>BSB</osmand:codetype>
    <osmand:color>#00842b</osmand:color>
    <osmand:background>square</osmand:background>
    <osmand:amenity_subtype>public_bookcase</osmand:amenity_subtype>
    <osmand:icon>public_bookcase</osmand:icon>
  </extensions>
</wpt>
<wpt lat="43.7708884" lon="7.4940063">
  <name>Esplanade du Président Georges Pompidou</name>
  <desc>_</desc>
  <type>delivrez bookcase</type>
  <extensions>
    <osmand:codetype>BSB</osmand:codetype>
    <osmand:color>#00842b</osmand:color>
    <osmand:background>square</osmand:background>
    <osmand:amenity_subtype>public_bookcase</osmand:amenity_subtype>
    <osmand:icon>public_bookcase</osmand:icon>
  </extensions>
</wpt>
<wpt lat="43.7825516" lon="7.5122602">
  <name>Promenade de la Mer</name>
  <desc>_</desc>
  <type>delivrez bookcase</type>
  <extensions>
    <osmand:codetype>BSB</osmand:codetype>
    <osmand:color>#00842b</osmand:color>
    <osmand:background>square</osmand:background>
    <osmand:amenity_subtype>public_bookcase</osmand:amenity_subtype>
    <osmand:icon>public_bookcase</osmand:icon>
  </extensions>
</wpt>
<wpt lat="43.7849411" lon="7.4948657">
  <name>Promenade Val du Carei</name>
  <desc>_</desc>
  <type>delivrez bookcase</type>
  <extensions>
    <osmand:codetype>BSB</osmand:codetype>
    <osmand:color>#00842b</osmand:color>
    <osmand:background>square</osmand:background>
    <osmand:amenity_subtype>public_bookcase</osmand:amenity_subtype>
    <osmand:icon>public_bookcase</osmand:icon>
  </extensions>
</wpt>
<wpt lat="44.0919822" lon="6.2378218">
  <name>Avenue du Docteur Romieu</name>
  <desc>_</desc>
  <type>delivrez bookcase</type>
  <extensions>
    <osmand:codetype>BSB</osmand:codetype>
    <osmand:color>#00842b</osmand:color>
    <osmand:background>square</osmand:background>
    <osmand:website>https://delivrez.fr/public/posts/img.6320904f936bb.png</osmand:website>
    <osmand:amenity_subtype>public_bookcase</osmand:amenity_subtype>
    <osmand:icon>public_bookcase</osmand:icon>
  </extensions>
</wpt>
<wpt lat="43.7312145" lon="7.423851">
  <name>Rue Princesse Marie de Lorraine</name>
  <desc>_</desc>
  <type>delivrez bookcase</type>
  <extensions>
    <osmand:codetype>BSB</osmand:codetype>
    <osmand:color>#00842b</osmand:color>
    <osmand:background>square</osmand:background>
    <osmand:amenity_subtype>public_bookcase</osmand:amenity_subtype>
    <osmand:icon>public_bookcase</osmand:icon>
  </extensions>
</wpt>
<wpt lat="43.7317236" lon="7.3424752">
  <name>Col d'Èze</name>
  <desc>_</desc>
  <type>delivrez bookcase</type>
  <extensions>
    <osmand:codetype>BSB</osmand:codetype>
    <osmand:color>#00842b</osmand:color>
    <osmand:background>square</osmand:background>
    <osmand:amenity_subtype>public_bookcase</osmand:amenity_subtype>
    <osmand:icon>public_bookcase</osmand:icon>
  </extensions>
</wpt>
<wpt lat="43.7224262" lon="7.3568108">
  <name>Avenue de la Liberté</name>
  <desc>hauteur gare</desc>
  <type>delivrez bookcase</type>
  <extensions>
    <osmand:codetype>BSB</osmand:codetype>
    <osmand:color>#00842b</osmand:color>
    <osmand:background>square</osmand:background>
    <osmand:website>https://delivrez.fr/public/posts/img.631dbe4b4c1fa.png</osmand:website>
    <osmand:amenity_subtype>public_bookcase</osmand:amenity_subtype>
    <osmand:icon>public_bookcase</osmand:icon>
  </extensions>
</wpt>
<wpt lat="43.7493016" lon="7.2791752">
  <name>Place du Four</name>
  <desc>_</desc>
  <type>delivrez bookcase</type>
  <extensions>
    <osmand:codetype>BSB</osmand:codetype>
    <osmand:color>#00842b</osmand:color>
    <osmand:background>square</osmand:background>
    <osmand:website>https://delivrez.fr/public/posts/img.631d8d1bc030b.png</osmand:website>
    <osmand:amenity_subtype>public_bookcase</osmand:amenity_subtype>
    <osmand:icon>public_bookcase</osmand:icon>
  </extensions>
</wpt>
<wpt lat="43.7046086" lon="7.3318246">
  <name>Rue Alexandre Ier de Yougoslavie</name>
  <desc>près du parc d enfants</desc>
  <type>delivrez bookcase</type>
  <extensions>
    <osmand:codetype>BSB</osmand:codetype>
    <osmand:color>#00842b</osmand:color>
    <osmand:background>square</osmand:background>
    <osmand:amenity_subtype>public_bookcase</osmand:amenity_subtype>
    <osmand:icon>public_bookcase</osmand:icon>
  </extensions>
</wpt>
<wpt lat="43.1147645" lon="5.8112848">
  <name>Boulevard des Écoles</name>
  <desc>_</desc>
  <type>delivrez bookcase</type>
  <extensions>
    <osmand:codetype>BSB</osmand:codetype>
    <osmand:color>#00842b</osmand:color>
    <osmand:background>square</osmand:background>
    <osmand:amenity_subtype>public_bookcase</osmand:amenity_subtype>
    <osmand:icon>public_bookcase</osmand:icon>
  </extensions>
</wpt>
<wpt lat="44.0590236" lon="5.0438398">
  <name>Allée des Tilleuls</name>
  <desc>dans le jardin de la ludothèque, très belle boîte à 4 pants. Merci!!</desc>
  <type>delivrez bookcase</type>
  <extensions>
    <osmand:codetype>BSB</osmand:codetype>
    <osmand:color>#00842b</osmand:color>
    <osmand:background>square</osmand:background>
    <osmand:amenity_subtype>public_bookcase</osmand:amenity_subtype>
    <osmand:icon>public_bookcase</osmand:icon>
  </extensions>
</wpt>
<wpt lat="43.6365388" lon="6.643211">
  <name>Rue du Valat</name>
  <desc>étagère sous le porche a côté de la mairie</desc>
  <type>delivrez bookcase</type>
  <extensions>
    <osmand:codetype>BSB</osmand:codetype>
    <osmand:color>#00842b</osmand:color>
    <osmand:background>square</osmand:background>
    <osmand:amenity_subtype>public_bookcase</osmand:amenity_subtype>
    <osmand:icon>public_bookcase</osmand:icon>
  </extensions>
</wpt>
<wpt lat="43.7555732" lon="5.2068281">
  <name>Avenue des Brullières</name>
  <desc>_</desc>
  <type>delivrez bookcase</type>
  <extensions>
    <osmand:codetype>BSB</osmand:codetype>
    <osmand:color>#00842b</osmand:color>
    <osmand:background>square</osmand:background>
    <osmand:amenity_subtype>public_bookcase</osmand:amenity_subtype>
    <osmand:icon>public_bookcase</osmand:icon>
  </extensions>
</wpt>
<wpt lat="44.4573954" lon="6.2943756">
  <name>sous le préau sur la table de pique nique</name>
  <desc>_</desc>
  <type>delivrez bookcase</type>
  <extensions>
    <osmand:codetype>BSB</osmand:codetype>
    <osmand:color>#00842b</osmand:color>
    <osmand:background>square</osmand:background>
    <osmand:amenity_subtype>public_bookcase</osmand:amenity_subtype>
    <osmand:icon>public_bookcase</osmand:icon>
  </extensions>
</wpt>
<wpt lat="44.0874539" lon="6.2229993">
  <name>Place Félix Escanglon</name>
  <desc>parking à proximité immédiate</desc>
  <type>delivrez bookcase</type>
  <extensions>
    <osmand:codetype>BSB</osmand:codetype>
    <osmand:color>#00842b</osmand:color>
    <osmand:background>square</osmand:background>
    <osmand:website>https://delivrez.fr/public/posts/img.62bb3242bb6d7.png</osmand:website>
    <osmand:amenity_subtype>public_bookcase</osmand:amenity_subtype>
    <osmand:icon>public_bookcase</osmand:icon>
  </extensions>
</wpt>
<wpt lat="43.5973245" lon="7.063082">
  <name>parc à jeux méditerranée</name>
  <desc>dans la résidence méditerranée</desc>
  <type>delivrez bookcase</type>
  <extensions>
    <osmand:codetype>BSB</osmand:codetype>
    <osmand:color>#00842b</osmand:color>
    <osmand:background>square</osmand:background>
    <osmand:amenity_subtype>public_bookcase</osmand:amenity_subtype>
    <osmand:icon>public_bookcase</osmand:icon>
  </extensions>
</wpt>
<wpt lat="43.6269754" lon="6.2237276">
  <name>Place Frédéric Mistral</name>
  <desc>_</desc>
  <type>delivrez bookcase</type>
  <extensions>
    <osmand:codetype>BSB</osmand:codetype>
    <osmand:color>#00842b</osmand:color>
    <osmand:background>square</osmand:background>
    <osmand:amenity_subtype>public_bookcase</osmand:amenity_subtype>
    <osmand:icon>public_bookcase</osmand:icon>
  </extensions>
</wpt>
<wpt lat="43.7724433" lon="6.2429559">
  <name>près de la mairie/école</name>
  <desc>_</desc>
  <type>delivrez bookcase</type>
  <extensions>
    <osmand:codetype>BSB</osmand:codetype>
    <osmand:color>#00842b</osmand:color>
    <osmand:background>square</osmand:background>
    <osmand:amenity_subtype>public_bookcase</osmand:amenity_subtype>
    <osmand:icon>public_bookcase</osmand:icon>
  </extensions>
</wpt>
<wpt lat="44.2416331" lon="5.0733761">
  <name>Place du 11 Novembre</name>
  <desc>Devant La Poste</desc>
  <type>delivrez bookcase</type>
  <extensions>
    <osmand:codetype>BSB</osmand:codetype>
    <osmand:color>#00842b</osmand:color>
    <osmand:background>square</osmand:background>
    <osmand:amenity_subtype>public_bookcase</osmand:amenity_subtype>
    <osmand:icon>public_bookcase</osmand:icon>
  </extensions>
</wpt>
<wpt lat="44.0508092" lon="6.1441106">
  <name>roosegregory@gmail.com</name>
  <desc>_</desc>
  <type>delivrez bookcase</type>
  <extensions>
    <osmand:codetype>BSB</osmand:codetype>
    <osmand:color>#00842b</osmand:color>
    <osmand:background>square</osmand:background>
    <osmand:website>https://delivrez.fr/public/posts/img.62bb3908c75a9.png</osmand:website>
    <osmand:amenity_subtype>public_bookcase</osmand:amenity_subtype>
    <osmand:icon>public_bookcase</osmand:icon>
  </extensions>
</wpt>
<wpt lat="44.3937949" lon="6.5724565">
  <name>Lotissement le Clôt</name>
  <desc>meuble dans le hall de la mairie</desc>
  <type>delivrez bookcase</type>
  <extensions>
    <osmand:codetype>BSB</osmand:codetype>
    <osmand:color>#00842b</osmand:color>
    <osmand:background>square</osmand:background>
    <osmand:amenity_subtype>public_bookcase</osmand:amenity_subtype>
    <osmand:icon>public_bookcase</osmand:icon>
  </extensions>
</wpt>
<wpt lat="44.1898871" lon="5.9458456">
  <name>dans le parc contre un arbre</name>
  <desc>_</desc>
  <type>delivrez bookcase</type>
  <extensions>
    <osmand:codetype>BSB</osmand:codetype>
    <osmand:color>#00842b</osmand:color>
    <osmand:background>square</osmand:background>
    <osmand:amenity_subtype>public_bookcase</osmand:amenity_subtype>
    <osmand:icon>public_bookcase</osmand:icon>
  </extensions>
</wpt>
<wpt lat="44.2620873" lon="5.7417121">
  <name>Chemin du Serre</name>
  <desc>ancienne cabine téléphonique</desc>
  <type>delivrez bookcase</type>
  <extensions>
    <osmand:codetype>BSB</osmand:codetype>
    <osmand:color>#00842b</osmand:color>
    <osmand:background>square</osmand:background>
    <osmand:amenity_subtype>public_bookcase</osmand:amenity_subtype>
    <osmand:icon>public_bookcase</osmand:icon>
  </extensions>
</wpt>
<wpt lat="44.8206503" lon="6.1658851">
  <name>Rue de Pétarel</name>
  <desc>dans une ancienne cabine téléphonique</desc>
  <type>delivrez bookcase</type>
  <extensions>
    <osmand:codetype>BSB</osmand:codetype>
    <osmand:color>#00842b</osmand:color>
    <osmand:background>square</osmand:background>
    <osmand:amenity_subtype>public_bookcase</osmand:amenity_subtype>
    <osmand:icon>public_bookcase</osmand:icon>
  </extensions>
</wpt>
<wpt lat="43.565911" lon="6.5017706">
  <name>Les Escabrolles</name>
  <desc>a côté de conteneurs</desc>
  <type>delivrez bookcase</type>
  <extensions>
    <osmand:codetype>BSB</osmand:codetype>
    <osmand:color>#00842b</osmand:color>
    <osmand:background>square</osmand:background>
    <osmand:amenity_subtype>public_bookcase</osmand:amenity_subtype>
    <osmand:icon>public_bookcase</osmand:icon>
  </extensions>
</wpt>
<wpt lat="43.9251276" lon="6.1241869">
  <name>place st Nicolas</name>
  <desc>a côté de l'eglise</desc>
  <type>delivrez bookcase</type>
  <extensions>
    <osmand:codetype>BSB</osmand:codetype>
    <osmand:color>#00842b</osmand:color>
    <osmand:background>square</osmand:background>
    <osmand:website>https://delivrez.fr/public/posts/img.61febb045fe57.png</osmand:website>
    <osmand:amenity_subtype>public_bookcase</osmand:amenity_subtype>
    <osmand:icon>public_bookcase</osmand:icon>
  </extensions>
</wpt>
<wpt lat="44.461707" lon="6.0551058">
  <name>-</name>
  <desc>_</desc>
  <type>delivrez bookcase</type>
  <extensions>
    <osmand:codetype>BSB</osmand:codetype>
    <osmand:color>#00842b</osmand:color>
    <osmand:background>square</osmand:background>
    <osmand:amenity_subtype>public_bookcase</osmand:amenity_subtype>
    <osmand:icon>public_bookcase</osmand:icon>
  </extensions>
</wpt>
<wpt lat="43.9314182" lon="6.6650774">
  <name>Route de Grenoble</name>
  <desc>a l'ancien lavoir</desc>
  <type>delivrez bookcase</type>
  <extensions>
    <osmand:codetype>BSB</osmand:codetype>
    <osmand:color>#00842b</osmand:color>
    <osmand:background>square</osmand:background>
    <osmand:amenity_subtype>public_bookcase</osmand:amenity_subtype>
    <osmand:icon>public_bookcase</osmand:icon>
  </extensions>
</wpt>
<wpt lat="43.1292159" lon="5.8561439">
  <name>La Castellane</name>
  <desc>Dans le parc, près de l accès au stade.</desc>
  <type>delivrez bookcase</type>
  <extensions>
    <osmand:codetype>BSB</osmand:codetype>
    <osmand:color>#00842b</osmand:color>
    <osmand:background>square</osmand:background>
    <osmand:amenity_subtype>public_bookcase</osmand:amenity_subtype>
    <osmand:icon>public_bookcase</osmand:icon>
  </extensions>
</wpt>
<wpt lat="43.6663071" lon="7.1849191">
  <name>Avenue Pierre Amadieu</name>
  <desc>Arrêt de bus Treize Dames</desc>
  <type>delivrez bookcase</type>
  <extensions>
    <osmand:codetype>BSB</osmand:codetype>
    <osmand:color>#00842b</osmand:color>
    <osmand:background>square</osmand:background>
    <osmand:amenity_subtype>public_bookcase</osmand:amenity_subtype>
    <osmand:icon>public_bookcase</osmand:icon>
  </extensions>
</wpt>
<wpt lat="43.0774644" lon="5.8042464">
  <name>Rue de la Citadelle</name>
  <desc>A côté du magasin Optic du Brusc</desc>
  <type>delivrez bookcase</type>
  <extensions>
    <osmand:codetype>BSB</osmand:codetype>
    <osmand:color>#00842b</osmand:color>
    <osmand:background>square</osmand:background>
    <osmand:amenity_subtype>public_bookcase</osmand:amenity_subtype>
    <osmand:icon>public_bookcase</osmand:icon>
  </extensions>
</wpt>
<wpt lat="43.6687281" lon="7.217603">
  <name>Parc Phoenix</name>
  <desc>A côté du snack</desc>
  <type>delivrez bookcase</type>
  <extensions>
    <osmand:codetype>BSB</osmand:codetype>
    <osmand:color>#00842b</osmand:color>
    <osmand:background>square</osmand:background>
    <osmand:amenity_subtype>public_bookcase</osmand:amenity_subtype>
    <osmand:icon>public_bookcase</osmand:icon>
  </extensions>
</wpt>
<wpt lat="43.8006281" lon="7.4616403">
  <name>Rue des Comtes Léotardi</name>
  <desc>_</desc>
  <type>delivrez bookcase</type>
  <extensions>
    <osmand:codetype>BSB</osmand:codetype>
    <osmand:color>#00842b</osmand:color>
    <osmand:background>square</osmand:background>
    <osmand:amenity_subtype>public_bookcase</osmand:amenity_subtype>
    <osmand:icon>public_bookcase</osmand:icon>
  </extensions>
</wpt>
<wpt lat="44.9867293" lon="6.4822711">
  <name>Rue du Lauzet</name>
  <desc>sous le lavoir</desc>
  <type>delivrez bookcase</type>
  <extensions>
    <osmand:codetype>BSB</osmand:codetype>
    <osmand:color>#00842b</osmand:color>
    <osmand:background>square</osmand:background>
    <osmand:amenity_subtype>public_bookcase</osmand:amenity_subtype>
    <osmand:icon>public_bookcase</osmand:icon>
  </extensions>
</wpt>
<wpt lat="44.3938389" lon="6.5725066">
  <name>Lotissement le Clôt</name>
  <desc>commode sous le porche de l'entrée de la mairie</desc>
  <type>delivrez bookcase</type>
  <extensions>
    <osmand:codetype>BSB</osmand:codetype>
    <osmand:color>#00842b</osmand:color>
    <osmand:background>square</osmand:background>
    <osmand:amenity_subtype>public_bookcase</osmand:amenity_subtype>
    <osmand:icon>public_bookcase</osmand:icon>
  </extensions>
</wpt>
<wpt lat="43.1054781" lon="6.1286182">
  <name>Traverse des Nartettes</name>
  <desc>boite au niveau abribus</desc>
  <type>delivrez bookcase</type>
  <extensions>
    <osmand:codetype>BSB</osmand:codetype>
    <osmand:color>#00842b</osmand:color>
    <osmand:background>square</osmand:background>
    <osmand:amenity_subtype>public_bookcase</osmand:amenity_subtype>
    <osmand:icon>public_bookcase</osmand:icon>
  </extensions>
</wpt>
<wpt lat="43.1085477" lon="6.1254474">
  <name>Avenue Pierre Renaudel</name>
  <desc>gare sncf</desc>
  <type>delivrez bookcase</type>
  <extensions>
    <osmand:codetype>BSB</osmand:codetype>
    <osmand:color>#00842b</osmand:color>
    <osmand:background>square</osmand:background>
    <osmand:amenity_subtype>public_bookcase</osmand:amenity_subtype>
    <osmand:icon>public_bookcase</osmand:icon>
  </extensions>
</wpt>
<wpt lat="43.9523336" lon="6.1240758">
  <name>st jeannet</name>
  <desc>a côté du monument aux morts</desc>
  <type>delivrez bookcase</type>
  <extensions>
    <osmand:codetype>BSB</osmand:codetype>
    <osmand:color>#00842b</osmand:color>
    <osmand:background>square</osmand:background>
    <osmand:amenity_subtype>public_bookcase</osmand:amenity_subtype>
    <osmand:icon>public_bookcase</osmand:icon>
  </extensions>
</wpt>
<wpt lat="43.6496864" lon="6.7929233">
  <name>Place Général de Gaulle</name>
  <desc>sous l'arche</desc>
  <type>delivrez bookcase</type>
  <extensions>
    <osmand:codetype>BSB</osmand:codetype>
    <osmand:color>#00842b</osmand:color>
    <osmand:background>square</osmand:background>
    <osmand:amenity_subtype>public_bookcase</osmand:amenity_subtype>
    <osmand:icon>public_bookcase</osmand:icon>
  </extensions>
</wpt>
<wpt lat="44.444837" lon="6.3718311">
  <name>Le Village</name>
  <desc>_</desc>
  <type>delivrez bookcase</type>
  <extensions>
    <osmand:codetype>BSB</osmand:codetype>
    <osmand:color>#00842b</osmand:color>
    <osmand:background>square</osmand:background>
    <osmand:amenity_subtype>public_bookcase</osmand:amenity_subtype>
    <osmand:icon>public_bookcase</osmand:icon>
  </extensions>
</wpt>
<wpt lat="44.5418544" lon="5.9906669">
  <name>Champ la Saume</name>
  <desc>_</desc>
  <type>delivrez bookcase</type>
  <extensions>
    <osmand:codetype>BSB</osmand:codetype>
    <osmand:color>#00842b</osmand:color>
    <osmand:background>square</osmand:background>
    <osmand:amenity_subtype>public_bookcase</osmand:amenity_subtype>
    <osmand:icon>public_bookcase</osmand:icon>
  </extensions>
</wpt>
<wpt lat="44.392221" lon="6.6283055">
  <name>Chemin de Malpasset</name>
  <desc>_</desc>
  <type>delivrez bookcase</type>
  <extensions>
    <osmand:codetype>BSB</osmand:codetype>
    <osmand:color>#00842b</osmand:color>
    <osmand:background>square</osmand:background>
    <osmand:amenity_subtype>public_bookcase</osmand:amenity_subtype>
    <osmand:icon>public_bookcase</osmand:icon>
  </extensions>
</wpt>
<wpt lat="43.9445375" lon="4.8059091">
  <name>office du tourisme Avignon</name>
  <desc>Dans le parc derrière l'Office du tourisme</desc>
  <type>delivrez bookcase</type>
  <extensions>
    <osmand:codetype>BSB</osmand:codetype>
    <osmand:color>#00842b</osmand:color>
    <osmand:background>square</osmand:background>
    <osmand:amenity_subtype>public_bookcase</osmand:amenity_subtype>
    <osmand:icon>public_bookcase</osmand:icon>
  </extensions>
</wpt>
<wpt lat="43.5930126" lon="6.5380028">
  <name>place de la paix</name>
  <desc>_</desc>
  <type>delivrez bookcase</type>
  <extensions>
    <osmand:codetype>BSB</osmand:codetype>
    <osmand:color>#00842b</osmand:color>
    <osmand:background>square</osmand:background>
    <osmand:amenity_subtype>public_bookcase</osmand:amenity_subtype>
    <osmand:icon>public_bookcase</osmand:icon>
  </extensions>
</wpt>
<wpt lat="44.5419487" lon="5.9518617">
  <name>Les Lagiers</name>
  <desc>_</desc>
  <type>delivrez bookcase</type>
  <extensions>
    <osmand:codetype>BSB</osmand:codetype>
    <osmand:color>#00842b</osmand:color>
    <osmand:background>square</osmand:background>
    <osmand:amenity_subtype>public_bookcase</osmand:amenity_subtype>
    <osmand:icon>public_bookcase</osmand:icon>
  </extensions>
</wpt>
<wpt lat="44.8379257" lon="6.4988109">
  <name>La Casse</name>
  <desc>Vival livres</desc>
  <type>delivrez bookcase</type>
  <extensions>
    <osmand:codetype>BSB</osmand:codetype>
    <osmand:color>#00842b</osmand:color>
    <osmand:background>square</osmand:background>
    <osmand:amenity_subtype>public_bookcase</osmand:amenity_subtype>
    <osmand:icon>public_bookcase</osmand:icon>
  </extensions>
</wpt>
<wpt lat="43.6389742" lon="6.8684782">
  <name>Route de Draguignan</name>
  <desc>dans le magasin so bio</desc>
  <type>delivrez bookcase</type>
  <extensions>
    <osmand:codetype>BSB</osmand:codetype>
    <osmand:color>#00842b</osmand:color>
    <osmand:background>square</osmand:background>
    <osmand:amenity_subtype>public_bookcase</osmand:amenity_subtype>
    <osmand:icon>public_bookcase</osmand:icon>
  </extensions>
</wpt>
<wpt lat="43.8048869" lon="4.6572928">
  <name>Rue des Halles</name>
  <desc>sur la place</desc>
  <type>delivrez bookcase</type>
  <extensions>
    <osmand:codetype>BSB</osmand:codetype>
    <osmand:color>#00842b</osmand:color>
    <osmand:background>square</osmand:background>
    <osmand:amenity_subtype>public_bookcase</osmand:amenity_subtype>
    <osmand:icon>public_bookcase</osmand:icon>
  </extensions>
</wpt>
<wpt lat="43.5272762" lon="6.1492062">
  <name>Cours Gambetta</name>
  <desc>étagère au café du cours</desc>
  <type>delivrez bookcase</type>
  <extensions>
    <osmand:codetype>BSB</osmand:codetype>
    <osmand:color>#00842b</osmand:color>
    <osmand:background>square</osmand:background>
    <osmand:amenity_subtype>public_bookcase</osmand:amenity_subtype>
    <osmand:icon>public_bookcase</osmand:icon>
  </extensions>
</wpt>
<wpt lat="43.498157" lon="6.3660933">
  <name>Chemin de Saint-Ferréol</name>
  <desc>très grande boite à livres dans une maison bleue</desc>
  <type>delivrez bookcase</type>
  <extensions>
    <osmand:codetype>BSB</osmand:codetype>
    <osmand:color>#00842b</osmand:color>
    <osmand:background>square</osmand:background>
    <osmand:amenity_subtype>public_bookcase</osmand:amenity_subtype>
    <osmand:icon>public_bookcase</osmand:icon>
  </extensions>
</wpt>
<wpt lat="43.6717356" lon="7.2243227">
  <name>Boulevard René Cassin</name>
  <desc>_</desc>
  <type>delivrez bookcase</type>
  <extensions>
    <osmand:codetype>BSB</osmand:codetype>
    <osmand:color>#00842b</osmand:color>
    <osmand:background>square</osmand:background>
    <osmand:amenity_subtype>public_bookcase</osmand:amenity_subtype>
    <osmand:icon>public_bookcase</osmand:icon>
  </extensions>
</wpt>
<wpt lat="43.4929724" lon="6.5359484">
  <name>Place Georges Clemenceau</name>
  <desc>_</desc>
  <type>delivrez bookcase</type>
  <extensions>
    <osmand:codetype>BSB</osmand:codetype>
    <osmand:color>#00842b</osmand:color>
    <osmand:background>square</osmand:background>
    <osmand:amenity_subtype>public_bookcase</osmand:amenity_subtype>
    <osmand:icon>public_bookcase</osmand:icon>
  </extensions>
</wpt>
<wpt lat="43.74477" lon="7.3996817">
  <name>Place Neuve</name>
  <desc>petite boîte à livre avec belle vue sur le cap Ferrat</desc>
  <type>delivrez bookcase</type>
  <extensions>
    <osmand:codetype>BSB</osmand:codetype>
    <osmand:color>#00842b</osmand:color>
    <osmand:background>square</osmand:background>
    <osmand:amenity_subtype>public_bookcase</osmand:amenity_subtype>
    <osmand:icon>public_bookcase</osmand:icon>
  </extensions>
</wpt>
<wpt lat="43.727378" lon="7.4171216">
  <name>Avenue des Castelans</name>
  <desc>dans le parc situé entre le stade Louis 2 et l'école. Boîte à livres ronde au milieu du parc.</desc>
  <type>delivrez bookcase</type>
  <extensions>
    <osmand:codetype>BSB</osmand:codetype>
    <osmand:color>#00842b</osmand:color>
    <osmand:background>square</osmand:background>
    <osmand:amenity_subtype>public_bookcase</osmand:amenity_subtype>
    <osmand:icon>public_bookcase</osmand:icon>
  </extensions>
</wpt>
<wpt lat="44.1738274" lon="5.1318078">
  <name>Gr Grande Rue</name>
  <desc>dons de livres devant l'association des amis du vieux village Malaucène</desc>
  <type>delivrez bookcase</type>
  <extensions>
    <osmand:codetype>BSB</osmand:codetype>
    <osmand:color>#00842b</osmand:color>
    <osmand:background>square</osmand:background>
    <osmand:amenity_subtype>public_bookcase</osmand:amenity_subtype>
    <osmand:icon>public_bookcase</osmand:icon>
  </extensions>
</wpt>
<wpt lat="43.5178188" lon="6.4832197">
  <name>jardin botanique de la foux</name>
  <desc>_</desc>
  <type>delivrez bookcase</type>
  <extensions>
    <osmand:codetype>BSB</osmand:codetype>
    <osmand:color>#00842b</osmand:color>
    <osmand:background>square</osmand:background>
    <osmand:amenity_subtype>public_bookcase</osmand:amenity_subtype>
    <osmand:icon>public_bookcase</osmand:icon>
  </extensions>
</wpt>
<wpt lat="43.103053" lon="6.173215">
  <name>Avenue des Hirondelles</name>
  <desc>en bord de la piste cyclable</desc>
  <type>delivrez bookcase</type>
  <extensions>
    <osmand:codetype>BSB</osmand:codetype>
    <osmand:color>#00842b</osmand:color>
    <osmand:background>square</osmand:background>
    <osmand:amenity_subtype>public_bookcase</osmand:amenity_subtype>
    <osmand:icon>public_bookcase</osmand:icon>
  </extensions>
</wpt>
<wpt lat="43.1184352" lon="6.1286901">
  <name>Avenue Gambetta</name>
  <desc>a côté du vival</desc>
  <type>delivrez bookcase</type>
  <extensions>
    <osmand:codetype>BSB</osmand:codetype>
    <osmand:color>#00842b</osmand:color>
    <osmand:background>square</osmand:background>
    <osmand:amenity_subtype>public_bookcase</osmand:amenity_subtype>
    <osmand:icon>public_bookcase</osmand:icon>
  </extensions>
</wpt>
<wpt lat="43.8458196" lon="6.5107003">
  <name>Boulevard Frédéric Mistral</name>
  <desc>Grande boîtes à livres &quot;le livre service&quot;</desc>
  <type>delivrez bookcase</type>
  <extensions>
    <osmand:codetype>BSB</osmand:codetype>
    <osmand:color>#00842b</osmand:color>
    <osmand:background>square</osmand:background>
    <osmand:amenity_subtype>public_bookcase</osmand:amenity_subtype>
    <osmand:icon>public_bookcase</osmand:icon>
  </extensions>
</wpt>
<wpt lat="44.0687688" lon="5.991799">
  <name>Avenue des Écoles</name>
  <desc>en face du stade avant école de musique</desc>
  <type>delivrez bookcase</type>
  <extensions>
    <osmand:codetype>BSB</osmand:codetype>
    <osmand:color>#00842b</osmand:color>
    <osmand:background>square</osmand:background>
    <osmand:amenity_subtype>public_bookcase</osmand:amenity_subtype>
    <osmand:icon>public_bookcase</osmand:icon>
  </extensions>
</wpt>
<wpt lat="43.8626722" lon="6.1267795">
  <name>Place de l'Église</name>
  <desc>a côté de l abri bus</desc>
  <type>delivrez bookcase</type>
  <extensions>
    <osmand:codetype>BSB</osmand:codetype>
    <osmand:color>#00842b</osmand:color>
    <osmand:background>square</osmand:background>
    <osmand:amenity_subtype>public_bookcase</osmand:amenity_subtype>
    <osmand:icon>public_bookcase</osmand:icon>
  </extensions>
</wpt>
<wpt lat="43.7657374" lon="5.8801045">
  <name>rue arnaud de triand</name>
  <desc>petite boîte très discrète peinte à la main avec des fleurs</desc>
  <type>delivrez bookcase</type>
  <extensions>
    <osmand:codetype>BSB</osmand:codetype>
    <osmand:color>#00842b</osmand:color>
    <osmand:background>square</osmand:background>
    <osmand:amenity_subtype>public_bookcase</osmand:amenity_subtype>
    <osmand:icon>public_bookcase</osmand:icon>
  </extensions>
</wpt>
<wpt lat="43.9161358" lon="5.9180767">
  <name>Allée Romain Selsis</name>
  <desc>à côté de la médiathèque romain selsi à côté du château dans un frigo rouge</desc>
  <type>delivrez bookcase</type>
  <extensions>
    <osmand:codetype>BSB</osmand:codetype>
    <osmand:color>#00842b</osmand:color>
    <osmand:background>square</osmand:background>
    <osmand:amenity_subtype>public_bookcase</osmand:amenity_subtype>
    <osmand:icon>public_bookcase</osmand:icon>
  </extensions>
</wpt>
<wpt lat="43.3411925" lon="6.5492608">
  <name>Rue du Sénateur Sigallas</name>
  <desc>grande boîte a livre à l'entrée de l'école primaire</desc>
  <type>delivrez bookcase</type>
  <extensions>
    <osmand:codetype>BSB</osmand:codetype>
    <osmand:color>#00842b</osmand:color>
    <osmand:background>square</osmand:background>
    <osmand:amenity_subtype>public_bookcase</osmand:amenity_subtype>
    <osmand:icon>public_bookcase</osmand:icon>
  </extensions>
</wpt>
<wpt lat="43.613071" lon="6.4813912">
  <name>Rue du Docteur Rayol</name>
  <desc>boite a livre sous l'abri bus en face du proxy</desc>
  <type>delivrez bookcase</type>
  <extensions>
    <osmand:codetype>BSB</osmand:codetype>
    <osmand:color>#00842b</osmand:color>
    <osmand:background>square</osmand:background>
    <osmand:amenity_subtype>public_bookcase</osmand:amenity_subtype>
    <osmand:icon>public_bookcase</osmand:icon>
  </extensions>
</wpt>
<wpt lat="43.5291095" lon="6.1488494">
  <name>Place de la Mairie</name>
  <desc>boite à livre au fond de la place de la mairie beaucoup de livres anglais ou allemand</desc>
  <type>delivrez bookcase</type>
  <extensions>
    <osmand:codetype>BSB</osmand:codetype>
    <osmand:color>#00842b</osmand:color>
    <osmand:background>square</osmand:background>
    <osmand:amenity_subtype>public_bookcase</osmand:amenity_subtype>
    <osmand:icon>public_bookcase</osmand:icon>
  </extensions>
</wpt>
<wpt lat="43.689901" lon="6.7137723">
  <name>Impasse du Four</name>
  <desc>la boutique</desc>
  <type>delivrez bookcase</type>
  <extensions>
    <osmand:codetype>BSB</osmand:codetype>
    <osmand:color>#00842b</osmand:color>
    <osmand:background>square</osmand:background>
    <osmand:amenity_subtype>public_bookcase</osmand:amenity_subtype>
    <osmand:icon>public_bookcase</osmand:icon>
  </extensions>
</wpt>
<wpt lat="43.5636496" lon="6.2328418">
  <name>Cours Théodore Bouge</name>
  <desc>grande boîte à livres</desc>
  <type>delivrez bookcase</type>
  <extensions>
    <osmand:codetype>BSB</osmand:codetype>
    <osmand:color>#00842b</osmand:color>
    <osmand:background>square</osmand:background>
    <osmand:amenity_subtype>public_bookcase</osmand:amenity_subtype>
    <osmand:icon>public_bookcase</osmand:icon>
  </extensions>
</wpt>
<wpt lat="43.0951252" lon="6.0751846">
  <name>Place de la République</name>
  <desc>boîte à livres</desc>
  <type>delivrez bookcase</type>
  <extensions>
    <osmand:codetype>BSB</osmand:codetype>
    <osmand:color>#00842b</osmand:color>
    <osmand:background>square</osmand:background>
    <osmand:amenity_subtype>public_bookcase</osmand:amenity_subtype>
    <osmand:icon>public_bookcase</osmand:icon>
  </extensions>
</wpt>
<wpt lat="44.83801" lon="6.49903">
  <name>VIVAL VALLOUISE</name>
  <desc>Little Free Library</desc>
  <type>delivrez bookcase</type>
  <extensions>
    <osmand:codetype>BSB</osmand:codetype>
    <osmand:color>#00842b</osmand:color>
    <osmand:background>square</osmand:background>
    <osmand:amenity_subtype>public_bookcase</osmand:amenity_subtype>
    <osmand:icon>public_bookcase</osmand:icon>
  </extensions>
</wpt>
<wpt lat="43.91551" lon="4.89121">
  <name>VIVAL MONTFAVET</name>
  <desc>Little Free Library</desc>
  <type>delivrez bookcase</type>
  <extensions>
    <osmand:codetype>BSB</osmand:codetype>
    <osmand:color>#00842b</osmand:color>
    <osmand:background>square</osmand:background>
    <osmand:amenity_subtype>public_bookcase</osmand:amenity_subtype>
    <osmand:icon>public_bookcase</osmand:icon>
  </extensions>
</wpt>
<wpt lat="43.592" lon="4.94004">
  <name>VIVAL ENTRESSEN</name>
  <desc>Little Free Library</desc>
  <type>delivrez bookcase</type>
  <extensions>
    <osmand:codetype>BSB</osmand:codetype>
    <osmand:color>#00842b</osmand:color>
    <osmand:background>square</osmand:background>
    <osmand:amenity_subtype>public_bookcase</osmand:amenity_subtype>
    <osmand:icon>public_bookcase</osmand:icon>
  </extensions>
</wpt>
<wpt lat="43.7725" lon="5.52333">
  <name>VIVAL LA MOTTE D AIGUES</name>
  <desc>Little Free Library</desc>
  <type>delivrez bookcase</type>
  <extensions>
    <osmand:codetype>BSB</osmand:codetype>
    <osmand:color>#00842b</osmand:color>
    <osmand:background>square</osmand:background>
    <osmand:amenity_subtype>public_bookcase</osmand:amenity_subtype>
    <osmand:icon>public_bookcase</osmand:icon>
  </extensions>
</wpt>
<wpt lat="43.90305" lon="5.35666">
  <name>VIVAL GARGAS</name>
  <desc>Little Free Library</desc>
  <type>delivrez bookcase</type>
  <extensions>
    <osmand:codetype>BSB</osmand:codetype>
    <osmand:color>#00842b</osmand:color>
    <osmand:background>square</osmand:background>
    <osmand:amenity_subtype>public_bookcase</osmand:amenity_subtype>
    <osmand:icon>public_bookcase</osmand:icon>
  </extensions>
</wpt>
<wpt lat="43.75583" lon="5.20305">
  <name>VIVAL MERINDOL</name>
  <desc>Little Free Library</desc>
  <type>delivrez bookcase</type>
  <extensions>
    <osmand:codetype>BSB</osmand:codetype>
    <osmand:color>#00842b</osmand:color>
    <osmand:background>square</osmand:background>
    <osmand:amenity_subtype>public_bookcase</osmand:amenity_subtype>
    <osmand:icon>public_bookcase</osmand:icon>
  </extensions>
</wpt>
<wpt lat="43.12432" lon="5.79137">
  <name>VIVAL SANARY SUR MER</name>
  <desc>Little Free Library</desc>
  <type>delivrez bookcase</type>
  <extensions>
    <osmand:codetype>BSB</osmand:codetype>
    <osmand:color>#00842b</osmand:color>
    <osmand:background>square</osmand:background>
    <osmand:amenity_subtype>public_bookcase</osmand:amenity_subtype>
    <osmand:icon>public_bookcase</osmand:icon>
  </extensions>
</wpt>
<wpt lat="43.45124" lon="5.41223">
  <name>VIVAL BOUC BEL AIR</name>
  <desc>Little Free Library</desc>
  <type>delivrez bookcase</type>
  <extensions>
    <osmand:codetype>BSB</osmand:codetype>
    <osmand:color>#00842b</osmand:color>
    <osmand:background>square</osmand:background>
    <osmand:amenity_subtype>public_bookcase</osmand:amenity_subtype>
    <osmand:icon>public_bookcase</osmand:icon>
  </extensions>
</wpt>
<wpt lat="43.12146" lon="6.06733">
  <name>VIVAL LA CRAU</name>
  <desc>Little Free Library</desc>
  <type>delivrez bookcase</type>
  <extensions>
    <osmand:codetype>BSB</osmand:codetype>
    <osmand:color>#00842b</osmand:color>
    <osmand:background>square</osmand:background>
    <osmand:amenity_subtype>public_bookcase</osmand:amenity_subtype>
    <osmand:icon>public_bookcase</osmand:icon>
  </extensions>
</wpt>
<wpt lat="43.71357" lon="5.1907">
  <name>VIVAL MALLEMORT</name>
  <desc>Little Free Library</desc>
  <type>delivrez bookcase</type>
  <extensions>
    <osmand:codetype>BSB</osmand:codetype>
    <osmand:color>#00842b</osmand:color>
    <osmand:background>square</osmand:background>
    <osmand:amenity_subtype>public_bookcase</osmand:amenity_subtype>
    <osmand:icon>public_bookcase</osmand:icon>
  </extensions>
</wpt>
<wpt lat="43.93639" lon="7.09735">
  <name>VIVAL VILLARS SUR VAR</name>
  <desc>Little Free Library</desc>
  <type>delivrez bookcase</type>
  <extensions>
    <osmand:codetype>BSB</osmand:codetype>
    <osmand:color>#00842b</osmand:color>
    <osmand:background>square</osmand:background>
    <osmand:amenity_subtype>public_bookcase</osmand:amenity_subtype>
    <osmand:icon>public_bookcase</osmand:icon>
  </extensions>
</wpt>
<wpt lat="43.97688" lon="7.14">
  <name>VIVAL CLANS</name>
  <desc>Little Free Library</desc>
  <type>delivrez bookcase</type>
  <extensions>
    <osmand:codetype>BSB</osmand:codetype>
    <osmand:color>#00842b</osmand:color>
    <osmand:background>square</osmand:background>
    <osmand:amenity_subtype>public_bookcase</osmand:amenity_subtype>
    <osmand:icon>public_bookcase</osmand:icon>
  </extensions>
</wpt>
<wpt lat="43.23407" lon="5.36361">
  <name>VIVAL MARSEILLE</name>
  <desc>Little Free Library</desc>
  <type>delivrez bookcase</type>
  <extensions>
    <osmand:codetype>BSB</osmand:codetype>
    <osmand:color>#00842b</osmand:color>
    <osmand:background>square</osmand:background>
    <osmand:amenity_subtype>public_bookcase</osmand:amenity_subtype>
    <osmand:icon>public_bookcase</osmand:icon>
  </extensions>
</wpt>
<wpt lat="44.07654" lon="5.00171">
  <name>VIVAL LORIOL DU COMTAT</name>
  <desc>Little Free Library</desc>
  <type>delivrez bookcase</type>
  <extensions>
    <osmand:codetype>BSB</osmand:codetype>
    <osmand:color>#00842b</osmand:color>
    <osmand:background>square</osmand:background>
    <osmand:amenity_subtype>public_bookcase</osmand:amenity_subtype>
    <osmand:icon>public_bookcase</osmand:icon>
  </extensions>
</wpt>
<wpt lat="43.83093" lon="7.32861">
  <name>Association SEPT</name>
  <desc>Little Free Library</desc>
  <type>delivrez bookcase</type>
  <extensions>
    <osmand:codetype>BSB</osmand:codetype>
    <osmand:color>#00842b</osmand:color>
    <osmand:background>square</osmand:background>
    <osmand:amenity_subtype>public_bookcase</osmand:amenity_subtype>
    <osmand:icon>public_bookcase</osmand:icon>
  </extensions>
</wpt>
<wpt lat="43.5367929" lon="6.4616151">
  <name>jardin d'angles</name>
  <desc>boîte à livres à l'intérieur du jardin.</desc>
  <type>delivrez bookcase</type>
  <extensions>
    <osmand:codetype>BSB</osmand:codetype>
    <osmand:color>#00842b</osmand:color>
    <osmand:background>square</osmand:background>
    <osmand:amenity_subtype>public_bookcase</osmand:amenity_subtype>
    <osmand:icon>public_bookcase</osmand:icon>
  </extensions>
</wpt>
<wpt lat="43.4515059" lon="6.3049593">
  <name>ecole primaire</name>
  <desc>boite à livres située devant l'école primaire, pas protégée donc livres abîmés</desc>
  <type>delivrez bookcase</type>
  <extensions>
    <osmand:codetype>BSB</osmand:codetype>
    <osmand:color>#00842b</osmand:color>
    <osmand:background>square</osmand:background>
    <osmand:amenity_subtype>public_bookcase</osmand:amenity_subtype>
    <osmand:icon>public_bookcase</osmand:icon>
  </extensions>
</wpt>
<wpt lat="43.1264714" lon="6.0095117">
  <name>Avenue Charles Sandro</name>
  <desc>cette grainotheque est située  dans la médiathèque louis aragon.@@__@@__@@__@@__@@__@@__@@__</desc>
  <type>delivrez bookcase</type>
  <extensions>
    <osmand:codetype>BSB</osmand:codetype>
    <osmand:color>#00842b</osmand:color>
    <osmand:background>square</osmand:background>
    <osmand:amenity_subtype>public_bookcase</osmand:amenity_subtype>
    <osmand:icon>public_bookcase</osmand:icon>
  </extensions>
</wpt>
<wpt lat="43.1465121" lon="5.902239">
  <name>Vival</name>
  <desc>Belle armoire a livres a l'extérieur du  magasin</desc>
  <type>delivrez bookcase</type>
  <extensions>
    <osmand:codetype>BSB</osmand:codetype>
    <osmand:color>#00842b</osmand:color>
    <osmand:background>square</osmand:background>
    <osmand:amenity_subtype>public_bookcase</osmand:amenity_subtype>
    <osmand:icon>public_bookcase</osmand:icon>
  </extensions>
</wpt>
<wpt lat="43.2977144" lon="6.1860944">
  <name>Chemin des Grafeaux</name>
  <desc>dans la gare</desc>
  <type>delivrez bookcase</type>
  <extensions>
    <osmand:codetype>BSB</osmand:codetype>
    <osmand:color>#00842b</osmand:color>
    <osmand:background>square</osmand:background>
    <osmand:amenity_subtype>public_bookcase</osmand:amenity_subtype>
    <osmand:icon>public_bookcase</osmand:icon>
  </extensions>
</wpt>
<wpt lat="43.5505184" lon="6.9778108">
  <name>Rue Monseigneur Jeancard</name>
  <desc>En face de la banque, à l'angle de la rue</desc>
  <type>delivrez bookcase</type>
  <extensions>
    <osmand:codetype>BSB</osmand:codetype>
    <osmand:color>#00842b</osmand:color>
    <osmand:background>square</osmand:background>
    <osmand:amenity_subtype>public_bookcase</osmand:amenity_subtype>
    <osmand:icon>public_bookcase</osmand:icon>
  </extensions>
</wpt>
<wpt lat="43.6543137" lon="5.2649903">
  <name>Route de Caireval</name>
  <desc>au fond du parking beaudoux entrée nord de la maternelle</desc>
  <type>delivrez bookcase</type>
  <extensions>
    <osmand:codetype>BSB</osmand:codetype>
    <osmand:color>#00842b</osmand:color>
    <osmand:background>square</osmand:background>
    <osmand:amenity_subtype>public_bookcase</osmand:amenity_subtype>
    <osmand:icon>public_bookcase</osmand:icon>
  </extensions>
</wpt>
<wpt lat="43.9454973" lon="4.8447518">
  <name>Mairie annexe est</name>
  <desc></desc>
  <type>delivrez bookcase</type>
  <extensions>
    <osmand:codetype>BSB</osmand:codetype>
    <osmand:color>#00842b</osmand:color>
    <osmand:background>square</osmand:background>
    <osmand:amenity_subtype>public_bookcase</osmand:amenity_subtype>
    <osmand:icon>public_bookcase</osmand:icon>
  </extensions>
</wpt>
<wpt lat="43.7051229" lon="5.4306141">
  <name>Place du général de Gaulle</name>
  <desc>Un ancien abri-bus transformé et décoré par des enfants en Arrêt-VilleLivres</desc>
  <type>delivrez bookcase</type>
  <extensions>
    <osmand:codetype>BSB</osmand:codetype>
    <osmand:color>#00842b</osmand:color>
    <osmand:background>square</osmand:background>
    <osmand:amenity_subtype>public_bookcase</osmand:amenity_subtype>
    <osmand:icon>public_bookcase</osmand:icon>
  </extensions>
</wpt>
<wpt lat="43.6438098" lon="6.8831277">
  <name>avenue de Boutiny</name>
  <desc>Située dans la petite galerie marchande du buraliste qui a mis gracieusement  une vitrine à disposition pour les livres.</desc>
  <type>delivrez bookcase</type>
  <extensions>
    <osmand:codetype>BSB</osmand:codetype>
    <osmand:color>#00842b</osmand:color>
    <osmand:background>square</osmand:background>
    <osmand:amenity_subtype>public_bookcase</osmand:amenity_subtype>
    <osmand:icon>public_bookcase</osmand:icon>
  </extensions>
</wpt>
<wpt lat="43.4448064" lon="6.6388212">
  <name>12 Avenue Gabriel Péri</name>
  <desc></desc>
  <type>delivrez bookcase</type>
  <extensions>
    <osmand:codetype>BSB</osmand:codetype>
    <osmand:color>#00842b</osmand:color>
    <osmand:background>square</osmand:background>
    <osmand:amenity_subtype>public_bookcase</osmand:amenity_subtype>
    <osmand:icon>public_bookcase</osmand:icon>
  </extensions>
</wpt>
<wpt lat="44.0554214" lon="5.127307">
  <name>Les jardins de l'auzon</name>
  <desc>Elle se trouve au parc</desc>
  <type>delivrez bookcase</type>
  <extensions>
    <osmand:codetype>BSB</osmand:codetype>
    <osmand:color>#00842b</osmand:color>
    <osmand:background>square</osmand:background>
    <osmand:amenity_subtype>public_bookcase</osmand:amenity_subtype>
    <osmand:icon>public_bookcase</osmand:icon>
  </extensions>
</wpt>
<wpt lat="43.7887115" lon="4.8316924">
  <name>PLACE DE LA MAIRIE</name>
  <desc>DEVANT LA MAIRIE</desc>
  <type>delivrez bookcase</type>
  <extensions>
    <osmand:codetype>BSB</osmand:codetype>
    <osmand:color>#00842b</osmand:color>
    <osmand:background>square</osmand:background>
    <osmand:amenity_subtype>public_bookcase</osmand:amenity_subtype>
    <osmand:icon>public_bookcase</osmand:icon>
  </extensions>
</wpt>
<wpt lat="43.7014238" lon="7.2679803">
  <name>C.Cial Nice Etoile - Niveau -1 - 30, Avenue Jean Médecin</name>
  <desc></desc>
  <type>delivrez bookcase</type>
  <extensions>
    <osmand:codetype>BSB</osmand:codetype>
    <osmand:color>#00842b</osmand:color>
    <osmand:background>square</osmand:background>
    <osmand:amenity_subtype>public_bookcase</osmand:amenity_subtype>
    <osmand:icon>public_bookcase</osmand:icon>
  </extensions>
</wpt>
<wpt lat="43.9299998" lon="4.821324">
  <name>Médiathèque Jean-Louis Barrault, 6 Rue Perrin Morel</name>
  <desc>La boîte d'échange de livres se trouve au premier étage de la bibliothèque.</desc>
  <type>delivrez bookcase</type>
  <extensions>
    <osmand:codetype>BSB</osmand:codetype>
    <osmand:color>#00842b</osmand:color>
    <osmand:background>square</osmand:background>
    <osmand:amenity_subtype>public_bookcase</osmand:amenity_subtype>
    <osmand:icon>public_bookcase</osmand:icon>
  </extensions>
</wpt>
<wpt lat="43.9810999" lon="4.8795736">
  <name>Auchan Le Pontet, 533 avenue Louis Braille</name>
  <desc>La boîte d'échange de livres se trouve dans la galerie marchande d'Auchan Le Pontet, juste devant la boulangerie Paul et la FNAC.</desc>
  <type>delivrez bookcase</type>
  <extensions>
    <osmand:codetype>BSB</osmand:codetype>
    <osmand:color>#00842b</osmand:color>
    <osmand:background>square</osmand:background>
    <osmand:amenity_subtype>public_bookcase</osmand:amenity_subtype>
    <osmand:icon>public_bookcase</osmand:icon>
  </extensions>
</wpt>
<wpt lat="43.962093" lon="4.859867">
  <name>Place Joseph Thomas</name>
  <desc>Un frigo a été aménagé en boîte d'échange, il se trouve sur la place du marché,  juste devant le bureau de poste.</desc>
  <type>delivrez bookcase</type>
  <extensions>
    <osmand:codetype>BSB</osmand:codetype>
    <osmand:color>#00842b</osmand:color>
    <osmand:background>square</osmand:background>
    <osmand:amenity_subtype>public_bookcase</osmand:amenity_subtype>
    <osmand:icon>public_bookcase</osmand:icon>
  </extensions>
</wpt>
<wpt lat="44.5596477" lon="6.0761015">
  <name>Rue olphe galliard</name>
  <desc></desc>
  <type>delivrez bookcase</type>
  <extensions>
    <osmand:codetype>BSB</osmand:codetype>
    <osmand:color>#00842b</osmand:color>
    <osmand:background>square</osmand:background>
    <osmand:amenity_subtype>public_bookcase</osmand:amenity_subtype>
    <osmand:icon>public_bookcase</osmand:icon>
  </extensions>
</wpt>
<wpt lat="43.9464213" lon="4.8488228">
  <name>Parc Chico Mendès</name>
  <desc>suivre le chemin des canaux</desc>
  <type>delivrez bookcase</type>
  <extensions>
    <osmand:codetype>BSB</osmand:codetype>
    <osmand:color>#00842b</osmand:color>
    <osmand:background>square</osmand:background>
    <osmand:amenity_subtype>public_bookcase</osmand:amenity_subtype>
    <osmand:icon>public_bookcase</osmand:icon>
  </extensions>
</wpt>
<wpt lat="44.105337625525507" lon="6.205151081085206">
  <name>Ancienne école, Courbons</name>
  <desc>Une belle armoire à livres sous un petit préau de l'ancienne école du village de Courbons, perché à 900 m d'altitude au dessus de Digne. Inaugurée le 10 juin 2019 par l'association locale et la ville de Digne-les-Bains, aux habitants, résidents secondaires, vacanciers ou promeneurs de passage de la faire vivre !Et on peut profiter de l'ancienne cour de récréation, devenu un petit jardin agréable aux beaux jours pour lire sur place...</desc>
  <type>delivrez bookcase</type>
  <extensions>
    <osmand:codetype>BSB</osmand:codetype>
    <osmand:color>#00842b</osmand:color>
    <osmand:background>square</osmand:background>
    <osmand:amenity_subtype>public_bookcase</osmand:amenity_subtype>
    <osmand:icon>public_bookcase</osmand:icon>
  </extensions>
</wpt>
<wpt lat="43.928437260693393" lon="4.993398785591126">
  <name>190 cours Gambetta</name>
  <desc>en face de la mairie</desc>
  <type>delivrez bookcase</type>
  <extensions>
    <osmand:codetype>BSB</osmand:codetype>
    <osmand:color>#00842b</osmand:color>
    <osmand:background>square</osmand:background>
    <osmand:amenity_subtype>public_bookcase</osmand:amenity_subtype>
    <osmand:icon>public_bookcase</osmand:icon>
  </extensions>
</wpt>
<wpt lat="44.2441575" lon="5.0877827">
  <name>Avenue Marcel Pagnol</name>
  <desc>La boite est située devant l entrée de Super U, à l'extérieur, donc accessible en permanence.</desc>
  <type>delivrez bookcase</type>
  <extensions>
    <osmand:codetype>BSB</osmand:codetype>
    <osmand:color>#00842b</osmand:color>
    <osmand:background>square</osmand:background>
    <osmand:amenity_subtype>public_bookcase</osmand:amenity_subtype>
    <osmand:icon>public_bookcase</osmand:icon>
  </extensions>
</wpt>
<wpt lat="44.2445513" lon="5.0686364">
  <name>Allée Saint Quenin</name>
  <desc>Dans l entrée du nouveau cinéma Le Florian.</desc>
  <type>delivrez bookcase</type>
  <extensions>
    <osmand:codetype>BSB</osmand:codetype>
    <osmand:color>#00842b</osmand:color>
    <osmand:background>square</osmand:background>
    <osmand:amenity_subtype>public_bookcase</osmand:amenity_subtype>
    <osmand:icon>public_bookcase</osmand:icon>
  </extensions>
</wpt>
<wpt lat="43.140419" lon="6.018615">
  <name>Centre Commercial Grand Var Est</name>
  <desc>La boite est accessible à l entrée principale de Grand Var Est durant les heures d'ouvertures.</desc>
  <type>delivrez bookcase</type>
  <extensions>
    <osmand:codetype>BSB</osmand:codetype>
    <osmand:color>#00842b</osmand:color>
    <osmand:background>square</osmand:background>
    <osmand:amenity_subtype>public_bookcase</osmand:amenity_subtype>
    <osmand:icon>public_bookcase</osmand:icon>
  </extensions>
</wpt>
<wpt lat="43.1257219" lon="5.9289149">
  <name>Atol Toulon</name>
  <desc>Boîte à lire située dans la boutique de l opticien Atol de Toulon à côté du cinéma pathe en face de l hôtel des Arts</desc>
  <type>delivrez bookcase</type>
  <extensions>
    <osmand:codetype>BSB</osmand:codetype>
    <osmand:color>#00842b</osmand:color>
    <osmand:background>square</osmand:background>
    <osmand:amenity_subtype>public_bookcase</osmand:amenity_subtype>
    <osmand:icon>public_bookcase</osmand:icon>
  </extensions>
</wpt>
<wpt lat="43.2423834" lon="5.3868592">
  <name>6 boulevard Velasquez</name>
  <desc></desc>
  <type>delivrez bookcase</type>
  <extensions>
    <osmand:codetype>BSB</osmand:codetype>
    <osmand:color>#00842b</osmand:color>
    <osmand:background>square</osmand:background>
    <osmand:amenity_subtype>public_bookcase</osmand:amenity_subtype>
    <osmand:icon>public_bookcase</osmand:icon>
  </extensions>
</wpt>
<wpt lat="43.584251" lon="5.2152329">
  <name>VAL DE SIBOURG</name>
  <desc>Elle est placée sur le parking de l école de l'école primaire face à l'Arboretum</desc>
  <type>delivrez bookcase</type>
  <extensions>
    <osmand:codetype>BSB</osmand:codetype>
    <osmand:color>#00842b</osmand:color>
    <osmand:background>square</osmand:background>
    <osmand:amenity_subtype>public_bookcase</osmand:amenity_subtype>
    <osmand:icon>public_bookcase</osmand:icon>
  </extensions>
</wpt>
<wpt lat="43.8458965" lon="4.8468784">
  <name>passage de l Abbé Bonjean</name>
  <desc>Petite ruelle à gauche de la mairie.43.841092 - 4.842028</desc>
  <type>delivrez bookcase</type>
  <extensions>
    <osmand:codetype>BSB</osmand:codetype>
    <osmand:color>#00842b</osmand:color>
    <osmand:background>square</osmand:background>
    <osmand:amenity_subtype>public_bookcase</osmand:amenity_subtype>
    <osmand:icon>public_bookcase</osmand:icon>
  </extensions>
</wpt>
<wpt lat="43.8331223" lon="5.0421862">
  <name>60 rue Veran Rousset</name>
  <desc>Dans la Médiathèque à l entré</desc>
  <type>delivrez bookcase</type>
  <extensions>
    <osmand:codetype>BSB</osmand:codetype>
    <osmand:color>#00842b</osmand:color>
    <osmand:background>square</osmand:background>
    <osmand:amenity_subtype>public_bookcase</osmand:amenity_subtype>
    <osmand:icon>public_bookcase</osmand:icon>
  </extensions>
</wpt>
<wpt lat="43.8354835" lon="5.0903264">
  <name>avenue du château</name>
  <desc></desc>
  <type>delivrez bookcase</type>
  <extensions>
    <osmand:codetype>BSB</osmand:codetype>
    <osmand:color>#00842b</osmand:color>
    <osmand:background>square</osmand:background>
    <osmand:amenity_subtype>public_bookcase</osmand:amenity_subtype>
    <osmand:icon>public_bookcase</osmand:icon>
  </extensions>
</wpt>
<wpt lat="43.8465606" lon="5.1390814">
  <name>Rue Basse</name>
  <desc></desc>
  <type>delivrez bookcase</type>
  <extensions>
    <osmand:codetype>BSB</osmand:codetype>
    <osmand:color>#00842b</osmand:color>
    <osmand:background>square</osmand:background>
    <osmand:amenity_subtype>public_bookcase</osmand:amenity_subtype>
    <osmand:icon>public_bookcase</osmand:icon>
  </extensions>
</wpt>
<wpt lat="43.8427634" lon="5.1670721">
  <name>rue des Poulivets</name>
  <desc></desc>
  <type>delivrez bookcase</type>
  <extensions>
    <osmand:codetype>BSB</osmand:codetype>
    <osmand:color>#00842b</osmand:color>
    <osmand:background>square</osmand:background>
    <osmand:amenity_subtype>public_bookcase</osmand:amenity_subtype>
    <osmand:icon>public_bookcase</osmand:icon>
  </extensions>
</wpt>
<wpt lat="43.7481141" lon="5.3142094">
  <name>place de la mairie</name>
  <desc></desc>
  <type>delivrez bookcase</type>
  <extensions>
    <osmand:codetype>BSB</osmand:codetype>
    <osmand:color>#00842b</osmand:color>
    <osmand:background>square</osmand:background>
    <osmand:amenity_subtype>public_bookcase</osmand:amenity_subtype>
    <osmand:icon>public_bookcase</osmand:icon>
  </extensions>
</wpt>
<wpt lat="43.638217" lon="5.0920773">
  <name>Boulevard Aristide Briand</name>
  <desc>Dans l entrée de la bibliothèque</desc>
  <type>delivrez bookcase</type>
  <extensions>
    <osmand:codetype>BSB</osmand:codetype>
    <osmand:color>#00842b</osmand:color>
    <osmand:background>square</osmand:background>
    <osmand:amenity_subtype>public_bookcase</osmand:amenity_subtype>
    <osmand:icon>public_bookcase</osmand:icon>
  </extensions>
</wpt>
<wpt lat="43.8313422" lon="5.0285453">
  <name>site du Grenouillet</name>
  <desc>Elle est située sur le site du Grenouillet.</desc>
  <type>delivrez bookcase</type>
  <extensions>
    <osmand:codetype>BSB</osmand:codetype>
    <osmand:color>#00842b</osmand:color>
    <osmand:background>square</osmand:background>
    <osmand:amenity_subtype>public_bookcase</osmand:amenity_subtype>
    <osmand:icon>public_bookcase</osmand:icon>
  </extensions>
</wpt>
<wpt lat="43.2963888" lon="5.3736301">
  <name>Rue des Docks</name>
  <desc>La Branche aux LivresCentre Commercial Les Docks - La JolietteAtrium 10.4Rue des Docks13002 MarseilleA l intérieurPrès de la Grand PlaceUne grande étagère en forme de branche, chargée de livres, avec, dessous, un confortable canapé qui vous tend les accoudoirs</desc>
  <type>delivrez bookcase</type>
  <extensions>
    <osmand:codetype>BSB</osmand:codetype>
    <osmand:color>#00842b</osmand:color>
    <osmand:background>square</osmand:background>
    <osmand:amenity_subtype>public_bookcase</osmand:amenity_subtype>
    <osmand:icon>public_bookcase</osmand:icon>
  </extensions>
</wpt>
<wpt lat="43.291421" lon="5.863302">
  <name>Place du marché</name>
  <desc>Une ancienne cabine téléphonique rouge, sur la place du village</desc>
  <type>delivrez bookcase</type>
  <extensions>
    <osmand:codetype>BSB</osmand:codetype>
    <osmand:color>#00842b</osmand:color>
    <osmand:background>square</osmand:background>
    <osmand:amenity_subtype>public_bookcase</osmand:amenity_subtype>
    <osmand:icon>public_bookcase</osmand:icon>
  </extensions>
</wpt>
<wpt lat="44.0908953" lon="4.8835607">
  <name>Parc val seille 1 boulevard jean vilar</name>
  <desc>Dans le parc de la mairie la boite à livres se trouve entre la mairie et le théâtre de verdure.</desc>
  <type>delivrez bookcase</type>
  <extensions>
    <osmand:codetype>BSB</osmand:codetype>
    <osmand:color>#00842b</osmand:color>
    <osmand:background>square</osmand:background>
    <osmand:amenity_subtype>public_bookcase</osmand:amenity_subtype>
    <osmand:icon>public_bookcase</osmand:icon>
  </extensions>
</wpt>
<wpt lat="43.269451" lon="5.381519">
  <name>parc bagatelle</name>
  <desc></desc>
  <type>delivrez bookcase</type>
  <extensions>
    <osmand:codetype>BSB</osmand:codetype>
    <osmand:color>#00842b</osmand:color>
    <osmand:background>square</osmand:background>
    <osmand:amenity_subtype>public_bookcase</osmand:amenity_subtype>
    <osmand:icon>public_bookcase</osmand:icon>
  </extensions>
</wpt>
<wpt lat="43.3061606" lon="5.364587">
  <name>Terrasses du Port - 9 Quai du Lazaret</name>
  <desc>Pomme de Pain MARSEILLE TERRASSES DU PORT</desc>
  <type>delivrez bookcase</type>
  <extensions>
    <osmand:codetype>BSB</osmand:codetype>
    <osmand:color>#00842b</osmand:color>
    <osmand:background>square</osmand:background>
    <osmand:amenity_subtype>public_bookcase</osmand:amenity_subtype>
    <osmand:icon>public_bookcase</osmand:icon>
  </extensions>
</wpt>
<wpt lat="43.593567" lon="6.01642">
  <name>Place de la Juiverie</name>
  <desc>Plusieurs centaines de livres y sont entreposés.</desc>
  <type>delivrez bookcase</type>
  <extensions>
    <osmand:codetype>BSB</osmand:codetype>
    <osmand:color>#00842b</osmand:color>
    <osmand:background>square</osmand:background>
    <osmand:amenity_subtype>public_bookcase</osmand:amenity_subtype>
    <osmand:icon>public_bookcase</osmand:icon>
  </extensions>
</wpt>
<wpt lat="44.569437" lon="6.6819362">
  <name>Arret de bus du Point show</name>
  <desc>Dans l arrêt de bus</desc>
  <type>delivrez bookcase</type>
  <extensions>
    <osmand:codetype>BSB</osmand:codetype>
    <osmand:color>#00842b</osmand:color>
    <osmand:background>square</osmand:background>
    <osmand:amenity_subtype>public_bookcase</osmand:amenity_subtype>
    <osmand:icon>public_bookcase</osmand:icon>
  </extensions>
</wpt>
<wpt lat="44.8452886" lon="6.4898914">
  <name>Arrêt de bus le Point Show</name>
  <desc>Sous l'arrêt de bus</desc>
  <type>delivrez bookcase</type>
  <extensions>
    <osmand:codetype>BSB</osmand:codetype>
    <osmand:color>#00842b</osmand:color>
    <osmand:background>square</osmand:background>
    <osmand:amenity_subtype>public_bookcase</osmand:amenity_subtype>
    <osmand:icon>public_bookcase</osmand:icon>
  </extensions>
</wpt>
<wpt lat="43.6656852" lon="5.3480698">
  <name>Boulevard des écoles</name>
  <desc>Boîte à livres située à côté de la poste.</desc>
  <type>delivrez bookcase</type>
  <extensions>
    <osmand:codetype>BSB</osmand:codetype>
    <osmand:color>#00842b</osmand:color>
    <osmand:background>square</osmand:background>
    <osmand:amenity_subtype>public_bookcase</osmand:amenity_subtype>
    <osmand:icon>public_bookcase</osmand:icon>
  </extensions>
</wpt>
<wpt lat="43.1419639" lon="6.0167244">
  <name>Centre Commercial Gra,d Var Est - RN 98</name>
  <desc>Etagères à l entrée principale du centre commercial grand var est.</desc>
  <type>delivrez bookcase</type>
  <extensions>
    <osmand:codetype>BSB</osmand:codetype>
    <osmand:color>#00842b</osmand:color>
    <osmand:background>square</osmand:background>
    <osmand:amenity_subtype>public_bookcase</osmand:amenity_subtype>
    <osmand:icon>public_bookcase</osmand:icon>
  </extensions>
</wpt>
<wpt lat="43.9377774" lon="4.8711703">
  <name>20 rue Corot</name>
  <desc></desc>
  <type>delivrez bookcase</type>
  <extensions>
    <osmand:codetype>BSB</osmand:codetype>
    <osmand:color>#00842b</osmand:color>
    <osmand:background>square</osmand:background>
    <osmand:amenity_subtype>public_bookcase</osmand:amenity_subtype>
    <osmand:icon>public_bookcase</osmand:icon>
  </extensions>
</wpt>
<wpt lat="43.54658" lon="7.036732">
  <name>19 boulevard Alexandre III</name>
  <desc>La boîte à livres est installée devant le théâtre Alexandre III</desc>
  <type>delivrez bookcase</type>
  <extensions>
    <osmand:codetype>BSB</osmand:codetype>
    <osmand:color>#00842b</osmand:color>
    <osmand:background>square</osmand:background>
    <osmand:amenity_subtype>public_bookcase</osmand:amenity_subtype>
    <osmand:icon>public_bookcase</osmand:icon>
  </extensions>
</wpt>
<wpt lat="44.049358" lon="6.124422">
  <name>Place Louis Barras</name>
  <desc>Boîte aux lettres,A gauche de la place en face de l?eglise</desc>
  <type>delivrez bookcase</type>
  <extensions>
    <osmand:codetype>BSB</osmand:codetype>
    <osmand:color>#00842b</osmand:color>
    <osmand:background>square</osmand:background>
    <osmand:amenity_subtype>public_bookcase</osmand:amenity_subtype>
    <osmand:icon>public_bookcase</osmand:icon>
  </extensions>
</wpt>
<wpt lat="43.1445985" lon="6.3381822">
  <name>D41 Bd du Soleil</name>
  <desc>c est plus qu une boîte, c'est carrément une grotte avec plein de rayonnages et une banquette de coussins pour s'asseoir et lire</desc>
  <type>delivrez bookcase</type>
  <extensions>
    <osmand:codetype>BSB</osmand:codetype>
    <osmand:color>#00842b</osmand:color>
    <osmand:background>square</osmand:background>
    <osmand:amenity_subtype>public_bookcase</osmand:amenity_subtype>
    <osmand:icon>public_bookcase</osmand:icon>
  </extensions>
</wpt>
<wpt lat="43.0649936" lon="6.1474013">
  <name>mairie de la capte</name>
  <desc>boîte á lire lion s club découverte avec bonheur il y a quelques mois par hasard.....</desc>
  <type>delivrez bookcase</type>
  <extensions>
    <osmand:codetype>BSB</osmand:codetype>
    <osmand:color>#00842b</osmand:color>
    <osmand:background>square</osmand:background>
    <osmand:amenity_subtype>public_bookcase</osmand:amenity_subtype>
    <osmand:icon>public_bookcase</osmand:icon>
  </extensions>
</wpt>
<wpt lat="43.6810212" lon="4.6346202">
  <name>2 rue Montplaisir</name>
  <desc>Quartier des templiers.</desc>
  <type>delivrez bookcase</type>
  <extensions>
    <osmand:codetype>BSB</osmand:codetype>
    <osmand:color>#00842b</osmand:color>
    <osmand:background>square</osmand:background>
    <osmand:amenity_subtype>public_bookcase</osmand:amenity_subtype>
    <osmand:icon>public_bookcase</osmand:icon>
  </extensions>
</wpt>
<wpt lat="43.4411477" lon="5.3795667">
  <name>rue Saint Roch</name>
  <desc>Deux boites ouvertes et une fermée, en haut de la rue Saint Roch à Cabriès, Bouches du Rhône</desc>
  <type>delivrez bookcase</type>
  <extensions>
    <osmand:codetype>BSB</osmand:codetype>
    <osmand:color>#00842b</osmand:color>
    <osmand:background>square</osmand:background>
    <osmand:amenity_subtype>public_bookcase</osmand:amenity_subtype>
    <osmand:icon>public_bookcase</osmand:icon>
  </extensions>
</wpt>
<wpt lat="43.378279" lon="5.671204">
  <name>Place Félicien Charlier - Moulin de Redon</name>
  <desc>BAL dans une ancienne cabine téléphonique récupérée</desc>
  <type>delivrez bookcase</type>
  <extensions>
    <osmand:codetype>BSB</osmand:codetype>
    <osmand:color>#00842b</osmand:color>
    <osmand:background>square</osmand:background>
    <osmand:amenity_subtype>public_bookcase</osmand:amenity_subtype>
    <osmand:icon>public_bookcase</osmand:icon>
  </extensions>
</wpt>
<wpt lat="44.1777795" lon="4.7643763">
  <name>Place barthou</name>
  <desc>Boîte à livres située à proximité de l aire de jeu.</desc>
  <type>delivrez bookcase</type>
  <extensions>
    <osmand:codetype>BSB</osmand:codetype>
    <osmand:color>#00842b</osmand:color>
    <osmand:background>square</osmand:background>
    <osmand:amenity_subtype>public_bookcase</osmand:amenity_subtype>
    <osmand:icon>public_bookcase</osmand:icon>
  </extensions>
</wpt>
<wpt lat="43.5323247" lon="6.4710577">
  <name>Parc Chabran Avenue de la 1ère armér</name>
  <desc>bien placé à l entrée du Parc, elle est très utilisée</desc>
  <type>delivrez bookcase</type>
  <extensions>
    <osmand:codetype>BSB</osmand:codetype>
    <osmand:color>#00842b</osmand:color>
    <osmand:background>square</osmand:background>
    <osmand:amenity_subtype>public_bookcase</osmand:amenity_subtype>
    <osmand:icon>public_bookcase</osmand:icon>
  </extensions>
</wpt>
<wpt lat="43.3324466" lon="5.050436">
  <name>Plage de Ferrières</name>
  <desc></desc>
  <type>delivrez bookcase</type>
  <extensions>
    <osmand:codetype>BSB</osmand:codetype>
    <osmand:color>#00842b</osmand:color>
    <osmand:background>square</osmand:background>
    <osmand:amenity_subtype>public_bookcase</osmand:amenity_subtype>
    <osmand:icon>public_bookcase</osmand:icon>
  </extensions>
</wpt>
<wpt lat="44.0357726" lon="5.1147419">
  <name>838 chemin de Saint-Donat</name>
  <desc></desc>
  <type>delivrez bookcase</type>
  <extensions>
    <osmand:codetype>BSB</osmand:codetype>
    <osmand:color>#00842b</osmand:color>
    <osmand:background>square</osmand:background>
    <osmand:amenity_subtype>public_bookcase</osmand:amenity_subtype>
    <osmand:icon>public_bookcase</osmand:icon>
  </extensions>
</wpt>
<wpt lat="44.519823" lon="5.69921">
  <name>Le Village</name>
  <desc></desc>
  <type>delivrez bookcase</type>
  <extensions>
    <osmand:codetype>BSB</osmand:codetype>
    <osmand:color>#00842b</osmand:color>
    <osmand:background>square</osmand:background>
    <osmand:amenity_subtype>public_bookcase</osmand:amenity_subtype>
    <osmand:icon>public_bookcase</osmand:icon>
  </extensions>
</wpt>
<wpt lat="43.4479017" lon="5.6840057">
  <name>Crédit agricole</name>
  <desc>Boîte à livres située devant le crédit agricole sur le trotoire.</desc>
  <type>delivrez bookcase</type>
  <extensions>
    <osmand:codetype>BSB</osmand:codetype>
    <osmand:color>#00842b</osmand:color>
    <osmand:background>square</osmand:background>
    <osmand:amenity_subtype>public_bookcase</osmand:amenity_subtype>
    <osmand:icon>public_bookcase</osmand:icon>
  </extensions>
</wpt>
<wpt lat="43.4322591" lon="5.2599995">
  <name>Carrefour vitrolles</name>
  <desc>Dans la galerie de Carrefour Vitrolles, a l?entree.</desc>
  <type>delivrez bookcase</type>
  <extensions>
    <osmand:codetype>BSB</osmand:codetype>
    <osmand:color>#00842b</osmand:color>
    <osmand:background>square</osmand:background>
    <osmand:amenity_subtype>public_bookcase</osmand:amenity_subtype>
    <osmand:icon>public_bookcase</osmand:icon>
  </extensions>
</wpt>
<wpt lat="44.230729" lon="4.986112">
  <name>Office du Tourisme</name>
  <desc>Lions Club de Vaison-la-Romaine</desc>
  <type>delivrez bookcase</type>
  <extensions>
    <osmand:codetype>BSB</osmand:codetype>
    <osmand:color>#00842b</osmand:color>
    <osmand:background>square</osmand:background>
    <osmand:amenity_subtype>public_bookcase</osmand:amenity_subtype>
    <osmand:icon>public_bookcase</osmand:icon>
  </extensions>
</wpt>
<wpt lat="44.2383067" lon="5.074751">
  <name>Place de la Cathédrale</name>
  <desc>LIONS CLUB de VAISON-la-ROMAINE</desc>
  <type>delivrez bookcase</type>
  <extensions>
    <osmand:codetype>BSB</osmand:codetype>
    <osmand:color>#00842b</osmand:color>
    <osmand:background>square</osmand:background>
    <osmand:amenity_subtype>public_bookcase</osmand:amenity_subtype>
    <osmand:icon>public_bookcase</osmand:icon>
  </extensions>
</wpt>
<wpt lat="43.122543" lon="5.8250346">
  <name>Gare ollioules-Sanary</name>
  <desc></desc>
  <type>delivrez bookcase</type>
  <extensions>
    <osmand:codetype>BSB</osmand:codetype>
    <osmand:color>#00842b</osmand:color>
    <osmand:background>square</osmand:background>
    <osmand:amenity_subtype>public_bookcase</osmand:amenity_subtype>
    <osmand:icon>public_bookcase</osmand:icon>
  </extensions>
</wpt>
<wpt lat="43.9584915" lon="5.7775514">
  <name>Place de Verdun, chez Jojoba</name>
  <desc>Il y a toujours un grand renouvellement de livres</desc>
  <type>delivrez bookcase</type>
  <extensions>
    <osmand:codetype>BSB</osmand:codetype>
    <osmand:color>#00842b</osmand:color>
    <osmand:background>square</osmand:background>
    <osmand:amenity_subtype>public_bookcase</osmand:amenity_subtype>
    <osmand:icon>public_bookcase</osmand:icon>
  </extensions>
</wpt>
<wpt lat="43.1184982" lon="5.8015712">
  <name>16 rue Félix Pijeaud </name>
  <desc>Boite à lire à la boutique de prêt à porter Newday,installée depuis au moins deux ans, accessible uniquement aux heures d ouverture du magasin.</desc>
  <type>delivrez bookcase</type>
  <extensions>
    <osmand:codetype>BSB</osmand:codetype>
    <osmand:color>#00842b</osmand:color>
    <osmand:background>square</osmand:background>
    <osmand:amenity_subtype>public_bookcase</osmand:amenity_subtype>
    <osmand:icon>public_bookcase</osmand:icon>
  </extensions>
</wpt>
<wpt lat="43.1233211" lon="5.9340268">
  <name>rue Paul Lendrin</name>
  <desc>La librairie Contrebandes sort une petite boite à livre dans la rue. Beau geste de la part d un libraire !</desc>
  <type>delivrez bookcase</type>
  <extensions>
    <osmand:codetype>BSB</osmand:codetype>
    <osmand:color>#00842b</osmand:color>
    <osmand:background>square</osmand:background>
    <osmand:amenity_subtype>public_bookcase</osmand:amenity_subtype>
    <osmand:icon>public_bookcase</osmand:icon>
  </extensions>
</wpt>
<wpt lat="43.1219751" lon="6.129357">
  <name>Place Oustaou Rou</name>
  <desc></desc>
  <type>delivrez bookcase</type>
  <extensions>
    <osmand:codetype>BSB</osmand:codetype>
    <osmand:color>#00842b</osmand:color>
    <osmand:background>square</osmand:background>
    <osmand:amenity_subtype>public_bookcase</osmand:amenity_subtype>
    <osmand:icon>public_bookcase</osmand:icon>
  </extensions>
</wpt>
<wpt lat="44.1167512" lon="5.1434011">
  <name>Rue du camp de l'arbonne</name>
  <desc>Une vraie petite bibliothèque en accès libre 24H/24</desc>
  <type>delivrez bookcase</type>
  <extensions>
    <osmand:codetype>BSB</osmand:codetype>
    <osmand:color>#00842b</osmand:color>
    <osmand:background>square</osmand:background>
    <osmand:amenity_subtype>public_bookcase</osmand:amenity_subtype>
    <osmand:icon>public_bookcase</osmand:icon>
  </extensions>
</wpt>
<wpt lat="44.124008" lon="5.1803739">
  <name>Place de la république</name>
  <desc></desc>
  <type>delivrez bookcase</type>
  <extensions>
    <osmand:codetype>BSB</osmand:codetype>
    <osmand:color>#00842b</osmand:color>
    <osmand:background>square</osmand:background>
    <osmand:amenity_subtype>public_bookcase</osmand:amenity_subtype>
    <osmand:icon>public_bookcase</osmand:icon>
  </extensions>
</wpt>
<wpt lat="43.1930166" lon="6.0420291">
  <name>parc du chateau de Sollies-Pont</name>
  <desc>2 boites à livres ont installées dans le parc du chateau de Sollies-Pont le 17 septembre 2017 lors des journées du patrimoine.</desc>
  <type>delivrez bookcase</type>
  <extensions>
    <osmand:codetype>BSB</osmand:codetype>
    <osmand:color>#00842b</osmand:color>
    <osmand:background>square</osmand:background>
    <osmand:amenity_subtype>public_bookcase</osmand:amenity_subtype>
    <osmand:icon>public_bookcase</osmand:icon>
  </extensions>
</wpt>
<wpt lat="43.525138" lon="6.940261">
  <name>Avenue du 23 août</name>
  <desc>Place Saint-Fainéant</desc>
  <type>delivrez bookcase</type>
  <extensions>
    <osmand:codetype>BSB</osmand:codetype>
    <osmand:color>#00842b</osmand:color>
    <osmand:background>square</osmand:background>
    <osmand:amenity_subtype>public_bookcase</osmand:amenity_subtype>
    <osmand:icon>public_bookcase</osmand:icon>
  </extensions>
</wpt>
<wpt lat="43.214043417101749" lon="5.540220737457275">
  <name>Jardin centre ville</name>
  <desc>Livres en français et en anglais. Petit endroit au milieu du petit parc</desc>
  <type>delivrez bookcase</type>
  <extensions>
    <osmand:codetype>BSB</osmand:codetype>
    <osmand:color>#00842b</osmand:color>
    <osmand:background>square</osmand:background>
    <osmand:amenity_subtype>public_bookcase</osmand:amenity_subtype>
    <osmand:icon>public_bookcase</osmand:icon>
  </extensions>
</wpt>
<wpt lat="44.167519" lon="5.067546">
  <name>Route du Barroux</name>
  <desc>Bibliocabine à Suzette ancienne cabine téléphonique: https://www.openstreetmap.org/node/4192755780</desc>
  <type>delivrez bookcase</type>
  <extensions>
    <osmand:codetype>BSB</osmand:codetype>
    <osmand:color>#00842b</osmand:color>
    <osmand:background>square</osmand:background>
    <osmand:amenity_subtype>public_bookcase</osmand:amenity_subtype>
    <osmand:icon>public_bookcase</osmand:icon>
  </extensions>
</wpt>
<wpt lat="44.1253715" lon="5.1793694">
  <name>Place du marché</name>
  <desc>Petite boite verte au coeur du village sur une place ombragee. Des livres de romance, polars et ruraux. Aussi des livres en langue anglaise</desc>
  <type>delivrez bookcase</type>
  <extensions>
    <osmand:codetype>BSB</osmand:codetype>
    <osmand:color>#00842b</osmand:color>
    <osmand:background>square</osmand:background>
    <osmand:amenity_subtype>public_bookcase</osmand:amenity_subtype>
    <osmand:icon>public_bookcase</osmand:icon>
  </extensions>
</wpt>
<wpt lat="43.6763617" lon="4.6323042">
  <name>place de la Redoute</name>
  <desc>La boîte est adossée à un arbre de cette jolie placette du quartier de la Hauture. Il y a deux niveaux pouvant contenir des grands livres ou des magazines.</desc>
  <type>delivrez bookcase</type>
  <extensions>
    <osmand:codetype>BSB</osmand:codetype>
    <osmand:color>#00842b</osmand:color>
    <osmand:background>square</osmand:background>
    <osmand:amenity_subtype>public_bookcase</osmand:amenity_subtype>
    <osmand:icon>public_bookcase</osmand:icon>
  </extensions>
</wpt>
<wpt lat="43.677764" lon="4.6260319">
  <name>3 rue des Pénitents Bleus</name>
  <desc></desc>
  <type>delivrez bookcase</type>
  <extensions>
    <osmand:codetype>BSB</osmand:codetype>
    <osmand:color>#00842b</osmand:color>
    <osmand:background>square</osmand:background>
    <osmand:amenity_subtype>public_bookcase</osmand:amenity_subtype>
    <osmand:icon>public_bookcase</osmand:icon>
  </extensions>
</wpt>
<wpt lat="43.197363" lon="6.053728">
  <name>Parc de la mairie</name>
  <desc>2 boîtes à livres placées dans le parc de la mairie</desc>
  <type>delivrez bookcase</type>
  <extensions>
    <osmand:codetype>BSB</osmand:codetype>
    <osmand:color>#00842b</osmand:color>
    <osmand:background>square</osmand:background>
    <osmand:amenity_subtype>public_bookcase</osmand:amenity_subtype>
    <osmand:icon>public_bookcase</osmand:icon>
  </extensions>
</wpt>
<wpt lat="43.2160071" lon="5.538358">
  <name>2 rue Abbé Paul Mouton</name>
  <desc>Une mini serre avec banquettes dans la cour arborée de la mairie. Toute belle idée je trouve</desc>
  <type>delivrez bookcase</type>
  <extensions>
    <osmand:codetype>BSB</osmand:codetype>
    <osmand:color>#00842b</osmand:color>
    <osmand:background>square</osmand:background>
    <osmand:amenity_subtype>public_bookcase</osmand:amenity_subtype>
    <osmand:icon>public_bookcase</osmand:icon>
  </extensions>
</wpt>
<wpt lat="43.4314216" lon="5.425857">
  <name>place jean moulin</name>
  <desc>devant les commerces de proximité Vival, très belle initiative.</desc>
  <type>delivrez bookcase</type>
  <extensions>
    <osmand:codetype>BSB</osmand:codetype>
    <osmand:color>#00842b</osmand:color>
    <osmand:background>square</osmand:background>
    <osmand:amenity_subtype>public_bookcase</osmand:amenity_subtype>
    <osmand:icon>public_bookcase</osmand:icon>
  </extensions>
</wpt>
<wpt lat="43.6859889" lon="5.7104945">
  <name>avenue de la libération</name>
  <desc>centre commercial louis philibertdevant les commerces de proximité Vival, très belle initiative.</desc>
  <type>delivrez bookcase</type>
  <extensions>
    <osmand:codetype>BSB</osmand:codetype>
    <osmand:color>#00842b</osmand:color>
    <osmand:background>square</osmand:background>
    <osmand:amenity_subtype>public_bookcase</osmand:amenity_subtype>
    <osmand:icon>public_bookcase</osmand:icon>
  </extensions>
</wpt>
<wpt lat="43.5396817" lon="5.4552164">
  <name>13 allée geoges peretti</name>
  <desc>devant les commerces de proximité Vival, très belle initiative.</desc>
  <type>delivrez bookcase</type>
  <extensions>
    <osmand:codetype>BSB</osmand:codetype>
    <osmand:color>#00842b</osmand:color>
    <osmand:background>square</osmand:background>
    <osmand:amenity_subtype>public_bookcase</osmand:amenity_subtype>
    <osmand:icon>public_bookcase</osmand:icon>
  </extensions>
</wpt>
<wpt lat="43.3520353" lon="5.4381249">
  <name>1 rue centrale chateau gombert</name>
  <desc>devant les commerces de proximité Vival, très belle initiative.</desc>
  <type>delivrez bookcase</type>
  <extensions>
    <osmand:codetype>BSB</osmand:codetype>
    <osmand:color>#00842b</osmand:color>
    <osmand:background>square</osmand:background>
    <osmand:amenity_subtype>public_bookcase</osmand:amenity_subtype>
    <osmand:icon>public_bookcase</osmand:icon>
  </extensions>
</wpt>
<wpt lat="43.2473814" lon="5.3761755">
  <name>24 rue des goumiers</name>
  <desc>devant les commerces de proximité Vival, très belle initiative.</desc>
  <type>delivrez bookcase</type>
  <extensions>
    <osmand:codetype>BSB</osmand:codetype>
    <osmand:color>#00842b</osmand:color>
    <osmand:background>square</osmand:background>
    <osmand:amenity_subtype>public_bookcase</osmand:amenity_subtype>
    <osmand:icon>public_bookcase</osmand:icon>
  </extensions>
</wpt>
<wpt lat="43.7183543" lon="6.9924706">
  <name>2 route de grasse</name>
  <desc>Devant tous les commerces de proximité Vival, très belle initiative</desc>
  <type>delivrez bookcase</type>
  <extensions>
    <osmand:codetype>BSB</osmand:codetype>
    <osmand:color>#00842b</osmand:color>
    <osmand:background>square</osmand:background>
    <osmand:amenity_subtype>public_bookcase</osmand:amenity_subtype>
    <osmand:icon>public_bookcase</osmand:icon>
  </extensions>
</wpt>
<wpt lat="44.7548223" lon="6.0090273">
  <name>derrière le serre</name>
  <desc>Devant tous les commerces de proximité Vival, très belle initiative</desc>
  <type>delivrez bookcase</type>
  <extensions>
    <osmand:codetype>BSB</osmand:codetype>
    <osmand:color>#00842b</osmand:color>
    <osmand:background>square</osmand:background>
    <osmand:amenity_subtype>public_bookcase</osmand:amenity_subtype>
    <osmand:icon>public_bookcase</osmand:icon>
  </extensions>
</wpt>
<wpt lat="45.0326423" lon="6.3625744">
  <name>Gite du Pas de l âne, le pied du col</name>
  <desc>Dans la laverie, zone de bookcrossing</desc>
  <type>delivrez bookcase</type>
  <extensions>
    <osmand:codetype>BSB</osmand:codetype>
    <osmand:color>#00842b</osmand:color>
    <osmand:background>square</osmand:background>
    <osmand:amenity_subtype>public_bookcase</osmand:amenity_subtype>
    <osmand:icon>public_bookcase</osmand:icon>
  </extensions>
</wpt>
<wpt lat="44.0992468" lon="5.0258244">
  <name>220 avenue fréderic mistal</name>
  <desc>Les magasins de proximité Vival installent des boites à livres devant tous leurs magasins.</desc>
  <type>delivrez bookcase</type>
  <extensions>
    <osmand:codetype>BSB</osmand:codetype>
    <osmand:color>#00842b</osmand:color>
    <osmand:background>square</osmand:background>
    <osmand:amenity_subtype>public_bookcase</osmand:amenity_subtype>
    <osmand:icon>public_bookcase</osmand:icon>
  </extensions>
</wpt>
<wpt lat="43.7378453" lon="5.4649068">
  <name>place st elzear</name>
  <desc>Les magasins de proximité Vival installent des boites à livres devant tous leurs magasins.</desc>
  <type>delivrez bookcase</type>
  <extensions>
    <osmand:codetype>BSB</osmand:codetype>
    <osmand:color>#00842b</osmand:color>
    <osmand:background>square</osmand:background>
    <osmand:amenity_subtype>public_bookcase</osmand:amenity_subtype>
    <osmand:icon>public_bookcase</osmand:icon>
  </extensions>
</wpt>
<wpt lat="43.6180825" lon="6.7645841">
  <name>9 rue camille pauc</name>
  <desc>Les magasins de proximité Vival installent des boites à livres devant tous leurs magasins.</desc>
  <type>delivrez bookcase</type>
  <extensions>
    <osmand:codetype>BSB</osmand:codetype>
    <osmand:color>#00842b</osmand:color>
    <osmand:background>square</osmand:background>
    <osmand:amenity_subtype>public_bookcase</osmand:amenity_subtype>
    <osmand:icon>public_bookcase</osmand:icon>
  </extensions>
</wpt>
<wpt lat="43.7872421" lon="5.7649959">
  <name>123 avenue Paul Vaillant Couturier</name>
  <desc></desc>
  <type>delivrez bookcase</type>
  <extensions>
    <osmand:codetype>BSB</osmand:codetype>
    <osmand:color>#00842b</osmand:color>
    <osmand:background>square</osmand:background>
    <osmand:amenity_subtype>public_bookcase</osmand:amenity_subtype>
    <osmand:icon>public_bookcase</osmand:icon>
  </extensions>
</wpt>
<wpt lat="43.4221118" lon="6.7655468">
  <name>Jardin Bonaparte</name>
  <desc></desc>
  <type>delivrez bookcase</type>
  <extensions>
    <osmand:codetype>BSB</osmand:codetype>
    <osmand:color>#00842b</osmand:color>
    <osmand:background>square</osmand:background>
    <osmand:amenity_subtype>public_bookcase</osmand:amenity_subtype>
    <osmand:icon>public_bookcase</osmand:icon>
  </extensions>
</wpt>
<wpt lat="44.570714" lon="5.873691">
  <name>place du village</name>
  <desc>Sous l arrêt de bus</desc>
  <type>delivrez bookcase</type>
  <extensions>
    <osmand:codetype>BSB</osmand:codetype>
    <osmand:color>#00842b</osmand:color>
    <osmand:background>square</osmand:background>
    <osmand:amenity_subtype>public_bookcase</osmand:amenity_subtype>
    <osmand:icon>public_bookcase</osmand:icon>
  </extensions>
</wpt>
<wpt lat="43.7636477" lon="7.1413222">
  <name>village saint jeannet</name>
  <desc>elle se trouve dans le centre du village, au croisement rue de la mairie et rue du château</desc>
  <type>delivrez bookcase</type>
  <extensions>
    <osmand:codetype>BSB</osmand:codetype>
    <osmand:color>#00842b</osmand:color>
    <osmand:background>square</osmand:background>
    <osmand:amenity_subtype>public_bookcase</osmand:amenity_subtype>
    <osmand:icon>public_bookcase</osmand:icon>
  </extensions>
</wpt>
<wpt lat="43.9472635" lon="4.8059758">
  <name>6 rue mignard</name>
  <desc>La boîte à lire se situe dans un café super sympa du centre ville, près de la rue de la République, le Brunch Coffee..</desc>
  <type>delivrez bookcase</type>
  <extensions>
    <osmand:codetype>BSB</osmand:codetype>
    <osmand:color>#00842b</osmand:color>
    <osmand:background>square</osmand:background>
    <osmand:amenity_subtype>public_bookcase</osmand:amenity_subtype>
    <osmand:icon>public_bookcase</osmand:icon>
  </extensions>
</wpt>
<wpt lat="44.164167" lon="4.873128">
  <name>parc abbé persat</name>
  <desc></desc>
  <type>delivrez bookcase</type>
  <extensions>
    <osmand:codetype>BSB</osmand:codetype>
    <osmand:color>#00842b</osmand:color>
    <osmand:background>square</osmand:background>
    <osmand:amenity_subtype>public_bookcase</osmand:amenity_subtype>
    <osmand:icon>public_bookcase</osmand:icon>
  </extensions>
</wpt>
<wpt lat="43.493810202071245" lon="6.358820199966431">
  <name>Place Marius Trussy</name>
  <desc></desc>
  <type>delivrez bookcase</type>
  <extensions>
    <osmand:codetype>BSB</osmand:codetype>
    <osmand:color>#00842b</osmand:color>
    <osmand:background>square</osmand:background>
    <osmand:amenity_subtype>public_bookcase</osmand:amenity_subtype>
    <osmand:icon>public_bookcase</osmand:icon>
  </extensions>
</wpt>
<wpt lat="43.6548385" lon="5.2634404">
  <name>Poste de lambesc</name>
  <desc>Près de l'entre de la poste</desc>
  <type>delivrez bookcase</type>
  <extensions>
    <osmand:codetype>BSB</osmand:codetype>
    <osmand:color>#00842b</osmand:color>
    <osmand:background>square</osmand:background>
    <osmand:amenity_subtype>public_bookcase</osmand:amenity_subtype>
    <osmand:icon>public_bookcase</osmand:icon>
  </extensions>
</wpt>
<wpt lat="43.9281796" lon="6.9477904">
  <name>Rue de l école</name>
  <desc>Boîte située à côté de la mairie.</desc>
  <type>delivrez bookcase</type>
  <extensions>
    <osmand:codetype>BSB</osmand:codetype>
    <osmand:color>#00842b</osmand:color>
    <osmand:background>square</osmand:background>
    <osmand:amenity_subtype>public_bookcase</osmand:amenity_subtype>
    <osmand:icon>public_bookcase</osmand:icon>
  </extensions>
</wpt>
<wpt lat="44.1210617" lon="4.8389207">
  <name>Hypermarché Carrefour  - Route de Jonquières</name>
  <desc>Deux grandes bibliothèques libres sont disponibles dans la galerie marchande de Carrefour.</desc>
  <type>delivrez bookcase</type>
  <extensions>
    <osmand:codetype>BSB</osmand:codetype>
    <osmand:color>#00842b</osmand:color>
    <osmand:background>square</osmand:background>
    <osmand:amenity_subtype>public_bookcase</osmand:amenity_subtype>
    <osmand:icon>public_bookcase</osmand:icon>
  </extensions>
</wpt>
<wpt lat="43.729584388558095" lon="5.177854299545289">
  <name>Place Raoul Coustet</name>
  <desc></desc>
  <type>delivrez bookcase</type>
  <extensions>
    <osmand:codetype>BSB</osmand:codetype>
    <osmand:color>#00842b</osmand:color>
    <osmand:background>square</osmand:background>
    <osmand:amenity_subtype>public_bookcase</osmand:amenity_subtype>
    <osmand:icon>public_bookcase</osmand:icon>
  </extensions>
</wpt>
<wpt lat="43.5092998" lon="5.4386107">
  <name>Mairie annexe Pont de l'Arc, 75 route des Milles</name>
  <desc></desc>
  <type>delivrez bookcase</type>
  <extensions>
    <osmand:codetype>BSB</osmand:codetype>
    <osmand:color>#00842b</osmand:color>
    <osmand:background>square</osmand:background>
    <osmand:amenity_subtype>public_bookcase</osmand:amenity_subtype>
    <osmand:icon>public_bookcase</osmand:icon>
  </extensions>
</wpt>
<wpt lat="43.9601066" lon="5.7826682">
  <name>8 Avenue Saint-Promasse</name>
  <desc>Dans le parc, en contrebas de la distilleuse de Lavande</desc>
  <type>delivrez bookcase</type>
  <extensions>
    <osmand:codetype>BSB</osmand:codetype>
    <osmand:color>#00842b</osmand:color>
    <osmand:background>square</osmand:background>
    <osmand:amenity_subtype>public_bookcase</osmand:amenity_subtype>
    <osmand:icon>public_bookcase</osmand:icon>
  </extensions>
</wpt>
<wpt lat="44.2390673" lon="5.0723027">
  <name>Place du Poids</name>
  <desc></desc>
  <type>delivrez bookcase</type>
  <extensions>
    <osmand:codetype>BSB</osmand:codetype>
    <osmand:color>#00842b</osmand:color>
    <osmand:background>square</osmand:background>
    <osmand:amenity_subtype>public_bookcase</osmand:amenity_subtype>
    <osmand:icon>public_bookcase</osmand:icon>
  </extensions>
</wpt>
<wpt lat="43.9294735" lon="5.006667">
  <name>Parc des Estourans</name>
  <desc>Projet de l'association des parents d élèves du Thor : APET</desc>
  <type>delivrez bookcase</type>
  <extensions>
    <osmand:codetype>BSB</osmand:codetype>
    <osmand:color>#00842b</osmand:color>
    <osmand:background>square</osmand:background>
    <osmand:amenity_subtype>public_bookcase</osmand:amenity_subtype>
    <osmand:icon>public_bookcase</osmand:icon>
  </extensions>
</wpt>
<wpt lat="43.3701915" lon="5.7837142">
  <name>Place Victor Dedieu</name>
  <desc>A l angle de la place et de l'avenue Julien Jourdan</desc>
  <type>delivrez bookcase</type>
  <extensions>
    <osmand:codetype>BSB</osmand:codetype>
    <osmand:color>#00842b</osmand:color>
    <osmand:background>square</osmand:background>
    <osmand:amenity_subtype>public_bookcase</osmand:amenity_subtype>
    <osmand:icon>public_bookcase</osmand:icon>
  </extensions>
</wpt>
<wpt lat="43.643116" lon="6.875682">
  <name>galerie marchande du débit de tabac et de journaux</name>
  <desc>elle est hébergée dans une vitrine accessible mise à disposition par le magasin</desc>
  <type>delivrez bookcase</type>
  <extensions>
    <osmand:codetype>BSB</osmand:codetype>
    <osmand:color>#00842b</osmand:color>
    <osmand:background>square</osmand:background>
    <osmand:amenity_subtype>public_bookcase</osmand:amenity_subtype>
    <osmand:icon>public_bookcase</osmand:icon>
  </extensions>
</wpt>
<wpt lat="44.0249909" lon="5.9346915">
  <name>Place st Roch</name>
  <desc>Ce projet a été réalisé par les enfants de l'accueil collectif de mineurs.</desc>
  <type>delivrez bookcase</type>
  <extensions>
    <osmand:codetype>BSB</osmand:codetype>
    <osmand:color>#00842b</osmand:color>
    <osmand:background>square</osmand:background>
    <osmand:amenity_subtype>public_bookcase</osmand:amenity_subtype>
    <osmand:icon>public_bookcase</osmand:icon>
  </extensions>
</wpt>
<wpt lat="43.7861726" lon="4.8314876">
  <name>Place Jean Jaurès</name>
  <desc>Devant l'office du tourisme</desc>
  <type>delivrez bookcase</type>
  <extensions>
    <osmand:codetype>BSB</osmand:codetype>
    <osmand:color>#00842b</osmand:color>
    <osmand:background>square</osmand:background>
    <osmand:amenity_subtype>public_bookcase</osmand:amenity_subtype>
    <osmand:icon>public_bookcase</osmand:icon>
  </extensions>
</wpt>
<wpt lat="44.3507163" lon="6.3563412">
  <name>Rue Basse</name>
  <desc></desc>
  <type>delivrez bookcase</type>
  <extensions>
    <osmand:codetype>BSB</osmand:codetype>
    <osmand:color>#00842b</osmand:color>
    <osmand:background>square</osmand:background>
    <osmand:amenity_subtype>public_bookcase</osmand:amenity_subtype>
    <osmand:icon>public_bookcase</osmand:icon>
  </extensions>
</wpt>
<wpt lat="44.4449755" lon="6.372925">
  <name>Le Village</name>
  <desc></desc>
  <type>delivrez bookcase</type>
  <extensions>
    <osmand:codetype>BSB</osmand:codetype>
    <osmand:color>#00842b</osmand:color>
    <osmand:background>square</osmand:background>
    <osmand:amenity_subtype>public_bookcase</osmand:amenity_subtype>
    <osmand:icon>public_bookcase</osmand:icon>
  </extensions>
</wpt>
<wpt lat="43.4557243" lon="5.4706135">
  <name>Mairie de Gardanne</name>
  <desc>Boîte fabriquée par les  Citoyens Solidaires&quot; de la ville, avec les menuisiers du centre technique municipal et décorée par les enseignants de l école d'arts plastiques. Inaugurée le mardi 20 mars 2018.</desc>
  <type>delivrez bookcase</type>
  <extensions>
    <osmand:codetype>BSB</osmand:codetype>
    <osmand:color>#00842b</osmand:color>
    <osmand:background>square</osmand:background>
    <osmand:amenity_subtype>public_bookcase</osmand:amenity_subtype>
    <osmand:icon>public_bookcase</osmand:icon>
  </extensions>
</wpt>
<wpt lat="44.2409158" lon="5.0657761">
  <name>Avenue Alexandre Blanc</name>
  <desc>La boite est installée à l'angle du parking, en face de Biocoop.</desc>
  <type>delivrez bookcase</type>
  <extensions>
    <osmand:codetype>BSB</osmand:codetype>
    <osmand:color>#00842b</osmand:color>
    <osmand:background>square</osmand:background>
    <osmand:amenity_subtype>public_bookcase</osmand:amenity_subtype>
    <osmand:icon>public_bookcase</osmand:icon>
  </extensions>
</wpt>
<wpt lat="43.6425542" lon="5.0966434">
  <name>44 rue de Pontis</name>
  <desc>La case à Palabres</desc>
  <type>delivrez bookcase</type>
  <extensions>
    <osmand:codetype>BSB</osmand:codetype>
    <osmand:color>#00842b</osmand:color>
    <osmand:background>square</osmand:background>
    <osmand:amenity_subtype>public_bookcase</osmand:amenity_subtype>
    <osmand:icon>public_bookcase</osmand:icon>
  </extensions>
</wpt>
<wpt lat="43.2380681" lon="5.365264">
  <name>4 place Engalière</name>
  <desc>Deuxième Joyeux Troc Livres créé par les Rudologistes associés, Sophie Barbaux et Colas Baillieul, en février 2018. Cette bibliothèque urbaine se veut conviviale et partageuse et elle a été fabriquée comme la première installée à Saint-Loup 13010 Marseille, à partir de matériaux recyclés : un placard métallique percé pour y incruster une vitre et doté d étagères en bois et elle a été peinte par les enfants de la Maison d'Enfants à Caractère Social Les Mouettes, devant laquelle elle est installée.</desc>
  <type>delivrez bookcase</type>
  <extensions>
    <osmand:codetype>BSB</osmand:codetype>
    <osmand:color>#00842b</osmand:color>
    <osmand:background>square</osmand:background>
    <osmand:amenity_subtype>public_bookcase</osmand:amenity_subtype>
    <osmand:icon>public_bookcase</osmand:icon>
  </extensions>
</wpt>