<?xml version='1.0' encoding='UTF-8' standalone='yes' ?>
<gpx version="1.1" creator="Binnette" xmlns="http://www.topografix.com/GPX/1/1" xmlns:osmand="https://osmand.net" xmlns:xsi="http://www.w3.org/2001/XMLSchema-instance" xsi:schemaLocation="http://www.topografix.com/GPX/1/1 http://www.topografix.com/GPX/1/1/gpx.xsd">
  <wpt lat="48.283543" lon="6.95108">
    <name>Rue du Battant</name>
    <desc></desc>
    <type>Delivrez giveboxes</type>
    <extensions>
      <osmand:color>#0000ff</osmand:color>
      <osmand:background>square</osmand:background>
      <osmand:icon>outpost</osmand:icon>
    </extensions>
  </wpt>
  <wpt lat="47.867416" lon="6.795417">
    <name>Rue des Ormes</name>
    <desc></desc>
    <type>Delivrez giveboxes</type>
    <extensions>
      <osmand:color>#0000ff</osmand:color>
      <osmand:background>square</osmand:background>
      <osmand:icon>outpost</osmand:icon>
    </extensions>
  </wpt>
  <wpt lat="44.111095" lon="6.012644">
    <name>Place de l'Enfance</name>
    <desc></desc>
    <type>Delivrez giveboxes</type>
    <extensions>
      <osmand:color>#0000ff</osmand:color>
      <osmand:background>square</osmand:background>
      <osmand:icon>outpost</osmand:icon>
    </extensions>
  </wpt>
  <wpt lat="35.373678" lon="-77.98083">
    <name>South Pineview Avenue</name>
    <desc></desc>
    <type>Delivrez giveboxes</type>
    <extensions>
      <osmand:color>#0000ff</osmand:color>
      <osmand:background>square</osmand:background>
      <osmand:icon>outpost</osmand:icon>
    </extensions>
  </wpt>
  <wpt lat="44.412968" lon="5.354978">
    <name>Place Louis Latil</name>
    <desc></desc>
    <type>Delivrez giveboxes</type>
    <extensions>
      <osmand:color>#0000ff</osmand:color>
      <osmand:background>square</osmand:background>
      <osmand:icon>outpost</osmand:icon>
    </extensions>
  </wpt>
  <wpt lat="47.627142" lon="-2.740824">
    <name>Rue des Orchidées</name>
    <desc>devant l'accueil du camping</desc>
    <type>Delivrez giveboxes</type>
    <extensions>
      <osmand:color>#0000ff</osmand:color>
      <osmand:background>square</osmand:background>
      <osmand:icon>outpost</osmand:icon>
    </extensions>
  </wpt>
  <wpt lat="45.767927" lon="4.877938">
    <name>Rue Anatole France</name>
    <desc></desc>
    <type>Delivrez giveboxes</type>
    <extensions>
      <osmand:color>#0000ff</osmand:color>
      <osmand:background>square</osmand:background>
      <osmand:icon>outpost</osmand:icon>
    </extensions>
  </wpt>
  <wpt lat="45.904555" lon="5.176686">
    <name>Route de la Cité perouge</name>
    <desc></desc>
    <type>Delivrez giveboxes</type>
    <extensions>
      <osmand:color>#0000ff</osmand:color>
      <osmand:background>square</osmand:background>
      <osmand:icon>outpost</osmand:icon>
    </extensions>
  </wpt>
  <wpt lat="45.189471" lon="-0.136306">
    <name>Route de l'Ecole</name>
    <desc></desc>
    <type>Delivrez giveboxes</type>
    <extensions>
      <osmand:color>#0000ff</osmand:color>
      <osmand:background>square</osmand:background>
      <osmand:icon>outpost</osmand:icon>
    </extensions>
  </wpt>
  <wpt lat="47.664472" lon="6.50262">
    <name>Route de la Saline</name>
    <desc></desc>
    <type>Delivrez giveboxes</type>
    <extensions>
      <osmand:color>#0000ff</osmand:color>
      <osmand:background>square</osmand:background>
      <osmand:icon>outpost</osmand:icon>
    </extensions>
  </wpt>
  <wpt lat="47.670588" lon="6.476114">
    <name>Grande Rue</name>
    <desc>sur le mur de la maison</desc>
    <type>Delivrez giveboxes</type>
    <extensions>
      <osmand:color>#0000ff</osmand:color>
      <osmand:background>square</osmand:background>
      <osmand:icon>outpost</osmand:icon>
    </extensions>
  </wpt>
  <wpt lat="49.232399" lon="1.220847">
    <name>Grande Rue</name>
    <desc>a côté de la mairie</desc>
    <type>Delivrez giveboxes</type>
    <extensions>
      <osmand:color>#0000ff</osmand:color>
      <osmand:background>square</osmand:background>
      <osmand:icon>outpost</osmand:icon>
    </extensions>
  </wpt>
  <wpt lat="44.174929" lon="5.648917">
    <name>Route de Sisteron</name>
    <desc>a côté d'un abri bus</desc>
    <type>Delivrez giveboxes</type>
    <extensions>
      <osmand:color>#0000ff</osmand:color>
      <osmand:background>square</osmand:background>
      <osmand:icon>outpost</osmand:icon>
    </extensions>
  </wpt>
  <wpt lat="43.692922" lon="2.425922">
    <name>Place de la Mairie</name>
    <desc></desc>
    <type>Delivrez giveboxes</type>
    <extensions>
      <osmand:color>#0000ff</osmand:color>
      <osmand:background>square</osmand:background>
      <osmand:icon>outpost</osmand:icon>
    </extensions>
  </wpt>
  <wpt lat="47.639843" lon="6.85738">
    <name>Faubourg des Ancêtres</name>
    <desc>à côté de la BU</desc>
    <type>Delivrez giveboxes</type>
    <extensions>
      <osmand:color>#0000ff</osmand:color>
      <osmand:background>square</osmand:background>
      <osmand:icon>outpost</osmand:icon>
    </extensions>
  </wpt>
  <wpt lat="48.223474" lon="7.357278">
    <name>D6</name>
    <desc>Rodern</desc>
    <type>Delivrez giveboxes</type>
    <extensions>
      <osmand:color>#0000ff</osmand:color>
      <osmand:background>square</osmand:background>
      <osmand:icon>outpost</osmand:icon>
    </extensions>
  </wpt>
  <wpt lat="16.473252" lon="-61.506521">
    <name>Rue Felix Eboue</name>
    <desc>Près de la borne de retrait du Crédit agricole</desc>
    <type>Delivrez giveboxes</type>
    <extensions>
      <osmand:color>#0000ff</osmand:color>
      <osmand:background>square</osmand:background>
      <osmand:icon>outpost</osmand:icon>
    </extensions>
  </wpt>
  <wpt lat="50.350699" lon="2.58501">
    <name>D74E3</name>
    <desc></desc>
    <type>Delivrez giveboxes</type>
    <extensions>
      <osmand:color>#0000ff</osmand:color>
      <osmand:background>square</osmand:background>
      <osmand:icon>outpost</osmand:icon>
    </extensions>
  </wpt>
  <wpt lat="44.40666" lon="0.705122">
    <name>Rue de la Convention</name>
    <desc></desc>
    <type>Delivrez giveboxes</type>
    <extensions>
      <osmand:color>#0000ff</osmand:color>
      <osmand:background>square</osmand:background>
      <osmand:icon>outpost</osmand:icon>
    </extensions>
  </wpt>
  <wpt lat="46.72565" lon="-1.512839">
    <name>Place de l'Église</name>
    <desc></desc>
    <type>Delivrez giveboxes</type>
    <extensions>
      <osmand:color>#0000ff</osmand:color>
      <osmand:background>square</osmand:background>
      <osmand:icon>outpost</osmand:icon>
    </extensions>
  </wpt>
  <wpt lat="49.895578" lon="2.302313">
    <name>Rue du Hocquet</name>
    <desc>chalet solidarité</desc>
    <type>Delivrez giveboxes</type>
    <extensions>
      <osmand:color>#0000ff</osmand:color>
      <osmand:background>square</osmand:background>
      <osmand:icon>outpost</osmand:icon>
    </extensions>
  </wpt>
  <wpt lat="47.750768" lon="7.092944">
    <name>Rue Saint-Maurice</name>
    <desc>face caserne</desc>
    <type>Delivrez giveboxes</type>
    <extensions>
      <osmand:color>#0000ff</osmand:color>
      <osmand:background>square</osmand:background>
      <osmand:icon>outpost</osmand:icon>
    </extensions>
  </wpt>
  <wpt lat="44.111034" lon="6.014199">
    <name>Place de la petite enfance ( face à l'entrée de la</name>
    <desc>la gratuiterie est un espace où vous pouvez déposer des objets et/ou prendre des objets. Le tout sans échange d'argent. Tout est gratuit. C'est ouvert du mardi au vendredi matin de 9h à midi. Le mardi</desc>
    <type>Delivrez giveboxes</type>
    <extensions>
      <osmand:color>#0000ff</osmand:color>
      <osmand:background>square</osmand:background>
      <osmand:icon>outpost</osmand:icon>
    </extensions>
  </wpt>
  <wpt lat="46.527027" lon="-0.940539">
    <name>Boîte à dons</name>
    <desc></desc>
    <type>Delivrez giveboxes</type>
    <extensions>
      <osmand:color>#0000ff</osmand:color>
      <osmand:background>square</osmand:background>
      <osmand:icon>outpost</osmand:icon>
    </extensions>
  </wpt>
  <wpt lat="16.011527" lon="-61.710477">
    <name>Allée des Cocotiers</name>
    <desc>A l'entrée de l'allée</desc>
    <type>Delivrez giveboxes</type>
    <extensions>
      <osmand:color>#0000ff</osmand:color>
      <osmand:background>square</osmand:background>
      <osmand:icon>outpost</osmand:icon>
    </extensions>
  </wpt>
  <wpt lat="16.125968" lon="-61.773157">
    <name>Rue Valerius Paulimius</name>
    <desc>A l'entrée de la dechetterie de Bouillante</desc>
    <type>Delivrez giveboxes</type>
    <extensions>
      <osmand:color>#0000ff</osmand:color>
      <osmand:background>square</osmand:background>
      <osmand:icon>outpost</osmand:icon>
    </extensions>
  </wpt>
  <wpt lat="16.224303" lon="-61.778145">
    <name>Route de petit Plaine</name>
    <desc>Dans la dechetterie de Pointe Noire</desc>
    <type>Delivrez giveboxes</type>
    <extensions>
      <osmand:color>#0000ff</osmand:color>
      <osmand:background>square</osmand:background>
      <osmand:icon>outpost</osmand:icon>
    </extensions>
  </wpt>
  <wpt lat="49.442267" lon="1.101879">
    <name>jardin de l'eglise</name>
    <desc></desc>
    <type>Delivrez giveboxes</type>
    <extensions>
      <osmand:color>#0000ff</osmand:color>
      <osmand:background>square</osmand:background>
      <osmand:icon>outpost</osmand:icon>
    </extensions>
  </wpt>
  <wpt lat="45.334447" lon="3.267817">
    <name>Le bourg</name>
    <desc></desc>
    <type>Delivrez giveboxes</type>
    <extensions>
      <osmand:color>#0000ff</osmand:color>
      <osmand:background>square</osmand:background>
      <osmand:icon>outpost</osmand:icon>
    </extensions>
  </wpt>
  <wpt lat="47.98847" lon="0.19656">
    <name>Rue du Pont</name>
    <desc></desc>
    <type>Delivrez giveboxes</type>
    <extensions>
      <osmand:color>#0000ff</osmand:color>
      <osmand:background>square</osmand:background>
      <osmand:icon>outpost</osmand:icon>
    </extensions>
  </wpt>
  <wpt lat="44.442085" lon="6.353002">
    <name>1 Les Garreaux</name>
    <desc>dans l'agence postale Communale 8h15 11h45 du lundi au vendredi</desc>
    <type>Delivrez giveboxes</type>
    <extensions>
      <osmand:color>#0000ff</osmand:color>
      <osmand:background>square</osmand:background>
      <osmand:icon>outpost</osmand:icon>
    </extensions>
  </wpt>
  <wpt lat="50.189602" lon="5.006022">
    <name>gare de Houyet</name>
    <desc></desc>
    <type>Delivrez giveboxes</type>
    <extensions>
      <osmand:color>#0000ff</osmand:color>
      <osmand:background>square</osmand:background>
      <osmand:icon>outpost</osmand:icon>
    </extensions>
  </wpt>
  <wpt lat="47.133763" lon="-1.749523">
    <name>Avenue des Tilleuls</name>
    <desc>derrière l'école Jules Verne</desc>
    <type>Delivrez giveboxes</type>
    <extensions>
      <osmand:color>#0000ff</osmand:color>
      <osmand:background>square</osmand:background>
      <osmand:icon>outpost</osmand:icon>
    </extensions>
  </wpt>
  <wpt lat="50.654206" lon="3.07319">
    <name>Rue du Général de Gaulle</name>
    <desc>Face à la Mairie</desc>
    <type>Delivrez giveboxes</type>
    <extensions>
      <osmand:color>#0000ff</osmand:color>
      <osmand:background>square</osmand:background>
      <osmand:icon>outpost</osmand:icon>
    </extensions>
  </wpt>
  <wpt lat="47.666359" lon="-1.672767">
    <name>Rue de Redon</name>
    <desc>A côté de l'association socioculturelle La barakatous</desc>
    <type>Delivrez giveboxes</type>
    <extensions>
      <osmand:color>#0000ff</osmand:color>
      <osmand:background>square</osmand:background>
      <osmand:icon>outpost</osmand:icon>
    </extensions>
  </wpt>
  <wpt lat="44.504328" lon="6.110454">
    <name>Montée du Fraissy</name>
    <desc></desc>
    <type>Delivrez giveboxes</type>
    <extensions>
      <osmand:color>#0000ff</osmand:color>
      <osmand:background>square</osmand:background>
      <osmand:icon>outpost</osmand:icon>
    </extensions>
  </wpt>
  <wpt lat="46.134858" lon="0.062676">
    <name>D109</name>
    <desc>très belle et en très bon état !</desc>
    <type>Delivrez giveboxes</type>
    <extensions>
      <osmand:color>#0000ff</osmand:color>
      <osmand:background>square</osmand:background>
      <osmand:icon>outpost</osmand:icon>
    </extensions>
  </wpt>
  <wpt lat="43.956123" lon="5.77615">
    <name>Avenue du Général Charles de Gaulle</name>
    <desc>_</desc>
    <type>Delivrez giveboxes</type>
    <extensions>
      <osmand:color>#0000ff</osmand:color>
      <osmand:background>square</osmand:background>
      <osmand:icon>outpost</osmand:icon>
    </extensions>
  </wpt>
  <wpt lat="45.379704" lon="5.848263">
    <name>Chemin de la Seta</name>
    <desc>livres jouets vaisselle cd dvd</desc>
    <type>Delivrez giveboxes</type>
    <extensions>
      <osmand:color>#0000ff</osmand:color>
      <osmand:background>square</osmand:background>
      <osmand:icon>outpost</osmand:icon>
    </extensions>
  </wpt>
  <wpt lat="45.62172" lon="6.769639">
    <name>Rue de la Bourgeat</name>
    <desc>En face d'un portail de jardin</desc>
    <type>Delivrez giveboxes</type>
    <extensions>
      <osmand:color>#0000ff</osmand:color>
      <osmand:background>square</osmand:background>
      <osmand:icon>outpost</osmand:icon>
    </extensions>
  </wpt>
  <wpt lat="16.417825" lon="-61.532313">
    <name>Rue Victor Schoelcher</name>
    <desc>_</desc>
    <type>Delivrez giveboxes</type>
    <extensions>
      <osmand:color>#0000ff</osmand:color>
      <osmand:background>square</osmand:background>
      <osmand:icon>outpost</osmand:icon>
    </extensions>
  </wpt>
  <wpt lat="48.719464" lon="6.164283">
    <name>La Piscine - libre échange et don</name>
    <desc>tiers lieux associatif avec jardin, don et recyclage@@__5 avenue de metz 54320 maxeville</desc>
    <type>Delivrez giveboxes</type>
    <extensions>
      <osmand:color>#0000ff</osmand:color>
      <osmand:background>square</osmand:background>
      <osmand:icon>outpost</osmand:icon>
    </extensions>
  </wpt>
  <wpt lat="16.312539" lon="-61.37857">
    <name>Route de l'Écluse</name>
    <desc>A l'entrée de la dechetterie du Moule</desc>
    <type>Delivrez giveboxes</type>
    <extensions>
      <osmand:color>#0000ff</osmand:color>
      <osmand:background>square</osmand:background>
      <osmand:icon>outpost</osmand:icon>
    </extensions>
  </wpt>
  <wpt lat="43.113445" lon="0.708512">
    <name>Avenue Jacques Prévert</name>
    <desc>_</desc>
    <type>Delivrez giveboxes</type>
    <extensions>
      <osmand:color>#0000ff</osmand:color>
      <osmand:background>square</osmand:background>
      <osmand:icon>outpost</osmand:icon>
    </extensions>
  </wpt>
  <wpt lat="46.560958" lon="4.913456">
    <name>Rue Désiré Mathivet</name>
    <desc>_</desc>
    <type>Delivrez giveboxes</type>
    <extensions>
      <osmand:color>#0000ff</osmand:color>
      <osmand:background>square</osmand:background>
      <osmand:icon>outpost</osmand:icon>
    </extensions>
  </wpt>
  <wpt lat="48.865774" lon="2.380814">
    <name>Rue Dranem</name>
    <desc>au niveau du square Georges Sarre</desc>
    <type>Delivrez giveboxes</type>
    <extensions>
      <osmand:color>#0000ff</osmand:color>
      <osmand:background>square</osmand:background>
      <osmand:icon>outpost</osmand:icon>
    </extensions>
  </wpt>
  <wpt lat="49.251014" lon="3.766001">
    <name>boîte à dons</name>
    <desc>_</desc>
    <type>Delivrez giveboxes</type>
    <extensions>
      <osmand:color>#0000ff</osmand:color>
      <osmand:background>square</osmand:background>
      <osmand:icon>outpost</osmand:icon>
    </extensions>
  </wpt>
  <wpt lat="46.693115" lon="6.912097">
    <name>Route de la Gare</name>
    <desc>frigo solidaire et boîte a livre</desc>
    <type>Delivrez giveboxes</type>
    <extensions>
      <osmand:color>#0000ff</osmand:color>
      <osmand:background>square</osmand:background>
      <osmand:icon>outpost</osmand:icon>
    </extensions>
  </wpt>
  <wpt lat="48.052638" lon="-1.788643">
    <name>Place de la Mairie</name>
    <desc>_</desc>
    <type>Delivrez giveboxes</type>
    <extensions>
      <osmand:color>#0000ff</osmand:color>
      <osmand:background>square</osmand:background>
      <osmand:icon>outpost</osmand:icon>
    </extensions>
  </wpt>
  <wpt lat="48.07637" lon="-1.839946">
    <name>Avenue du Maréchal Leclerc</name>
    <desc>_</desc>
    <type>Delivrez giveboxes</type>
    <extensions>
      <osmand:color>#0000ff</osmand:color>
      <osmand:background>square</osmand:background>
      <osmand:icon>outpost</osmand:icon>
    </extensions>
  </wpt>
  <wpt lat="44.134222" lon="6.342268">
    <name>Boite à dons</name>
    <desc>_</desc>
    <type>Delivrez giveboxes</type>
    <extensions>
      <osmand:color>#0000ff</osmand:color>
      <osmand:background>square</osmand:background>
      <osmand:icon>outpost</osmand:icon>
    </extensions>
  </wpt>
  <wpt lat="43.310162" lon="-0.388684">
    <name>Avenue Lalanne</name>
    <desc>_</desc>
    <type>Delivrez giveboxes</type>
    <extensions>
      <osmand:color>#0000ff</osmand:color>
      <osmand:background>square</osmand:background>
      <osmand:icon>outpost</osmand:icon>
    </extensions>
  </wpt>
  <wpt lat="47.885767" lon="7.058962">
    <name>Rue de Saint-Amarin</name>
    <desc>9 h 12 h tout les samedis</desc>
    <type>Delivrez giveboxes</type>
    <extensions>
      <osmand:color>#0000ff</osmand:color>
      <osmand:background>square</osmand:background>
      <osmand:icon>outpost</osmand:icon>
    </extensions>
  </wpt>
  <wpt lat="48.827205" lon="2.278442">
    <name>boite à dons</name>
    <desc>_</desc>
    <type>Delivrez giveboxes</type>
    <extensions>
      <osmand:color>#0000ff</osmand:color>
      <osmand:background>square</osmand:background>
      <osmand:icon>outpost</osmand:icon>
    </extensions>
  </wpt>
  <wpt lat="42.98725" lon="-0.106029">
    <name>Cami d'Azun</name>
    <desc>boite à dons avec boîte à livre</desc>
    <type>Delivrez giveboxes</type>
    <extensions>
      <osmand:color>#0000ff</osmand:color>
      <osmand:background>square</osmand:background>
      <osmand:icon>outpost</osmand:icon>
    </extensions>
  </wpt>
  <wpt lat="42.963066" lon="-0.068021">
    <name>Prats</name>
    <desc>proche des sculptures</desc>
    <type>Delivrez giveboxes</type>
    <extensions>
      <osmand:color>#0000ff</osmand:color>
      <osmand:background>square</osmand:background>
      <osmand:icon>outpost</osmand:icon>
    </extensions>
  </wpt>
  <wpt lat="43.000704" lon="-0.088865">
    <name>Rue du Neouvielle</name>
    <desc>derrière le local poubelle HLM</desc>
    <type>Delivrez giveboxes</type>
    <extensions>
      <osmand:color>#0000ff</osmand:color>
      <osmand:background>square</osmand:background>
      <osmand:icon>outpost</osmand:icon>
    </extensions>
  </wpt>
  <wpt lat="45.778678" lon="4.874672">
    <name>Rue de la doua</name>
    <desc>toi toi le zinc</desc>
    <type>Delivrez giveboxes</type>
    <extensions>
      <osmand:color>#0000ff</osmand:color>
      <osmand:background>square</osmand:background>
      <osmand:icon>outpost</osmand:icon>
    </extensions>
  </wpt>
  <wpt lat="49.01196" lon="1.90821">
    <name>boite a dons dans le parking Auchan au fond</name>
    <desc>_</desc>
    <type>Delivrez giveboxes</type>
    <extensions>
      <osmand:color>#0000ff</osmand:color>
      <osmand:background>square</osmand:background>
      <osmand:icon>outpost</osmand:icon>
    </extensions>
  </wpt>
  <wpt lat="47.876956" lon="6.774501">
    <name>Rue de Lorraine</name>
    <desc>sur la parking  gp moto</desc>
    <type>Delivrez giveboxes</type>
    <extensions>
      <osmand:color>#0000ff</osmand:color>
      <osmand:background>square</osmand:background>
      <osmand:icon>outpost</osmand:icon>
    </extensions>
  </wpt>
  <wpt lat="48.945407" lon="1.527645">
    <name>Rue René Dhal</name>
    <desc>boite a don a côté de la pharmacie</desc>
    <type>Delivrez giveboxes</type>
    <extensions>
      <osmand:color>#0000ff</osmand:color>
      <osmand:background>square</osmand:background>
      <osmand:icon>outpost</osmand:icon>
    </extensions>
  </wpt>
  <wpt lat="44.82065" lon="6.165885">
    <name>Rue de Pétarel</name>
    <desc>au dessus de la fontaine sur une fenêtre</desc>
    <type>Delivrez giveboxes</type>
    <extensions>
      <osmand:color>#0000ff</osmand:color>
      <osmand:background>square</osmand:background>
      <osmand:icon>outpost</osmand:icon>
    </extensions>
  </wpt>
  <wpt lat="44.817678" lon="-0.589479">
    <name>Rue Roustaing</name>
    <desc>_</desc>
    <type>Delivrez giveboxes</type>
    <extensions>
      <osmand:color>#0000ff</osmand:color>
      <osmand:background>square</osmand:background>
      <osmand:icon>outpost</osmand:icon>
    </extensions>
  </wpt>
  <wpt lat="49.504172" lon="5.98769">
    <name>Give box Kulturfabrik</name>
    <desc>ancienne cabine téléphone à l'entrée du centre culturel Kulturfabrik</desc>
    <type>Delivrez giveboxes</type>
    <extensions>
      <osmand:color>#0000ff</osmand:color>
      <osmand:background>square</osmand:background>
      <osmand:icon>outpost</osmand:icon>
    </extensions>
  </wpt>
  <wpt lat="41.919675" lon="8.737047">
    <name>Cours Napoléon</name>
    <desc>en face la préfecture. accolé au Bistrot du cour</desc>
    <type>Delivrez giveboxes</type>
    <extensions>
      <osmand:color>#0000ff</osmand:color>
      <osmand:background>square</osmand:background>
      <osmand:icon>outpost</osmand:icon>
    </extensions>
  </wpt>
  <wpt lat="49.017556" lon="5.677918">
    <name>gratuité</name>
    <desc>lieu convivial</desc>
    <type>Delivrez giveboxes</type>
    <extensions>
      <osmand:color>#0000ff</osmand:color>
      <osmand:background>square</osmand:background>
      <osmand:icon>outpost</osmand:icon>
    </extensions>
  </wpt>
  <wpt lat="45.726012" lon="6.527709">
    <name>D123</name>
    <desc>avec le café associatif</desc>
    <type>Delivrez giveboxes</type>
    <extensions>
      <osmand:color>#0000ff</osmand:color>
      <osmand:background>square</osmand:background>
      <osmand:icon>outpost</osmand:icon>
    </extensions>
  </wpt>
  <wpt lat="45.71799" lon="6.575077">
    <name>Avenue du Capitaine Bulle</name>
    <desc>en face office du tourisme</desc>
    <type>Delivrez giveboxes</type>
    <extensions>
      <osmand:color>#0000ff</osmand:color>
      <osmand:background>square</osmand:background>
      <osmand:icon>outpost</osmand:icon>
    </extensions>
  </wpt>
  <wpt lat="48.041992" lon="7.30952">
    <name>Grand-Rue</name>
    <desc>à côté des pompiers</desc>
    <type>Delivrez giveboxes</type>
    <extensions>
      <osmand:color>#0000ff</osmand:color>
      <osmand:background>square</osmand:background>
      <osmand:icon>outpost</osmand:icon>
    </extensions>
  </wpt>
  <wpt lat="43.953505" lon="4.47699">
    <name>Place de l'Église</name>
    <desc>Place l'église sous le tilleul</desc>
    <type>Delivrez giveboxes</type>
    <extensions>
      <osmand:color>#0000ff</osmand:color>
      <osmand:background>square</osmand:background>
      <osmand:icon>outpost</osmand:icon>
    </extensions>
  </wpt>
  <wpt lat="50.705393" lon="4.942712">
    <name>Rue de Hannut</name>
    <desc>boite à jeux</desc>
    <type>Delivrez giveboxes</type>
    <extensions>
      <osmand:color>#0000ff</osmand:color>
      <osmand:background>square</osmand:background>
      <osmand:icon>outpost</osmand:icon>
    </extensions>
  </wpt>
  <wpt lat="47.991314" lon="5.293179">
    <name>recherche grillage à poule</name>
    <desc>bonjour, je recherche grillage à poule de minimum 1m15 de long.</desc>
    <type>Delivrez giveboxes</type>
    <extensions>
      <osmand:color>#0000ff</osmand:color>
      <osmand:background>square</osmand:background>
      <osmand:icon>outpost</osmand:icon>
    </extensions>
  </wpt>
  <wpt lat="35.582212" lon="-82.599185">
    <name>#littlefreegardenstand</name>
    <desc>Books, vegetables, flowers, seed, canned goods, seedlings</desc>
    <type>Delivrez giveboxes</type>
    <extensions>
      <osmand:color>#0000ff</osmand:color>
      <osmand:background>square</osmand:background>
      <osmand:icon>outpost</osmand:icon>
    </extensions>
  </wpt>
  <wpt lat="32.430887" lon="-80.671807">
    <name>Free Pantry</name>
    <desc> Blessing Box Project</desc>
    <type>Delivrez giveboxes</type>
    <extensions>
      <osmand:color>#0000ff</osmand:color>
      <osmand:background>square</osmand:background>
      <osmand:icon>outpost</osmand:icon>
    </extensions>
  </wpt>
  <wpt lat="33.117574" lon="-80.253803">
    <name>Free Pantry</name>
    <desc> Blessing Box Project</desc>
    <type>Delivrez giveboxes</type>
    <extensions>
      <osmand:color>#0000ff</osmand:color>
      <osmand:background>square</osmand:background>
      <osmand:icon>outpost</osmand:icon>
    </extensions>
  </wpt>
  <wpt lat="34.328809" lon="-80.103467">
    <name>Free Pantry</name>
    <desc> Blessing Box Project</desc>
    <type>Delivrez giveboxes</type>
    <extensions>
      <osmand:color>#0000ff</osmand:color>
      <osmand:background>square</osmand:background>
      <osmand:icon>outpost</osmand:icon>
    </extensions>
  </wpt>
  <wpt lat="34.197949" lon="-79.748083">
    <name>Free Pantry</name>
    <desc> Blessing Box Project</desc>
    <type>Delivrez giveboxes</type>
    <extensions>
      <osmand:color>#0000ff</osmand:color>
      <osmand:background>square</osmand:background>
      <osmand:icon>outpost</osmand:icon>
    </extensions>
  </wpt>
  <wpt lat="32.808403" lon="-79.94843">
    <name>Free Pantry</name>
    <desc> Blessing Box Project</desc>
    <type>Delivrez giveboxes</type>
    <extensions>
      <osmand:color>#0000ff</osmand:color>
      <osmand:background>square</osmand:background>
      <osmand:icon>outpost</osmand:icon>
    </extensions>
  </wpt>
  <wpt lat="32.889847" lon="-79.986101">
    <name>Free Pantry</name>
    <desc> Blessing Box Project</desc>
    <type>Delivrez giveboxes</type>
    <extensions>
      <osmand:color>#0000ff</osmand:color>
      <osmand:background>square</osmand:background>
      <osmand:icon>outpost</osmand:icon>
    </extensions>
  </wpt>
  <wpt lat="33.098848" lon="-80.310754">
    <name>Free Pantry</name>
    <desc> Blessing Box Project</desc>
    <type>Delivrez giveboxes</type>
    <extensions>
      <osmand:color>#0000ff</osmand:color>
      <osmand:background>square</osmand:background>
      <osmand:icon>outpost</osmand:icon>
    </extensions>
  </wpt>
  <wpt lat="33.027273" lon="-80.173622">
    <name>Free Pantry</name>
    <desc> Blessing Box Project</desc>
    <type>Delivrez giveboxes</type>
    <extensions>
      <osmand:color>#0000ff</osmand:color>
      <osmand:background>square</osmand:background>
      <osmand:icon>outpost</osmand:icon>
    </extensions>
  </wpt>
  <wpt lat="32.983044" lon="-79.65821">
    <name>Free Pantry</name>
    <desc> Blessing Box Project</desc>
    <type>Delivrez giveboxes</type>
    <extensions>
      <osmand:color>#0000ff</osmand:color>
      <osmand:background>square</osmand:background>
      <osmand:icon>outpost</osmand:icon>
    </extensions>
  </wpt>
  <wpt lat="33.183558" lon="-80.570816">
    <name>Free Pantry</name>
    <desc> Blessing Box Project</desc>
    <type>Delivrez giveboxes</type>
    <extensions>
      <osmand:color>#0000ff</osmand:color>
      <osmand:background>square</osmand:background>
      <osmand:icon>outpost</osmand:icon>
    </extensions>
  </wpt>
  <wpt lat="32.436522" lon="-80.681297">
    <name>Free Pantry</name>
    <desc> Blessing Box Project</desc>
    <type>Delivrez giveboxes</type>
    <extensions>
      <osmand:color>#0000ff</osmand:color>
      <osmand:background>square</osmand:background>
      <osmand:icon>outpost</osmand:icon>
    </extensions>
  </wpt>
  <wpt lat="32.99862" lon="-79.8481">
    <name>Free Pantry</name>
    <desc> Blessing Box Project</desc>
    <type>Delivrez giveboxes</type>
    <extensions>
      <osmand:color>#0000ff</osmand:color>
      <osmand:background>square</osmand:background>
      <osmand:icon>outpost</osmand:icon>
    </extensions>
  </wpt>
  <wpt lat="33.126942" lon="-80.144342">
    <name>Free Pantry</name>
    <desc> Blessing Box Project</desc>
    <type>Delivrez giveboxes</type>
    <extensions>
      <osmand:color>#0000ff</osmand:color>
      <osmand:background>square</osmand:background>
      <osmand:icon>outpost</osmand:icon>
    </extensions>
  </wpt>
  <wpt lat="33.107311" lon="-80.188226">
    <name>Free Pantry</name>
    <desc> Blessing Box Project</desc>
    <type>Delivrez giveboxes</type>
    <extensions>
      <osmand:color>#0000ff</osmand:color>
      <osmand:background>square</osmand:background>
      <osmand:icon>outpost</osmand:icon>
    </extensions>
  </wpt>
  <wpt lat="32.749276" lon="-81.637564">
    <name>Free Pantry</name>
    <desc> Blessing Box Project</desc>
    <type>Delivrez giveboxes</type>
    <extensions>
      <osmand:color>#0000ff</osmand:color>
      <osmand:background>square</osmand:background>
      <osmand:icon>outpost</osmand:icon>
    </extensions>
  </wpt>
  <wpt lat="32.752136" lon="-81.633809">
    <name>Free Pantry</name>
    <desc> Blessing Box Project</desc>
    <type>Delivrez giveboxes</type>
    <extensions>
      <osmand:color>#0000ff</osmand:color>
      <osmand:background>square</osmand:background>
      <osmand:icon>outpost</osmand:icon>
    </extensions>
  </wpt>
  <wpt lat="33.373045" lon="-80.214308">
    <name>Free Pantry</name>
    <desc> Blessing Box Project</desc>
    <type>Delivrez giveboxes</type>
    <extensions>
      <osmand:color>#0000ff</osmand:color>
      <osmand:background>square</osmand:background>
      <osmand:icon>outpost</osmand:icon>
    </extensions>
  </wpt>
  <wpt lat="33.051872" lon="-80.492303">
    <name>Free Pantry</name>
    <desc> Blessing Box Project</desc>
    <type>Delivrez giveboxes</type>
    <extensions>
      <osmand:color>#0000ff</osmand:color>
      <osmand:background>square</osmand:background>
      <osmand:icon>outpost</osmand:icon>
    </extensions>
  </wpt>
  <wpt lat="32.98028" lon="-80.847068">
    <name>Free Pantry</name>
    <desc> Blessing Box Project</desc>
    <type>Delivrez giveboxes</type>
    <extensions>
      <osmand:color>#0000ff</osmand:color>
      <osmand:background>square</osmand:background>
      <osmand:icon>outpost</osmand:icon>
    </extensions>
  </wpt>
  <wpt lat="32.862276" lon="-79.988387">
    <name>Free Pantry</name>
    <desc> Blessing Box Project</desc>
    <type>Delivrez giveboxes</type>
    <extensions>
      <osmand:color>#0000ff</osmand:color>
      <osmand:background>square</osmand:background>
      <osmand:icon>outpost</osmand:icon>
    </extensions>
  </wpt>
  <wpt lat="32.927568" lon="-81.191345">
    <name>Free Pantry</name>
    <desc> Blessing Box Project</desc>
    <type>Delivrez giveboxes</type>
    <extensions>
      <osmand:color>#0000ff</osmand:color>
      <osmand:background>square</osmand:background>
      <osmand:icon>outpost</osmand:icon>
    </extensions>
  </wpt>
  <wpt lat="32.844569" lon="-79.813451">
    <name>Free Pantry</name>
    <desc> Blessing Box Project</desc>
    <type>Delivrez giveboxes</type>
    <extensions>
      <osmand:color>#0000ff</osmand:color>
      <osmand:background>square</osmand:background>
      <osmand:icon>outpost</osmand:icon>
    </extensions>
  </wpt>
  <wpt lat="32.83759" lon="-79.956888">
    <name>Free Pantry</name>
    <desc> Blessing Box Project</desc>
    <type>Delivrez giveboxes</type>
    <extensions>
      <osmand:color>#0000ff</osmand:color>
      <osmand:background>square</osmand:background>
      <osmand:icon>outpost</osmand:icon>
    </extensions>
  </wpt>
  <wpt lat="32.825835" lon="-79.838193">
    <name>Free Pantry</name>
    <desc> Blessing Box Project</desc>
    <type>Delivrez giveboxes</type>
    <extensions>
      <osmand:color>#0000ff</osmand:color>
      <osmand:background>square</osmand:background>
      <osmand:icon>outpost</osmand:icon>
    </extensions>
  </wpt>
  <wpt lat="32.840891" lon="-79.957806">
    <name>Free Pantry</name>
    <desc> Blessing Box Project</desc>
    <type>Delivrez giveboxes</type>
    <extensions>
      <osmand:color>#0000ff</osmand:color>
      <osmand:background>square</osmand:background>
      <osmand:icon>outpost</osmand:icon>
    </extensions>
  </wpt>
  <wpt lat="32.924482" lon="-80.04369">
    <name>Free Pantry</name>
    <desc> Blessing Box Project</desc>
    <type>Delivrez giveboxes</type>
    <extensions>
      <osmand:color>#0000ff</osmand:color>
      <osmand:background>square</osmand:background>
      <osmand:icon>outpost</osmand:icon>
    </extensions>
  </wpt>
  <wpt lat="32.839513" lon="-80.062803">
    <name>Free Pantry</name>
    <desc> Blessing Box Project</desc>
    <type>Delivrez giveboxes</type>
    <extensions>
      <osmand:color>#0000ff</osmand:color>
      <osmand:background>square</osmand:background>
      <osmand:icon>outpost</osmand:icon>
    </extensions>
  </wpt>
  <wpt lat="32.834054" lon="-80.229376">
    <name>Free Pantry</name>
    <desc> Blessing Box Project</desc>
    <type>Delivrez giveboxes</type>
    <extensions>
      <osmand:color>#0000ff</osmand:color>
      <osmand:background>square</osmand:background>
      <osmand:icon>outpost</osmand:icon>
    </extensions>
  </wpt>
  <wpt lat="32.849283" lon="-79.993853">
    <name>Free Pantry</name>
    <desc> Blessing Box Project</desc>
    <type>Delivrez giveboxes</type>
    <extensions>
      <osmand:color>#0000ff</osmand:color>
      <osmand:background>square</osmand:background>
      <osmand:icon>outpost</osmand:icon>
    </extensions>
  </wpt>
  <wpt lat="32.803294" lon="-80.03892">
    <name>Free Pantry</name>
    <desc> Blessing Box Project</desc>
    <type>Delivrez giveboxes</type>
    <extensions>
      <osmand:color>#0000ff</osmand:color>
      <osmand:background>square</osmand:background>
      <osmand:icon>outpost</osmand:icon>
    </extensions>
  </wpt>
  <wpt lat="32.782749" lon="-80.022271">
    <name>Free Pantry</name>
    <desc> Blessing Box Project</desc>
    <type>Delivrez giveboxes</type>
    <extensions>
      <osmand:color>#0000ff</osmand:color>
      <osmand:background>square</osmand:background>
      <osmand:icon>outpost</osmand:icon>
    </extensions>
  </wpt>
  <wpt lat="33.693652" lon="-80.211386">
    <name>Free Pantry</name>
    <desc> Blessing Box Project</desc>
    <type>Delivrez giveboxes</type>
    <extensions>
      <osmand:color>#0000ff</osmand:color>
      <osmand:background>square</osmand:background>
      <osmand:icon>outpost</osmand:icon>
    </extensions>
  </wpt>
  <wpt lat="32.859765" lon="-79.999581">
    <name>Free Pantry</name>
    <desc> Blessing Box Project</desc>
    <type>Delivrez giveboxes</type>
    <extensions>
      <osmand:color>#0000ff</osmand:color>
      <osmand:background>square</osmand:background>
      <osmand:icon>outpost</osmand:icon>
    </extensions>
  </wpt>
  <wpt lat="33.476479" lon="-80.457354">
    <name>Free Pantry</name>
    <desc> Blessing Box Project</desc>
    <type>Delivrez giveboxes</type>
    <extensions>
      <osmand:color>#0000ff</osmand:color>
      <osmand:background>square</osmand:background>
      <osmand:icon>outpost</osmand:icon>
    </extensions>
  </wpt>
  <wpt lat="32.981883" lon="-80.155546">
    <name>Free Pantry</name>
    <desc> Blessing Box Project</desc>
    <type>Delivrez giveboxes</type>
    <extensions>
      <osmand:color>#0000ff</osmand:color>
      <osmand:background>square</osmand:background>
      <osmand:icon>outpost</osmand:icon>
    </extensions>
  </wpt>
  <wpt lat="32.991486" lon="-80.179475">
    <name>Free Pantry</name>
    <desc> Blessing Box Project</desc>
    <type>Delivrez giveboxes</type>
    <extensions>
      <osmand:color>#0000ff</osmand:color>
      <osmand:background>square</osmand:background>
      <osmand:icon>outpost</osmand:icon>
    </extensions>
  </wpt>
  <wpt lat="33.009106" lon="-80.158775">
    <name>Free Pantry</name>
    <desc> Blessing Box Project</desc>
    <type>Delivrez giveboxes</type>
    <extensions>
      <osmand:color>#0000ff</osmand:color>
      <osmand:background>square</osmand:background>
      <osmand:icon>outpost</osmand:icon>
    </extensions>
  </wpt>
  <wpt lat="32.875143" lon="-79.990654">
    <name>Free Pantry</name>
    <desc> Blessing Box Project</desc>
    <type>Delivrez giveboxes</type>
    <extensions>
      <osmand:color>#0000ff</osmand:color>
      <osmand:background>square</osmand:background>
      <osmand:icon>outpost</osmand:icon>
    </extensions>
  </wpt>
  <wpt lat="32.996547" lon="-80.216141">
    <name>Free Pantry</name>
    <desc> Blessing Box Project</desc>
    <type>Delivrez giveboxes</type>
    <extensions>
      <osmand:color>#0000ff</osmand:color>
      <osmand:background>square</osmand:background>
      <osmand:icon>outpost</osmand:icon>
    </extensions>
  </wpt>
  <wpt lat="33.011956" lon="-80.339019">
    <name>Free Pantry</name>
    <desc> Blessing Box Project</desc>
    <type>Delivrez giveboxes</type>
    <extensions>
      <osmand:color>#0000ff</osmand:color>
      <osmand:background>square</osmand:background>
      <osmand:icon>outpost</osmand:icon>
    </extensions>
  </wpt>
  <wpt lat="33.009206" lon="-80.182799">
    <name>Free Pantry</name>
    <desc> Blessing Box Project</desc>
    <type>Delivrez giveboxes</type>
    <extensions>
      <osmand:color>#0000ff</osmand:color>
      <osmand:background>square</osmand:background>
      <osmand:icon>outpost</osmand:icon>
    </extensions>
  </wpt>
  <wpt lat="33.913377" lon="-81.102135">
    <name>Free Pantry</name>
    <desc> Blessing Box Project</desc>
    <type>Delivrez giveboxes</type>
    <extensions>
      <osmand:color>#0000ff</osmand:color>
      <osmand:background>square</osmand:background>
      <osmand:icon>outpost</osmand:icon>
    </extensions>
  </wpt>
  <wpt lat="33.021094" lon="-80.345701">
    <name>Free Pantry</name>
    <desc> Blessing Box Project</desc>
    <type>Delivrez giveboxes</type>
    <extensions>
      <osmand:color>#0000ff</osmand:color>
      <osmand:background>square</osmand:background>
      <osmand:icon>outpost</osmand:icon>
    </extensions>
  </wpt>
  <wpt lat="33.145666" lon="-80.027305">
    <name>Free Pantry</name>
    <desc> Blessing Box Project</desc>
    <type>Delivrez giveboxes</type>
    <extensions>
      <osmand:color>#0000ff</osmand:color>
      <osmand:background>square</osmand:background>
      <osmand:icon>outpost</osmand:icon>
    </extensions>
  </wpt>
  <wpt lat="32.910566" lon="-80.111617">
    <name>Free Pantry</name>
    <desc> Blessing Box Project</desc>
    <type>Delivrez giveboxes</type>
    <extensions>
      <osmand:color>#0000ff</osmand:color>
      <osmand:background>square</osmand:background>
      <osmand:icon>outpost</osmand:icon>
    </extensions>
  </wpt>
  <wpt lat="34.338698" lon="-79.435124">
    <name>Free Pantry</name>
    <desc> Blessing Box Project</desc>
    <type>Delivrez giveboxes</type>
    <extensions>
      <osmand:color>#0000ff</osmand:color>
      <osmand:background>square</osmand:background>
      <osmand:icon>outpost</osmand:icon>
    </extensions>
  </wpt>
  <wpt lat="33.399527" lon="-79.922112">
    <name>Free Pantry</name>
    <desc> Blessing Box Project</desc>
    <type>Delivrez giveboxes</type>
    <extensions>
      <osmand:color>#0000ff</osmand:color>
      <osmand:background>square</osmand:background>
      <osmand:icon>outpost</osmand:icon>
    </extensions>
  </wpt>
  <wpt lat="34.784313" lon="-82.352972">
    <name>Free Pantry</name>
    <desc> Blessing Box Project</desc>
    <type>Delivrez giveboxes</type>
    <extensions>
      <osmand:color>#0000ff</osmand:color>
      <osmand:background>square</osmand:background>
      <osmand:icon>outpost</osmand:icon>
    </extensions>
  </wpt>
  <wpt lat="34.504079" lon="-81.994576">
    <name>Free Pantry</name>
    <desc> Blessing Box Project</desc>
    <type>Delivrez giveboxes</type>
    <extensions>
      <osmand:color>#0000ff</osmand:color>
      <osmand:background>square</osmand:background>
      <osmand:icon>outpost</osmand:icon>
    </extensions>
  </wpt>
  <wpt lat="34.530972" lon="-82.194729">
    <name>Free Pantry</name>
    <desc> Blessing Box Project</desc>
    <type>Delivrez giveboxes</type>
    <extensions>
      <osmand:color>#0000ff</osmand:color>
      <osmand:background>square</osmand:background>
      <osmand:icon>outpost</osmand:icon>
    </extensions>
  </wpt>
  <wpt lat="33.430117" lon="-80.02428">
    <name>Free Pantry</name>
    <desc> Blessing Box Project</desc>
    <type>Delivrez giveboxes</type>
    <extensions>
      <osmand:color>#0000ff</osmand:color>
      <osmand:background>square</osmand:background>
      <osmand:icon>outpost</osmand:icon>
    </extensions>
  </wpt>
  <wpt lat="32.994482" lon="-80.185552">
    <name>Free Pantry</name>
    <desc> Blessing Box Project</desc>
    <type>Delivrez giveboxes</type>
    <extensions>
      <osmand:color>#0000ff</osmand:color>
      <osmand:background>square</osmand:background>
      <osmand:icon>outpost</osmand:icon>
    </extensions>
  </wpt>
  <wpt lat="32.783684" lon="-79.932981">
    <name>Free Pantry</name>
    <desc> Blessing Box Project</desc>
    <type>Delivrez giveboxes</type>
    <extensions>
      <osmand:color>#0000ff</osmand:color>
      <osmand:background>square</osmand:background>
      <osmand:icon>outpost</osmand:icon>
    </extensions>
  </wpt>
  <wpt lat="32.941646" lon="-80.472922">
    <name>Free Pantry</name>
    <desc> Blessing Box Project</desc>
    <type>Delivrez giveboxes</type>
    <extensions>
      <osmand:color>#0000ff</osmand:color>
      <osmand:background>square</osmand:background>
      <osmand:icon>outpost</osmand:icon>
    </extensions>
  </wpt>
  <wpt lat="33.014246" lon="-80.18887">
    <name>Free Pantry</name>
    <desc> Blessing Box Project</desc>
    <type>Delivrez giveboxes</type>
    <extensions>
      <osmand:color>#0000ff</osmand:color>
      <osmand:background>square</osmand:background>
      <osmand:icon>outpost</osmand:icon>
    </extensions>
  </wpt>
  <wpt lat="32.816983" lon="-79.988203">
    <name>Free Pantry</name>
    <desc> Blessing Box Project</desc>
    <type>Delivrez giveboxes</type>
    <extensions>
      <osmand:color>#0000ff</osmand:color>
      <osmand:background>square</osmand:background>
      <osmand:icon>outpost</osmand:icon>
    </extensions>
  </wpt>
  <wpt lat="32.732059" lon="-80.061241">
    <name>Free Pantry</name>
    <desc> Blessing Box Project</desc>
    <type>Delivrez giveboxes</type>
    <extensions>
      <osmand:color>#0000ff</osmand:color>
      <osmand:background>square</osmand:background>
      <osmand:icon>outpost</osmand:icon>
    </extensions>
  </wpt>
  <wpt lat="33.487781" lon="-80.476131">
    <name>Free Pantry</name>
    <desc> Blessing Box Project</desc>
    <type>Delivrez giveboxes</type>
    <extensions>
      <osmand:color>#0000ff</osmand:color>
      <osmand:background>square</osmand:background>
      <osmand:icon>outpost</osmand:icon>
    </extensions>
  </wpt>
  <wpt lat="32.855477" lon="-79.977372">
    <name>Free Pantry</name>
    <desc> Blessing Box Project</desc>
    <type>Delivrez giveboxes</type>
    <extensions>
      <osmand:color>#0000ff</osmand:color>
      <osmand:background>square</osmand:background>
      <osmand:icon>outpost</osmand:icon>
    </extensions>
  </wpt>
  <wpt lat="32.922695" lon="-80.069256">
    <name>Free Pantry</name>
    <desc> Blessing Box Project</desc>
    <type>Delivrez giveboxes</type>
    <extensions>
      <osmand:color>#0000ff</osmand:color>
      <osmand:background>square</osmand:background>
      <osmand:icon>outpost</osmand:icon>
    </extensions>
  </wpt>
  <wpt lat="32.989609" lon="-80.035721">
    <name>Free Pantry</name>
    <desc> Blessing Box Project</desc>
    <type>Delivrez giveboxes</type>
    <extensions>
      <osmand:color>#0000ff</osmand:color>
      <osmand:background>square</osmand:background>
      <osmand:icon>outpost</osmand:icon>
    </extensions>
  </wpt>
  <wpt lat="32.902738" lon="-80.081706">
    <name>Free Pantry</name>
    <desc> Blessing Box Project</desc>
    <type>Delivrez giveboxes</type>
    <extensions>
      <osmand:color>#0000ff</osmand:color>
      <osmand:background>square</osmand:background>
      <osmand:icon>outpost</osmand:icon>
    </extensions>
  </wpt>
  <wpt lat="32.962672" lon="-80.047467">
    <name>Free Pantry</name>
    <desc> Blessing Box Project</desc>
    <type>Delivrez giveboxes</type>
    <extensions>
      <osmand:color>#0000ff</osmand:color>
      <osmand:background>square</osmand:background>
      <osmand:icon>outpost</osmand:icon>
    </extensions>
  </wpt>
  <wpt lat="32.798729" lon="-80.015463">
    <name>Free Pantry</name>
    <desc> Blessing Box Project</desc>
    <type>Delivrez giveboxes</type>
    <extensions>
      <osmand:color>#0000ff</osmand:color>
      <osmand:background>square</osmand:background>
      <osmand:icon>outpost</osmand:icon>
    </extensions>
  </wpt>
  <wpt lat="32.782702" lon="-79.93756">
    <name>Free Pantry</name>
    <desc> Blessing Box Project</desc>
    <type>Delivrez giveboxes</type>
    <extensions>
      <osmand:color>#0000ff</osmand:color>
      <osmand:background>square</osmand:background>
      <osmand:icon>outpost</osmand:icon>
    </extensions>
  </wpt>
  <wpt lat="34.462379" lon="-79.99501">
    <name>Free Pantry</name>
    <desc> Blessing Box Project</desc>
    <type>Delivrez giveboxes</type>
    <extensions>
      <osmand:color>#0000ff</osmand:color>
      <osmand:background>square</osmand:background>
      <osmand:icon>outpost</osmand:icon>
    </extensions>
  </wpt>
  <wpt lat="32.960606" lon="-80.136981">
    <name>Free Pantry</name>
    <desc> Blessing Box Project</desc>
    <type>Delivrez giveboxes</type>
    <extensions>
      <osmand:color>#0000ff</osmand:color>
      <osmand:background>square</osmand:background>
      <osmand:icon>outpost</osmand:icon>
    </extensions>
  </wpt>
  <wpt lat="33.199501" lon="-79.99696">
    <name>Free Pantry</name>
    <desc> Blessing Box Project</desc>
    <type>Delivrez giveboxes</type>
    <extensions>
      <osmand:color>#0000ff</osmand:color>
      <osmand:background>square</osmand:background>
      <osmand:icon>outpost</osmand:icon>
    </extensions>
  </wpt>
  <wpt lat="32.880679" lon="-79.978892">
    <name>Free Pantry</name>
    <desc> Blessing Box Project</desc>
    <type>Delivrez giveboxes</type>
    <extensions>
      <osmand:color>#0000ff</osmand:color>
      <osmand:background>square</osmand:background>
      <osmand:icon>outpost</osmand:icon>
    </extensions>
  </wpt>
  <wpt lat="32.864866" lon="-79.978258">
    <name>Free Pantry</name>
    <desc> Blessing Box Project</desc>
    <type>Delivrez giveboxes</type>
    <extensions>
      <osmand:color>#0000ff</osmand:color>
      <osmand:background>square</osmand:background>
      <osmand:icon>outpost</osmand:icon>
    </extensions>
  </wpt>
  <wpt lat="32.788183" lon="-80.034025">
    <name>Free Pantry</name>
    <desc> Blessing Box Project</desc>
    <type>Delivrez giveboxes</type>
    <extensions>
      <osmand:color>#0000ff</osmand:color>
      <osmand:background>square</osmand:background>
      <osmand:icon>outpost</osmand:icon>
    </extensions>
  </wpt>
  <wpt lat="33.888663" lon="-81.265614">
    <name>Free Pantry</name>
    <desc> Blessing Box Project</desc>
    <type>Delivrez giveboxes</type>
    <extensions>
      <osmand:color>#0000ff</osmand:color>
      <osmand:background>square</osmand:background>
      <osmand:icon>outpost</osmand:icon>
    </extensions>
  </wpt>
  <wpt lat="33.905435" lon="-81.234294">
    <name>Free Pantry</name>
    <desc> Blessing Box Project</desc>
    <type>Delivrez giveboxes</type>
    <extensions>
      <osmand:color>#0000ff</osmand:color>
      <osmand:background>square</osmand:background>
      <osmand:icon>outpost</osmand:icon>
    </extensions>
  </wpt>
  <wpt lat="33.017863" lon="-80.180728">
    <name>Free Pantry</name>
    <desc> Blessing Box Project</desc>
    <type>Delivrez giveboxes</type>
    <extensions>
      <osmand:color>#0000ff</osmand:color>
      <osmand:background>square</osmand:background>
      <osmand:icon>outpost</osmand:icon>
    </extensions>
  </wpt>
  <wpt lat="32.916911" lon="-80.239052">
    <name>Free Pantry</name>
    <desc> Blessing Box Project</desc>
    <type>Delivrez giveboxes</type>
    <extensions>
      <osmand:color>#0000ff</osmand:color>
      <osmand:background>square</osmand:background>
      <osmand:icon>outpost</osmand:icon>
    </extensions>
  </wpt>
  <wpt lat="32.656715" lon="-79.938511">
    <name>Free Pantry</name>
    <desc> Blessing Box Project</desc>
    <type>Delivrez giveboxes</type>
    <extensions>
      <osmand:color>#0000ff</osmand:color>
      <osmand:background>square</osmand:background>
      <osmand:icon>outpost</osmand:icon>
    </extensions>
  </wpt>
  <wpt lat="34.401003" lon="-79.893599">
    <name>Free Pantry</name>
    <desc> Blessing Box Project</desc>
    <type>Delivrez giveboxes</type>
    <extensions>
      <osmand:color>#0000ff</osmand:color>
      <osmand:background>square</osmand:background>
      <osmand:icon>outpost</osmand:icon>
    </extensions>
  </wpt>
  <wpt lat="34.157883" lon="-79.80173">
    <name>Free Pantry</name>
    <desc> Blessing Box Project</desc>
    <type>Delivrez giveboxes</type>
    <extensions>
      <osmand:color>#0000ff</osmand:color>
      <osmand:background>square</osmand:background>
      <osmand:icon>outpost</osmand:icon>
    </extensions>
  </wpt>
  <wpt lat="33.107094" lon="-80.12507">
    <name>Free Pantry</name>
    <desc> Blessing Box Project</desc>
    <type>Delivrez giveboxes</type>
    <extensions>
      <osmand:color>#0000ff</osmand:color>
      <osmand:background>square</osmand:background>
      <osmand:icon>outpost</osmand:icon>
    </extensions>
  </wpt>
  <wpt lat="32.950044" lon="-80.227304">
    <name>Free Pantry</name>
    <desc> Blessing Box Project</desc>
    <type>Delivrez giveboxes</type>
    <extensions>
      <osmand:color>#0000ff</osmand:color>
      <osmand:background>square</osmand:background>
      <osmand:icon>outpost</osmand:icon>
    </extensions>
  </wpt>
  <wpt lat="33.018657" lon="-80.179202">
    <name>Free Pantry</name>
    <desc> Blessing Box Project</desc>
    <type>Delivrez giveboxes</type>
    <extensions>
      <osmand:color>#0000ff</osmand:color>
      <osmand:background>square</osmand:background>
      <osmand:icon>outpost</osmand:icon>
    </extensions>
  </wpt>
  <wpt lat="32.746554" lon="-79.905583">
    <name>Free Pantry</name>
    <desc> Blessing Box Project</desc>
    <type>Delivrez giveboxes</type>
    <extensions>
      <osmand:color>#0000ff</osmand:color>
      <osmand:background>square</osmand:background>
      <osmand:icon>outpost</osmand:icon>
    </extensions>
  </wpt>
  <wpt lat="33.017328" lon="-80.185141">
    <name>Free Pantry</name>
    <desc> Blessing Box Project</desc>
    <type>Delivrez giveboxes</type>
    <extensions>
      <osmand:color>#0000ff</osmand:color>
      <osmand:background>square</osmand:background>
      <osmand:icon>outpost</osmand:icon>
    </extensions>
  </wpt>
  <wpt lat="32.879694" lon="-79.976829">
    <name>Free Pantry</name>
    <desc> Blessing Box Project</desc>
    <type>Delivrez giveboxes</type>
    <extensions>
      <osmand:color>#0000ff</osmand:color>
      <osmand:background>square</osmand:background>
      <osmand:icon>outpost</osmand:icon>
    </extensions>
  </wpt>
  <wpt lat="33.964866" lon="-81.171864">
    <name>Free Pantry</name>
    <desc> Blessing Box Project</desc>
    <type>Delivrez giveboxes</type>
    <extensions>
      <osmand:color>#0000ff</osmand:color>
      <osmand:background>square</osmand:background>
      <osmand:icon>outpost</osmand:icon>
    </extensions>
  </wpt>
  <wpt lat="34.166356" lon="-79.757429">
    <name>Free Pantry</name>
    <desc> Blessing Box Project</desc>
    <type>Delivrez giveboxes</type>
    <extensions>
      <osmand:color>#0000ff</osmand:color>
      <osmand:background>square</osmand:background>
      <osmand:icon>outpost</osmand:icon>
    </extensions>
  </wpt>
  <wpt lat="32.831735" lon="-80.069033">
    <name>Free Pantry</name>
    <desc> Blessing Box Project</desc>
    <type>Delivrez giveboxes</type>
    <extensions>
      <osmand:color>#0000ff</osmand:color>
      <osmand:background>square</osmand:background>
      <osmand:icon>outpost</osmand:icon>
    </extensions>
  </wpt>
  <wpt lat="32.83186" lon="-80.046834">
    <name>Free Pantry</name>
    <desc> Blessing Box Project</desc>
    <type>Delivrez giveboxes</type>
    <extensions>
      <osmand:color>#0000ff</osmand:color>
      <osmand:background>square</osmand:background>
      <osmand:icon>outpost</osmand:icon>
    </extensions>
  </wpt>
  <wpt lat="34.381871" lon="-80.185939">
    <name>Free Pantry</name>
    <desc> Blessing Box Project</desc>
    <type>Delivrez giveboxes</type>
    <extensions>
      <osmand:color>#0000ff</osmand:color>
      <osmand:background>square</osmand:background>
      <osmand:icon>outpost</osmand:icon>
    </extensions>
  </wpt>
  <wpt lat="33.231513" lon="-80.325162">
    <name>Free Pantry</name>
    <desc> Blessing Box Project</desc>
    <type>Delivrez giveboxes</type>
    <extensions>
      <osmand:color>#0000ff</osmand:color>
      <osmand:background>square</osmand:background>
      <osmand:icon>outpost</osmand:icon>
    </extensions>
  </wpt>
  <wpt lat="32.954166" lon="-80.047724">
    <name>Free Pantry</name>
    <desc> Blessing Box Project</desc>
    <type>Delivrez giveboxes</type>
    <extensions>
      <osmand:color>#0000ff</osmand:color>
      <osmand:background>square</osmand:background>
      <osmand:icon>outpost</osmand:icon>
    </extensions>
  </wpt>
  <wpt lat="33.932568" lon="-81.236934">
    <name>Free Pantry</name>
    <desc> Blessing Box Project</desc>
    <type>Delivrez giveboxes</type>
    <extensions>
      <osmand:color>#0000ff</osmand:color>
      <osmand:background>square</osmand:background>
      <osmand:icon>outpost</osmand:icon>
    </extensions>
  </wpt>
  <wpt lat="33.018594" lon="-80.034689">
    <name>Free Pantry</name>
    <desc> Blessing Box Project</desc>
    <type>Delivrez giveboxes</type>
    <extensions>
      <osmand:color>#0000ff</osmand:color>
      <osmand:background>square</osmand:background>
      <osmand:icon>outpost</osmand:icon>
    </extensions>
  </wpt>
  <wpt lat="32.858649" lon="-80.043965">
    <name>Free Pantry</name>
    <desc> Blessing Box Project</desc>
    <type>Delivrez giveboxes</type>
    <extensions>
      <osmand:color>#0000ff</osmand:color>
      <osmand:background>square</osmand:background>
      <osmand:icon>outpost</osmand:icon>
    </extensions>
  </wpt>
  <wpt lat="32.794432" lon="-79.999536">
    <name>Free Pantry</name>
    <desc> Blessing Box Project</desc>
    <type>Delivrez giveboxes</type>
    <extensions>
      <osmand:color>#0000ff</osmand:color>
      <osmand:background>square</osmand:background>
      <osmand:icon>outpost</osmand:icon>
    </extensions>
  </wpt>
  <wpt lat="32.987828" lon="-80.206988">
    <name>Free Pantry</name>
    <desc> Blessing Box Project</desc>
    <type>Delivrez giveboxes</type>
    <extensions>
      <osmand:color>#0000ff</osmand:color>
      <osmand:background>square</osmand:background>
      <osmand:icon>outpost</osmand:icon>
    </extensions>
  </wpt>
  <wpt lat="33.151769" lon="-80.059539">
    <name>Free Pantry</name>
    <desc> Blessing Box Project</desc>
    <type>Delivrez giveboxes</type>
    <extensions>
      <osmand:color>#0000ff</osmand:color>
      <osmand:background>square</osmand:background>
      <osmand:icon>outpost</osmand:icon>
    </extensions>
  </wpt>
  <wpt lat="34.341974" lon="-79.760688">
    <name>Free Pantry</name>
    <desc> Blessing Box Project</desc>
    <type>Delivrez giveboxes</type>
    <extensions>
      <osmand:color>#0000ff</osmand:color>
      <osmand:background>square</osmand:background>
      <osmand:icon>outpost</osmand:icon>
    </extensions>
  </wpt>
  <wpt lat="33.665167" lon="-79.832042">
    <name>Free Pantry</name>
    <desc> Blessing Box Project</desc>
    <type>Delivrez giveboxes</type>
    <extensions>
      <osmand:color>#0000ff</osmand:color>
      <osmand:background>square</osmand:background>
      <osmand:icon>outpost</osmand:icon>
    </extensions>
  </wpt>
  <wpt lat="32.755024" lon="-79.970373">
    <name>Free Pantry</name>
    <desc> Blessing Box Project</desc>
    <type>Delivrez giveboxes</type>
    <extensions>
      <osmand:color>#0000ff</osmand:color>
      <osmand:background>square</osmand:background>
      <osmand:icon>outpost</osmand:icon>
    </extensions>
  </wpt>
  <wpt lat="32.843014" lon="-79.957577">
    <name>Free Pantry</name>
    <desc> Blessing Box Project</desc>
    <type>Delivrez giveboxes</type>
    <extensions>
      <osmand:color>#0000ff</osmand:color>
      <osmand:background>square</osmand:background>
      <osmand:icon>outpost</osmand:icon>
    </extensions>
  </wpt>
  <wpt lat="32.899383" lon="-80.087997">
    <name>Free Pantry</name>
    <desc> Blessing Box Project</desc>
    <type>Delivrez giveboxes</type>
    <extensions>
      <osmand:color>#0000ff</osmand:color>
      <osmand:background>square</osmand:background>
      <osmand:icon>outpost</osmand:icon>
    </extensions>
  </wpt>
  <wpt lat="33.038333" lon="-80.073616">
    <name>Free Pantry</name>
    <desc> Blessing Box Project</desc>
    <type>Delivrez giveboxes</type>
    <extensions>
      <osmand:color>#0000ff</osmand:color>
      <osmand:background>square</osmand:background>
      <osmand:icon>outpost</osmand:icon>
    </extensions>
  </wpt>
  <wpt lat="33.740079" lon="-80.204984">
    <name>Free Pantry</name>
    <desc> Blessing Box Project</desc>
    <type>Delivrez giveboxes</type>
    <extensions>
      <osmand:color>#0000ff</osmand:color>
      <osmand:background>square</osmand:background>
      <osmand:icon>outpost</osmand:icon>
    </extensions>
  </wpt>
  <wpt lat="32.797782" lon="-79.936116">
    <name>Free Pantry</name>
    <desc> Blessing Box Project</desc>
    <type>Delivrez giveboxes</type>
    <extensions>
      <osmand:color>#0000ff</osmand:color>
      <osmand:background>square</osmand:background>
      <osmand:icon>outpost</osmand:icon>
    </extensions>
  </wpt>
  <wpt lat="32.929784" lon="-80.03165">
    <name>Free Pantry</name>
    <desc> Blessing Box Project</desc>
    <type>Delivrez giveboxes</type>
    <extensions>
      <osmand:color>#0000ff</osmand:color>
      <osmand:background>square</osmand:background>
      <osmand:icon>outpost</osmand:icon>
    </extensions>
  </wpt>
  <wpt lat="34.731118" lon="-80.718142">
    <name>Free Pantry</name>
    <desc> Blessing Box Project</desc>
    <type>Delivrez giveboxes</type>
    <extensions>
      <osmand:color>#0000ff</osmand:color>
      <osmand:background>square</osmand:background>
      <osmand:icon>outpost</osmand:icon>
    </extensions>
  </wpt>
  <wpt lat="34.707513" lon="-80.765824">
    <name>Free Pantry</name>
    <desc> Blessing Box Project</desc>
    <type>Delivrez giveboxes</type>
    <extensions>
      <osmand:color>#0000ff</osmand:color>
      <osmand:background>square</osmand:background>
      <osmand:icon>outpost</osmand:icon>
    </extensions>
  </wpt>
  <wpt lat="34.695852" lon="-80.899317">
    <name>Free Pantry</name>
    <desc> Blessing Box Project</desc>
    <type>Delivrez giveboxes</type>
    <extensions>
      <osmand:color>#0000ff</osmand:color>
      <osmand:background>square</osmand:background>
      <osmand:icon>outpost</osmand:icon>
    </extensions>
  </wpt>
  <wpt lat="34.936712" lon="-81.013776">
    <name>Free Pantry</name>
    <desc> Blessing Box Project</desc>
    <type>Delivrez giveboxes</type>
    <extensions>
      <osmand:color>#0000ff</osmand:color>
      <osmand:background>square</osmand:background>
      <osmand:icon>outpost</osmand:icon>
    </extensions>
  </wpt>
  <wpt lat="34.371864" lon="-80.076572">
    <name>Free Pantry</name>
    <desc> Blessing Box Project</desc>
    <type>Delivrez giveboxes</type>
    <extensions>
      <osmand:color>#0000ff</osmand:color>
      <osmand:background>square</osmand:background>
      <osmand:icon>outpost</osmand:icon>
    </extensions>
  </wpt>
  <wpt lat="34.925858" lon="-81.024698">
    <name>Free Pantry</name>
    <desc> Blessing Box Project</desc>
    <type>Delivrez giveboxes</type>
    <extensions>
      <osmand:color>#0000ff</osmand:color>
      <osmand:background>square</osmand:background>
      <osmand:icon>outpost</osmand:icon>
    </extensions>
  </wpt>
  <wpt lat="34.059" lon="-80.973277">
    <name>Free Pantry</name>
    <desc> Blessing Box Project</desc>
    <type>Delivrez giveboxes</type>
    <extensions>
      <osmand:color>#0000ff</osmand:color>
      <osmand:background>square</osmand:background>
      <osmand:icon>outpost</osmand:icon>
    </extensions>
  </wpt>
  <wpt lat="34.317208" lon="-79.916226">
    <name>Free Pantry</name>
    <desc> Blessing Box Project</desc>
    <type>Delivrez giveboxes</type>
    <extensions>
      <osmand:color>#0000ff</osmand:color>
      <osmand:background>square</osmand:background>
      <osmand:icon>outpost</osmand:icon>
    </extensions>
  </wpt>
  <wpt lat="34.182902" lon="-79.813556">
    <name>Free Pantry</name>
    <desc> Blessing Box Project</desc>
    <type>Delivrez giveboxes</type>
    <extensions>
      <osmand:color>#0000ff</osmand:color>
      <osmand:background>square</osmand:background>
      <osmand:icon>outpost</osmand:icon>
    </extensions>
  </wpt>
  <wpt lat="34.261318" lon="-80.080926">
    <name>Free Pantry</name>
    <desc> Blessing Box Project</desc>
    <type>Delivrez giveboxes</type>
    <extensions>
      <osmand:color>#0000ff</osmand:color>
      <osmand:background>square</osmand:background>
      <osmand:icon>outpost</osmand:icon>
    </extensions>
  </wpt>
  <wpt lat="34.173979" lon="-80.065092">
    <name>Free Pantry</name>
    <desc> Blessing Box Project</desc>
    <type>Delivrez giveboxes</type>
    <extensions>
      <osmand:color>#0000ff</osmand:color>
      <osmand:background>square</osmand:background>
      <osmand:icon>outpost</osmand:icon>
    </extensions>
  </wpt>
  <wpt lat="34.458513" lon="-80.046896">
    <name>Free Pantry</name>
    <desc> Blessing Box Project</desc>
    <type>Delivrez giveboxes</type>
    <extensions>
      <osmand:color>#0000ff</osmand:color>
      <osmand:background>square</osmand:background>
      <osmand:icon>outpost</osmand:icon>
    </extensions>
  </wpt>
  <wpt lat="34.698681" lon="-79.8847">
    <name>Free Pantry</name>
    <desc> Blessing Box Project</desc>
    <type>Delivrez giveboxes</type>
    <extensions>
      <osmand:color>#0000ff</osmand:color>
      <osmand:background>square</osmand:background>
      <osmand:icon>outpost</osmand:icon>
    </extensions>
  </wpt>
  <wpt lat="34.693116" lon="-79.903424">
    <name>Free Pantry</name>
    <desc> Blessing Box Project</desc>
    <type>Delivrez giveboxes</type>
    <extensions>
      <osmand:color>#0000ff</osmand:color>
      <osmand:background>square</osmand:background>
      <osmand:icon>outpost</osmand:icon>
    </extensions>
  </wpt>
  <wpt lat="34.513295" lon="-79.859564">
    <name>Free Pantry</name>
    <desc> Blessing Box Project</desc>
    <type>Delivrez giveboxes</type>
    <extensions>
      <osmand:color>#0000ff</osmand:color>
      <osmand:background>square</osmand:background>
      <osmand:icon>outpost</osmand:icon>
    </extensions>
  </wpt>
  <wpt lat="34.374568" lon="-80.073115">
    <name>Free Pantry</name>
    <desc> Blessing Box Project</desc>
    <type>Delivrez giveboxes</type>
    <extensions>
      <osmand:color>#0000ff</osmand:color>
      <osmand:background>square</osmand:background>
      <osmand:icon>outpost</osmand:icon>
    </extensions>
  </wpt>
  <wpt lat="34.372573" lon="-80.078134">
    <name>Free Pantry</name>
    <desc> Blessing Box Project</desc>
    <type>Delivrez giveboxes</type>
    <extensions>
      <osmand:color>#0000ff</osmand:color>
      <osmand:background>square</osmand:background>
      <osmand:icon>outpost</osmand:icon>
    </extensions>
  </wpt>
  <wpt lat="34.315891" lon="-79.870841">
    <name>Free Pantry</name>
    <desc> Blessing Box Project</desc>
    <type>Delivrez giveboxes</type>
    <extensions>
      <osmand:color>#0000ff</osmand:color>
      <osmand:background>square</osmand:background>
      <osmand:icon>outpost</osmand:icon>
    </extensions>
  </wpt>
  <wpt lat="34.367804" lon="-80.072099">
    <name>Free Pantry</name>
    <desc> Blessing Box Project</desc>
    <type>Delivrez giveboxes</type>
    <extensions>
      <osmand:color>#0000ff</osmand:color>
      <osmand:background>square</osmand:background>
      <osmand:icon>outpost</osmand:icon>
    </extensions>
  </wpt>
  <wpt lat="34.210536" lon="-79.644568">
    <name>Free Pantry</name>
    <desc> Blessing Box Project</desc>
    <type>Delivrez giveboxes</type>
    <extensions>
      <osmand:color>#0000ff</osmand:color>
      <osmand:background>square</osmand:background>
      <osmand:icon>outpost</osmand:icon>
    </extensions>
  </wpt>
  <wpt lat="33.809344" lon="-78.717838">
    <name>Free Pantry</name>
    <desc> Blessing Box Project</desc>
    <type>Delivrez giveboxes</type>
    <extensions>
      <osmand:color>#0000ff</osmand:color>
      <osmand:background>square</osmand:background>
      <osmand:icon>outpost</osmand:icon>
    </extensions>
  </wpt>
  <wpt lat="34.751466" lon="-79.703817">
    <name>Free Pantry</name>
    <desc> Blessing Box Project</desc>
    <type>Delivrez giveboxes</type>
    <extensions>
      <osmand:color>#0000ff</osmand:color>
      <osmand:background>square</osmand:background>
      <osmand:icon>outpost</osmand:icon>
    </extensions>
  </wpt>
  <wpt lat="32.99047" lon="-80.232763">
    <name>Free Pantry</name>
    <desc> Blessing Box Project</desc>
    <type>Delivrez giveboxes</type>
    <extensions>
      <osmand:color>#0000ff</osmand:color>
      <osmand:background>square</osmand:background>
      <osmand:icon>outpost</osmand:icon>
    </extensions>
  </wpt>
  <wpt lat="33.607293" lon="-80.34958">
    <name>Free Pantry</name>
    <desc> Blessing Box Project</desc>
    <type>Delivrez giveboxes</type>
    <extensions>
      <osmand:color>#0000ff</osmand:color>
      <osmand:background>square</osmand:background>
      <osmand:icon>outpost</osmand:icon>
    </extensions>
  </wpt>
  <wpt lat="33.484739" lon="-80.468889">
    <name>Free Pantry</name>
    <desc> Blessing Box Project</desc>
    <type>Delivrez giveboxes</type>
    <extensions>
      <osmand:color>#0000ff</osmand:color>
      <osmand:background>square</osmand:background>
      <osmand:icon>outpost</osmand:icon>
    </extensions>
  </wpt>
  <wpt lat="32.896674" lon="-80.004885">
    <name>Free Pantry</name>
    <desc> Blessing Box Project</desc>
    <type>Delivrez giveboxes</type>
    <extensions>
      <osmand:color>#0000ff</osmand:color>
      <osmand:background>square</osmand:background>
      <osmand:icon>outpost</osmand:icon>
    </extensions>
  </wpt>
  <wpt lat="32.912895" lon="-79.860488">
    <name>Free Pantry</name>
    <desc> Blessing Box Project</desc>
    <type>Delivrez giveboxes</type>
    <extensions>
      <osmand:color>#0000ff</osmand:color>
      <osmand:background>square</osmand:background>
      <osmand:icon>outpost</osmand:icon>
    </extensions>
  </wpt>
  <wpt lat="32.894032" lon="-80.001614">
    <name>Free Pantry</name>
    <desc> Blessing Box Project</desc>
    <type>Delivrez giveboxes</type>
    <extensions>
      <osmand:color>#0000ff</osmand:color>
      <osmand:background>square</osmand:background>
      <osmand:icon>outpost</osmand:icon>
    </extensions>
  </wpt>
  <wpt lat="32.775905" lon="-80.248132">
    <name>Free Pantry</name>
    <desc> Blessing Box Project</desc>
    <type>Delivrez giveboxes</type>
    <extensions>
      <osmand:color>#0000ff</osmand:color>
      <osmand:background>square</osmand:background>
      <osmand:icon>outpost</osmand:icon>
    </extensions>
  </wpt>
  <wpt lat="32.988404" lon="-80.186348">
    <name>Free Pantry</name>
    <desc> Blessing Box Project</desc>
    <type>Delivrez giveboxes</type>
    <extensions>
      <osmand:color>#0000ff</osmand:color>
      <osmand:background>square</osmand:background>
      <osmand:icon>outpost</osmand:icon>
    </extensions>
  </wpt>
  <wpt lat="32.994076" lon="-80.120662">
    <name>Free Pantry</name>
    <desc> Blessing Box Project</desc>
    <type>Delivrez giveboxes</type>
    <extensions>
      <osmand:color>#0000ff</osmand:color>
      <osmand:background>square</osmand:background>
      <osmand:icon>outpost</osmand:icon>
    </extensions>
  </wpt>
  <wpt lat="32.928959" lon="-79.856422">
    <name>Free Pantry</name>
    <desc> Blessing Box Project</desc>
    <type>Delivrez giveboxes</type>
    <extensions>
      <osmand:color>#0000ff</osmand:color>
      <osmand:background>square</osmand:background>
      <osmand:icon>outpost</osmand:icon>
    </extensions>
  </wpt>
  <wpt lat="32.905605" lon="-80.002077">
    <name>Free Pantry</name>
    <desc> Blessing Box Project</desc>
    <type>Delivrez giveboxes</type>
    <extensions>
      <osmand:color>#0000ff</osmand:color>
      <osmand:background>square</osmand:background>
      <osmand:icon>outpost</osmand:icon>
    </extensions>
  </wpt>
  <wpt lat="33.03026" lon="-80.121455">
    <name>Free Pantry</name>
    <desc> Blessing Box Project</desc>
    <type>Delivrez giveboxes</type>
    <extensions>
      <osmand:color>#0000ff</osmand:color>
      <osmand:background>square</osmand:background>
      <osmand:icon>outpost</osmand:icon>
    </extensions>
  </wpt>
  <wpt lat="33.037315" lon="-80.139629">
    <name>Free Pantry</name>
    <desc> Blessing Box Project</desc>
    <type>Delivrez giveboxes</type>
    <extensions>
      <osmand:color>#0000ff</osmand:color>
      <osmand:background>square</osmand:background>
      <osmand:icon>outpost</osmand:icon>
    </extensions>
  </wpt>
  <wpt lat="32.998021" lon="-80.040849">
    <name>Free Pantry</name>
    <desc> Blessing Box Project</desc>
    <type>Delivrez giveboxes</type>
    <extensions>
      <osmand:color>#0000ff</osmand:color>
      <osmand:background>square</osmand:background>
      <osmand:icon>outpost</osmand:icon>
    </extensions>
  </wpt>
  <wpt lat="33.022564" lon="-79.795137">
    <name>Free Pantry</name>
    <desc> Blessing Box Project</desc>
    <type>Delivrez giveboxes</type>
    <extensions>
      <osmand:color>#0000ff</osmand:color>
      <osmand:background>square</osmand:background>
      <osmand:icon>outpost</osmand:icon>
    </extensions>
  </wpt>
  <wpt lat="33.028298" lon="-80.171617">
    <name>Free Pantry</name>
    <desc> Blessing Box Project</desc>
    <type>Delivrez giveboxes</type>
    <extensions>
      <osmand:color>#0000ff</osmand:color>
      <osmand:background>square</osmand:background>
      <osmand:icon>outpost</osmand:icon>
    </extensions>
  </wpt>
  <wpt lat="33.278176" lon="-79.857723">
    <name>Free Pantry</name>
    <desc> Blessing Box Project</desc>
    <type>Delivrez giveboxes</type>
    <extensions>
      <osmand:color>#0000ff</osmand:color>
      <osmand:background>square</osmand:background>
      <osmand:icon>outpost</osmand:icon>
    </extensions>
  </wpt>
  <wpt lat="32.793064" lon="-79.936412">
    <name>Free Pantry</name>
    <desc> Blessing Box Project</desc>
    <type>Delivrez giveboxes</type>
    <extensions>
      <osmand:color>#0000ff</osmand:color>
      <osmand:background>square</osmand:background>
      <osmand:icon>outpost</osmand:icon>
    </extensions>
  </wpt>
  <wpt lat="32.854671" lon="-79.995228">
    <name>Free Pantry</name>
    <desc> Blessing Box Project</desc>
    <type>Delivrez giveboxes</type>
    <extensions>
      <osmand:color>#0000ff</osmand:color>
      <osmand:background>square</osmand:background>
      <osmand:icon>outpost</osmand:icon>
    </extensions>
  </wpt>
  <wpt lat="32.846562" lon="-79.991849">
    <name>Free Pantry</name>
    <desc> Blessing Box Project</desc>
    <type>Delivrez giveboxes</type>
    <extensions>
      <osmand:color>#0000ff</osmand:color>
      <osmand:background>square</osmand:background>
      <osmand:icon>outpost</osmand:icon>
    </extensions>
  </wpt>
  <wpt lat="32.743559" lon="-80.039262">
    <name>Free Pantry</name>
    <desc> Blessing Box Project</desc>
    <type>Delivrez giveboxes</type>
    <extensions>
      <osmand:color>#0000ff</osmand:color>
      <osmand:background>square</osmand:background>
      <osmand:icon>outpost</osmand:icon>
    </extensions>
  </wpt>
  <wpt lat="32.805859" lon="-80.010019">
    <name>Free Pantry</name>
    <desc> Blessing Box Project</desc>
    <type>Delivrez giveboxes</type>
    <extensions>
      <osmand:color>#0000ff</osmand:color>
      <osmand:background>square</osmand:background>
      <osmand:icon>outpost</osmand:icon>
    </extensions>
  </wpt>
  <wpt lat="32.738347" lon="-79.966682">
    <name>Free Pantry</name>
    <desc> Blessing Box Project</desc>
    <type>Delivrez giveboxes</type>
    <extensions>
      <osmand:color>#0000ff</osmand:color>
      <osmand:background>square</osmand:background>
      <osmand:icon>outpost</osmand:icon>
    </extensions>
  </wpt>
  <wpt lat="32.792551" lon="-79.871296">
    <name>Free Pantry</name>
    <desc> Blessing Box Project</desc>
    <type>Delivrez giveboxes</type>
    <extensions>
      <osmand:color>#0000ff</osmand:color>
      <osmand:background>square</osmand:background>
      <osmand:icon>outpost</osmand:icon>
    </extensions>
  </wpt>
  <wpt lat="32.881036" lon="-79.981403">
    <name>Free Pantry</name>
    <desc> Blessing Box Project</desc>
    <type>Delivrez giveboxes</type>
    <extensions>
      <osmand:color>#0000ff</osmand:color>
      <osmand:background>square</osmand:background>
      <osmand:icon>outpost</osmand:icon>
    </extensions>
  </wpt>
  <wpt lat="33.090314" lon="-79.462507">
    <name>Free Pantry</name>
    <desc> Blessing Box Project</desc>
    <type>Delivrez giveboxes</type>
    <extensions>
      <osmand:color>#0000ff</osmand:color>
      <osmand:background>square</osmand:background>
      <osmand:icon>outpost</osmand:icon>
    </extensions>
  </wpt>
  <wpt lat="32.67004" lon="-80.178118">
    <name>Free Pantry</name>
    <desc> Blessing Box Project</desc>
    <type>Delivrez giveboxes</type>
    <extensions>
      <osmand:color>#0000ff</osmand:color>
      <osmand:background>square</osmand:background>
      <osmand:icon>outpost</osmand:icon>
    </extensions>
  </wpt>
  <wpt lat="33.238111" lon="-79.963839">
    <name>Free Pantry</name>
    <desc> Blessing Box Project</desc>
    <type>Delivrez giveboxes</type>
    <extensions>
      <osmand:color>#0000ff</osmand:color>
      <osmand:background>square</osmand:background>
      <osmand:icon>outpost</osmand:icon>
    </extensions>
  </wpt>
  <wpt lat="32.794139" lon="-79.95061">
    <name>Free Pantry</name>
    <desc> Blessing Box Project</desc>
    <type>Delivrez giveboxes</type>
    <extensions>
      <osmand:color>#0000ff</osmand:color>
      <osmand:background>square</osmand:background>
      <osmand:icon>outpost</osmand:icon>
    </extensions>
  </wpt>
  <wpt lat="32.790563" lon="-80.013905">
    <name>Free Pantry</name>
    <desc> Blessing Box Project</desc>
    <type>Delivrez giveboxes</type>
    <extensions>
      <osmand:color>#0000ff</osmand:color>
      <osmand:background>square</osmand:background>
      <osmand:icon>outpost</osmand:icon>
    </extensions>
  </wpt>
  <wpt lat="32.881279" lon="-80.003011">
    <name>Free Pantry</name>
    <desc> Blessing Box Project</desc>
    <type>Delivrez giveboxes</type>
    <extensions>
      <osmand:color>#0000ff</osmand:color>
      <osmand:background>square</osmand:background>
      <osmand:icon>outpost</osmand:icon>
    </extensions>
  </wpt>
  <wpt lat="49.422879" lon="1.078294">
    <name>Rue Dufay</name>
    <desc>spécial jardinage@@__</desc>
    <type>Delivrez giveboxes</type>
    <extensions>
      <osmand:color>#0000ff</osmand:color>
      <osmand:background>square</osmand:background>
      <osmand:icon>outpost</osmand:icon>
    </extensions>
  </wpt>
  <wpt lat="48.967357" lon="2.358971">
    <name>L'Inutile Utile</name>
    <desc>Magasin pour rien</desc>
    <type>Delivrez giveboxes</type>
    <extensions>
      <osmand:color>#0000ff</osmand:color>
      <osmand:background>square</osmand:background>
      <osmand:icon>outpost</osmand:icon>
    </extensions>
  </wpt>
  <wpt lat="48.014624" lon="7.546992">
    <name>Place de l'Europe</name>
    <desc>dans le hall a côté du coiffeur</desc>
    <type>Delivrez giveboxes</type>
    <extensions>
      <osmand:color>#0000ff</osmand:color>
      <osmand:background>square</osmand:background>
      <osmand:icon>outpost</osmand:icon>
    </extensions>
  </wpt>
  <wpt lat="47.886441" lon="6.99596">
    <name>Rue des Fabriques</name>
    <desc>grainotheque de la mediatheque de wesserling</desc>
    <type>Delivrez giveboxes</type>
    <extensions>
      <osmand:color>#0000ff</osmand:color>
      <osmand:background>square</osmand:background>
      <osmand:icon>outpost</osmand:icon>
    </extensions>
  </wpt>
  <extensions>
    <osmand:points_groups>
      <group name="Delivrez giveboxes" color="#0000ff" icon="outpost" background="square" />
    </osmand:points_groups>
  </extensions>
</gpx>